     2.10           OBSERVATION DATA    G (GPS)             RINEX VERSION / TYPE
RTKCONV 2.4.3                           20160720 043053 UTC PGM / RUN BY / DATE 
log: C:\Users\ÎéÏþÛÂ\Documents\Visual Studio 2013\Projects  COMMENT             
format: RINEX                                               COMMENT             
                                                            MARKER NAME         
                                                            MARKER NUMBER       
                                                            OBSERVER / AGENCY   
                                                            REC # / TYPE / VERS 
                                                            ANT # / TYPE        
 -2743178.9846  4692264.3758  3326280.2966                  APPROX POSITION XYZ 
        0.0000        0.0000        0.0000                  ANTENNA: DELTA H/E/N
     1     1                                                WAVELENGTH FACT L1/2
     4    C1    L1    D1    S1                              # / TYPES OF OBSERV 
     1.000                                                  INTERVAL
  2016     5    20    10    23   20.0000000     GPS         TIME OF FIRST OBS   
  2016     5    20    10    34   57.0000000     GPS         TIME OF LAST OBS    
                                                            END OF HEADER       
 16  5 20 10 23 20.0000000  0  9G 1G 3G 8G11G17G22G28G19G30
  21525112.472   113115237.521       -2118.013          51.000  
  21635629.779   113696006.000        1818.828          49.000  
  24741127.974   130015502.959       -1876.063          43.000  
  22343195.799   117414281.178       -2317.452          51.000  
  22416235.866   117798121.586        1895.057          48.000  
  22156034.221   116430747.136         -65.659          43.000  
  20791858.389   109261962.279        1813.348          47.000  
  23887165.814   125527888.167        2700.134          43.000  
  22849111.325   120072881.401       -2377.799          41.000  
 16  5 20 10 23 21.0000000  0  9G 1G 3G 8G11G17G22G28G19G30
  21525515.607   113117355.939       -2118.696          52.000  
  21635283.166   113694187.411        1818.132          49.000  
  24741484.552   130017379.161       -1876.348          43.000  
  22343636.713   117416599.030       -2318.169          51.000  
  22415875.118   117796226.677        1894.700          48.000  
  22156046.524   116430813.273         -66.728          43.000  
  20791513.590   109260149.171        1812.781          47.000  
  23886651.975   125525188.079        2700.061          43.000  
  22849563.530   120075259.189       -2377.887          40.000  
 16  5 20 10 23 22.0000000  0  9G 1G 3G 8G11G17G22G28G19G30
  21525918.864   113119474.262       -2117.732          51.000  
  21634937.756   113692369.791        1816.849          49.000  
  24741841.339   130019255.290       -1875.509          41.000  
  22344077.663   117418916.524       -2316.432          49.000  
  22415514.806   117794332.085        1894.298          48.000  
  22156059.105   116430879.862         -66.667          46.000  
  20791169.507   109258336.716        1811.981          49.000  
  23886137.944   125522488.725        2698.450          41.000  
  22850016.276   120077638.733       -2381.048          42.000  
 16  5 20 10 23 23.0000000  0  9G 1G 3G 8G11G17G22G28G19G30
  21526322.331   113121590.654       -2115.244          52.000  
  21634592.032   113690552.714        1817.151          49.000  
  24742197.062   130021129.813       -1873.743          40.000  
  22344517.862   117421231.661       -2313.796          50.000  
  22415154.424   117792437.298        1894.972          48.000  
  22156072.385   116430945.460         -64.867          50.000  
  20790824.708   109256524.415        1812.714          48.000  
  23885623.982   125519790.227        2698.969          43.000  
  22850469.545   120080021.495       -2384.558          40.000  
 16  5 20 10 23 24.0000000  0  9G 1G 3G 8G11G17G22G28G19G30
  21526724.523   113123705.385       -2113.918          52.000  
  21634246.361   113688736.479        1815.521          49.000  
  24742553.465   130023002.793       -1871.405          38.000  
  22344957.782   117423544.557       -2312.266          51.000  
  22414794.251   117790542.826        1894.002          48.000  
  22156085.368   116431009.914         -64.388          49.000  
  20790480.345   109254712.564        1811.743          48.000  
  23885110.318   125517093.045        2696.911          42.000  
  22850923.390   120082408.063       -2387.931          40.000  
 16  5 20 10 23 25.0000000  0  8G 1G 3G 8G11G17G22G28G30
  21527126.943   113125818.719       -2113.811          50.000  
  21633900.829   113686920.824        1815.027          49.000  
  24742910.374   130024874.156       -1870.773          44.000  
  22345397.807   117425855.547       -2309.992          50.000  
  22414434.061   117788648.607        1894.060          49.000  
  22156097.216   116431073.840         -64.674          51.000  
  20790135.633   109252901.196        1810.535          49.000  
  22851378.422   120084798.022       -2392.590          39.000  
 16  5 20 10 23 26.0000000  0  8G 1G 3G 8G11G17G22G28G30
  21527528.856   113127931.322       -2112.257          51.000  
  21633555.873   113685106.614        1814.120          42.000  
  24743266.830   130026745.193       -1871.272          43.000  
  22345837.029   117428165.528       -2308.900          49.000  
  22414073.365   117786754.916        1894.633          49.000  
  22156109.641   116431137.815         -64.351          50.000  
  20789790.887   109251090.682        1810.541          49.000  
  22851834.030   120087191.022       -2394.141          40.000  
 16  5 20 10 23 27.0000000  0  8G 1G 3G 8G11G17G22G28G30
  21527930.421   113130042.841       -2111.724          51.000  
  21633210.638   113683292.813        1814.614          47.000  
  24743623.024   130028615.370       -1869.602          43.000  
  22346276.460   117430473.976       -2308.220          51.000  
  22413713.228   117784861.297        1893.120          49.000  
  22156122.519   116431201.264         -63.298          51.000  
  20789447.013   109249280.513        1809.912          49.000  
  22852289.795   120089586.697       -2396.099          40.000  
 16  5 20 10 23 28.0000000  0  7G 1G 3G 8G11G17G22G28
  21528331.933   113132153.765       -2110.598          51.000  
  21632865.473   113681480.245        1810.611          49.000  
  24743978.659   130030484.966       -1869.205          44.000  
  22346715.298   117432781.627       -2307.278          50.000  
  22413352.829   117782967.824        1893.465          48.000  
  22156134.525   116431264.968         -64.087          50.000  
  20789102.546   109247470.918        1809.436          48.000  
 16  5 20 10 23 29.0000000  0  8G 1G 3G 8G11G17G22G28G30
  21528733.497   113134264.528       -2110.583          51.000  
  21632520.831   113679668.734        1810.664          49.000  
  24744334.574   130032354.654       -1868.628          45.000  
  22347154.485   117435088.794       -2306.615          49.000  
  22412992.499   117781074.918        1892.389          48.000  
  22156145.327   116431328.980         -63.562          50.000  
  20788758.305   109245662.128        1808.319          48.000  
  22853203.767                       -2403.320          39.000  
 16  5 20 10 23 30.0000000  0  8G 1G 3G 8G11G17G22G28G30
  21529135.219   113136374.914       -2109.865          51.000  
  21632176.573   113677858.323        1809.769          49.000  
  24744690.489   130034223.873       -1868.383          43.000  
  22347593.463   117437395.295       -2305.824          50.000  
  22412632.484   117779182.343        1892.649          48.000  
  22156158.763   116431393.275         -64.186          50.000  
  20788414.414   109243854.123        1807.935          48.000  
  22853656.269   120096773.3313      -2404.149          39.000  
 16  5 20 10 23 31.0000000  0  8G 1G 3G 8G11G17G22G28G30
  21529536.661   113138484.813       -2109.875          51.000  
  21631832.193   113676048.814        1808.829          48.000  
  24745046.560   130036092.740       -1865.088          34.000  
  22348032.074   117439700.993       -2305.312          49.000  
  22412272.782   117777290.086        1891.889          48.000  
  22156170.874   116431457.664         -64.450          50.000  
  20788070.383   109242046.737        1806.793          48.000  
  22854116.623   120099178.0462      -2406.046          40.000  
 16  5 20 10 23 32.0000000  0  6G 1G 8G11G22G28G30
  21529938.103   113140594.307       -2108.970          51.000  
  24745402.091   130037961.139       -1867.858          43.000  
  22348470.546   117442006.005       -2304.289          49.000  
  22156182.653   116431522.228         -64.833          50.000  
  20787726.352   109240240.041        1806.610          48.000  
  22854575.668   120101584.9362      -2407.567          39.000  
 16  5 20 10 23 33.0000000  0  7G 1G 3G 8G11G17G22G30
  21530339.545   113142703.492       -2108.931          51.000  
  21631143.433   113672425.3203       1807.504          48.000  
  24745757.482   130039829.452       -1866.806          40.000  
  22348909.192   117444310.461       -2304.263          49.000  
  22411550.675   117773493.2263       1892.122          48.000  
  22156195.653   116431587.070         -64.570          50.000  
  22855033.929   120103994.1662      -2409.489          39.000  
 16  5 20 10 23 34.0000000  0  8G 1G 3G 8G11G17G22G28G30
  21530740.900   113144811.889       -2108.231          51.000  
  21630799.908   113670618.4162       1806.256          49.000  
  24746112.908   130041696.879       -1866.064          41.000  
  22349347.349   117446613.833       -2303.133          49.000  
  22411187.396   117771601.6722       1891.181          48.000  
  22156207.921   116431651.717         -64.662          50.000  
  20787040.802   109236635.9113       1805.273          48.000  
  22855490.583   120106404.9442      -2411.750          40.000  
 16  5 20 10 23 35.0000000  0  8G 1G 3G 8G11G17G22G28G30
  21531142.081   113146920.198       -2108.309          51.000  
  21630455.999   113668812.6012       1804.604          48.000  
  24746467.985   130043564.288       -1867.746          44.000  
  22349785.577   117448916.786       -2303.396          50.000  
  22410834.064   117769710.7302       1890.648          48.000  
  22156219.787   116431716.775         -65.670          50.000  
  20786697.609   109234831.1552       1804.065          48.000  
  22855951.862   120108818.0612      -2414.631          40.000  
 16  5 20 10 23 36.0000000  0  9G 1G 3G 8G11G17G22G28G19G30
  21531543.296   113149028.443       -2108.054          51.000  
  21630114.237   113667007.8812       1804.237          47.000  
  24746823.376   130045431.614       -1870.209          37.000  
  22350223.926   117451219.391       -2302.223          49.000  
  22410472.932   117767820.5692       1889.847          48.000  
  22156232.578   116431782.242         -65.302          50.000  
  20786354.939   109233027.3902       1803.558          48.000  
  23878963.775   125484800.9423       2684.558          42.000  
  22856410.681   120111233.5172      -2416.109          39.000  
 16  5 20 10 23 37.0000000  0  9G 1G 3G 8G11G17G22G28G19G30
  21531944.320   113151136.480       -2108.181          51.000  
  21629770.258   113665204.1682       1802.768          48.000  
  24747178.576   130047298.561       -1867.184          43.000  
  22350661.717   117453521.468       -2301.777          49.000  
  22410114.033   117765930.9912       1889.217          48.000  
  22156245.037   116431847.975         -66.097          50.000  
  20786010.193   109231224.4812       1802.539          48.000  
  23878451.751   125482116.6122       2683.807          42.000  
  22856870.896   120113651.1862      -2418.846          39.000  
 16  5 20 10 23 38.0000000  0  9G 1G 3G 8G11G17G22G28G19G30
  21532345.657   113153244.559       -2108.552          51.000  
  21629425.983   113663401.6762       1801.562          48.000  
  24747534.037   130049165.612       -1867.399          41.000  
  22351099.840   117455823.372       -2302.274          50.000  
  22409753.913   117764041.9002       1888.750          48.000  
  22156257.165   116431914.325         -66.877          50.000  
  20785667.086   109229422.4492       1801.520          48.000  
  23877939.465   125479433.1772       2682.977          42.000  
  22857331.564   120116070.8312      -2420.399          39.000  
 16  5 20 10 23 39.0000000  0  9G 1G 3G 8G11G17G22G28G19G30
  21532747.100   113155353.552       -2110.338          51.000  
  21629084.220   113661600.0962       1801.288          49.000  
  24747889.812   130051033.389       -1866.612          45.000  
  22351538.224   117458126.087       -2303.286          51.000  
  22409394.473   117762153.1492       1888.325          48.000  
  22156270.462   116431981.811         -67.954          50.000  
  20785323.788   109227621.1972       1800.635          48.000  
  23877434.368   125476749.9992       2682.941          42.000  
  22857792.093   120118490.6802      -2419.559          39.000  
 16  5 20 10 23 40.0000000  0  9G 1G 3G 8G11G17G22G28G19G30
  21533148.664   113157464.228       -2111.691          51.000  
  21628741.742   113659799.3952       1800.072          49.000  
  24748245.534   130052902.712       -1870.683          42.000  
  22351977.045   117460430.642       -2305.518          50.000  
  22409035.837   117760264.8812       1887.958          48.000  
  22156283.288   116432051.106         -70.072          50.000  
  20784980.996   109225820.8342       1799.756          48.000  
  23876923.426   125474066.7432       2682.800          42.000  
  22858252.464   120120909.3722      -2418.572          40.000  
 16  5 20 10 23 41.0000000  0  9G 1G 3G 8G11G17G22G28G19G30
  21533550.508   113159576.204       -2113.051          51.000  
  21628399.229   113657999.4872       1799.410          49.000  
  24748601.222   130054772.629       -1870.621          45.000  
  22352415.778   117462736.353       -2305.813          50.000  
  22408676.240   117758377.0482       1887.588          48.000  
  22156296.306   116432121.753         -71.505          50.000  
  20784639.112   109224021.3022       1798.859          48.000  
  23876413.234   125471383.5712       2682.733          42.000  
  22858712.661   120123327.5432      -2418.130          39.000  
 16  5 20 10 23 42.0000000  0  9G 1G 3G 8G11G17G22G28G19G30
  21533952.648   113161688.886       -2113.335          51.000  
  21628056.489   113656200.1782       1798.413          48.000  
  24748956.980   130056643.159       -1870.786          44.000  
  22352854.599   117465042.823       -2307.085          50.000  
  22408316.853   117756489.3442       1887.332          48.000  
  22156310.825   116432193.289         -72.409          50.000  
  20784296.826   109222222.2912       1798.309          48.000  
  23875901.838   125468700.4022       2682.587          42.000  
  22859172.771   120125745.5142      -2418.490          40.000  
 16  5 20 10 23 43.0000000  0  9G 1G 3G 8G11G17G22G28G19G30
  21534354.875   113163802.194       -2113.516          51.000  
  21627714.413   113654401.7862       1798.000          49.000  
  24749313.051   130058514.071       -1870.359          41.000  
  22353293.350   117467349.733       -2306.859          49.000  
  22407957.500   117754602.1222       1887.278          48.000  
  22156324.226   116432265.705         -72.795          50.000  
  20783954.540   109220424.0612       1797.882          48.000  
  23875391.227   125466017.6782       2683.093          43.000  
  22859632.968   120128164.0902      -2419.388          40.000  
 16  5 20 10 23 44.0000000  0  9G 1G 3G 8G11G17G22G28G19G30
  21534756.998   113165915.901       -2113.154          51.000  
  21627372.458   113652604.3632       1797.241          49.000  
  24749669.228   130060385.106       -1871.330          45.000  
  22353732.467   117469656.867       -2307.195          49.000  
  22407598.672   117752715.5602       1886.893          49.000  
  22156338.064   116432338.921         -73.287          50.000  
  20783612.445   109218626.8992       1797.485          48.000  
  23874881.576   125463335.8532       2681.604          41.000  
  22860093.619   120130583.9442      -2420.177          40.000  
 16  5 20 10 23 45.0000000  0  9G 1G 3G 8G11G17G22G28G19G30
  21535159.191   113168029.865       -2113.992          51.000  
  21627030.801   113650807.7752       1796.481          49.000  
  24750025.439   130062256.259       -1870.727          44.000  
  22354171.689   117471963.999       -2307.201          49.000  
  22407239.808   117750829.3472       1886.603          49.000  
  22156352.949   116432412.679         -73.410          50.000  
  20783270.735   109216830.4162       1796.533          48.000  
  23874371.052   125460654.5992       2680.762          41.000  
  22860554.392   120133004.9122      -2421.145          40.000  
 16  5 20 10 23 46.0000000  0  9G 1G 3G 8G11G17G22G28G19G30
  21535561.383   113170143.781       -2113.993          51.000  
  21626688.759   113649011.8142       1796.004          49.000  
  24750381.389   130064127.299       -1871.379          44.000  
  22354610.510   117474270.939       -2306.763          49.000  
  22406880.962   117748943.3422       1885.599          49.000  
  22156365.967   116432486.835         -74.561          50.000  
  20782928.711   109215034.4222       1795.477          48.000  
  23873860.825   125457973.7552       2680.267          41.000  
  22861015.287   120135426.8122      -2422.993          40.000  
 16  5 20 10 23 47.0000000  0  9G 1G 3G 8G11G17G22G28G19G30
  21535963.908   113172257.950       -2114.125          51.000  
  21626347.118   113647216.7372       1794.827          49.000  
  24750737.443   130065998.551       -1871.729          42.000  
  22355049.522   117476577.918       -2306.799          50.000  
  22406522.011   117747057.8142       1885.746          48.000  
  22156380.974   116432561.599         -75.144          50.000  
  20782587.193   109213239.2102       1795.239          48.000  
  23873350.825   125455293.6562       2679.755          41.000  
  22861476.252   120137849.8992      -2423.663          40.000  
 16  5 20 10 23 48.0000000  0  9G 1G 3G 8G11G17G22G28G19G30
  21536366.100   113174372.254       -2114.769          51.000  
  21626005.792   113645422.3932       1794.232          48.000  
  24751093.235   130067869.561       -1872.322          44.000  
  22355488.657   117478884.802       -2306.626          51.000  
  22406163.094   117745172.6302       1884.984          48.000  
  22156395.109   116432636.853         -76.163          49.000  
  20782245.901   109211444.6952       1794.183          48.000  
  23872840.895   125452614.0882       2679.633          42.000  
  22861937.915   120140274.1392      -2424.857          40.000  
 16  5 20 10 23 49.0000000  0  9G 1G 3G 8G11G17G22G28G19G30
  21536768.398   113176486.729       -2114.816          51.000  
  21625664.466   113643628.8542       1793.266          48.000  
  24751449.691   130069740.628       -1871.398          44.000  
  22355927.652   117481191.672       -2306.775          50.000  
  22405804.615   117743287.8172       1884.697          48.000  
  22156409.069   116432712.651         -76.585          50.000  
  20781904.418   109209650.8822       1793.365          48.000  
  23872330.860   125449935.1612       2679.028          41.000  
  22862399.491   120142699.356       -2425.128          40.000  
 16  5 20 10 23 50.0000000  0  9G 1G 3G 8G11G17G22G28G19G30
  21537170.939   113178601.650       -2115.580          51.000  
  21625323.471   113641836.3402       1791.961          48.000  
  24751806.146   130071611.912       -1871.038          43.000  
  22356366.752   117483498.784       -2307.344          50.000  
  22405445.821   117741403.5632       1883.856          48.000  
  22156424.583   116432789.191         -77.048          50.000  
  20781563.179   109207857.9732       1792.175          48.000  
  23871821.279   125447256.8962       2678.125          41.000  
  22862861.311   120145125.777       -2426.636          40.000  
 16  5 20 10 23 51.0000000  0  9G 1G 3G 8G11G17G22G28G19G30
  21537573.516   113180717.044       -2115.215          51.000  
  21624982.494   113640044.7722       1791.376          49.000  
  24752162.183   130073483.495       -1871.159          42.000  
  22356805.852   117485806.209       -2307.385          49.000  
  22405087.254   117739519.8902       1883.479          47.000  
  22156439.031   116432866.567         -77.524          50.000  
  20781222.080   109206066.0042       1791.882          48.000  
  23871311.453   125444579.3452       2677.252          41.000  
  22863323.166   120147553.345       -2427.846          40.000  
 16  5 20 10 23 52.0000000  0  9G 1G 3G 8G11G17G22G28G19G30
  21537976.005   113182832.176       -2115.013          51.000  
  21624641.552   113638253.6682       1791.171          49.000  
  24752518.272   130075354.656       -1870.960          42.000  
  22357244.602   117488113.093       -2306.350          50.000  
  22404728.617   117737636.2502       1883.755          48.000  
  22156453.864   116432944.072         -77.460          50.000  
  20780881.294   109204274.3932       1791.925          48.000  
  23870801.907   125441902.1182       2677.631          41.000  
  22863785.213   120149981.741       -2428.135          40.000  
 16  5 20 10 23 53.0000000  0  9G 1G 3G 8G11G17G22G28G19G30
  21538378.582   113184947.237       -2115.576          51.000  
  21624300.784   113636463.0902       1790.063          48.000  
  24752874.571   130077225.756       -1871.798          43.000  
  22357683.877   117490419.834       -2307.260          50.000  
  22404370.469   117735752.7152       1883.011          48.000  
  22156468.679   116433021.876         -78.232          49.000  
  20780540.614   109202483.1712       1790.552          48.000  
  23870292.884   125439225.3062       2676.447          41.000  
  22864247.644   120152411.048       -2430.464          40.000  
 16  5 20 10 23 54.0000000  0  9G 1G 3G 8G11G17G22G28G19G30
  21538780.966   113187062.733       -2115.964          51.000  
  21623960.260   113634673.4362       1789.314          49.000  
  24753230.660   130079096.950       -1871.490          42.000  
  22358123.151   117492726.796       -2307.149          47.000  
  22404012.111   117733869.7072       1882.783          48.000  
  22156483.233   116433100.416         -78.674          50.000  
  20780199.916   109200692.8132       1790.155          48.000  
  23869783.739   125436549.0632       2676.483          41.000  
  22864709.882   120154841.298       -2430.365          40.000  
 16  5 20 10 23 55.0000000  0  9G 1G 3G 8G11G17G22G28G19G30
  21539183.874   113189179.686       -2118.323          51.000  
  21623619.649   113632884.2251       1787.858          49.000  
  24753586.365   130080969.300       -1872.875          43.000  
  22358562.129   117495035.119       -2309.911          49.000  
  22403653.736   117731986.7801       1881.312          48.000  
  22156499.200   116433180.558         -81.198          50.000  
  20779859.340   109198902.9411       1788.354          48.000  
  23869274.245   125433872.5501       2675.439          42.000  
  22865172.226   120157271.115       -2429.623          40.000  
 16  5 20 10 23 56.0000000  0  9G 1G 3G 8G11G17G22G28G19G30
  21539587.079   113191298.291       -2119.078          51.000  
  21623279.423   113631096.630        1787.251          48.000  
  24753942.594   130082842.624       -1873.296          41.000  
  22359001.525   117497345.123       -2310.519          49.000  
  22403295.989   117730104.940        1881.645          48.000  
  22156513.963   116433262.373         -82.317          50.000  
  20779518.921   109197114.728        1788.232          48.000  
  23868764.681   125431196.657        2675.391          41.000  
  22865634.692   120159700.398       -2428.981          39.000  
 16  5 20 10 23 57.0000000  0  9G 1G 3G 8G11G17G22G28G19G30
  21539990.319   113193417.618       -2119.758          51.000  
  21622939.492   113629309.556        1786.905          49.000  
  24754299.277   130084716.510       -1873.622          42.000  
  22359441.026   117499655.740       -2310.030          47.000  
  22402938.032   117728223.199        1881.448          47.000  
  22156529.877   116433345.105         -82.504          51.000  
  20779178.607   109195327.033        1787.085          48.000  
  23868255.641   125428520.637        2675.665          40.000  
  22866096.634   120162129.264       -2428.184          39.000  
 16  5 20 10 23 58.0000000  0  9G 1G 3G 8G11G17G22G28G19G30
  21540393.960   113195538.242       -2121.443          51.000  
  21622599.684   113627523.586        1786.007          49.000  
  24754655.784   130086591.270       -1874.883          41.000  
  22359881.034   117501967.661       -2312.602          49.000  
  22402580.041   117726342.149        1881.409          49.000  
  22156545.879   116433429.374         -85.011          45.000  
  20778838.851   109193540.431        1786.182          48.000  
  23867746.862   125425845.095        2674.884          40.000  
  22866558.942   120164558.233       -2428.295          40.000  
 16  5 20 10 23 59.0000000  0  9G 1G 3G 8G11G17G22G28G19G30
  21540797.566   113197660.466       -2123.027          51.000  
  21622259.998   113625738.462        1784.352          48.000  
  24755013.008   130088467.124       -1878.036          44.000  
  22360321.006   117504281.153       -2314.017          49.000  
  22402222.417   117724461.620        1880.913          48.000  
  22156562.090   116433515.150         -86.708          50.000  
  20778499.026   109191754.757        1785.211          48.000  
  23867237.700   125423169.421        2676.105          40.000  
  22867020.745   120166986.226       -2427.834          39.000  
 16  5 20 10 24  0.0000000  0  9G 1G 3G 8G11G17G22G28G19G30
  21541201.782   113199783.616       -2123.247          51.000  
  21621920.504   113623954.152        1783.218          44.000  
  24755370.144   130090343.713       -1876.406          44.000  
  22360761.502   117506595.554       -2314.690          48.000  
  22401864.600   117722581.168        1880.399          48.000  
  22156578.930   116433602.180         -87.405          50.000  
  20778159.601   109189969.667        1784.766          48.000  
  23866728.346   125420493.585        2676.111          40.000  
  22867482.862   120169413.778       -2426.569          41.000  
 16  5 20 10 24  1.0000000  0  9G 1G 3G 8G11G17G22G28G19G30
  21541605.999   113201907.773       -2124.379          51.000  
  21621581.185   113622170.699        1783.212          50.000  
  24755727.524   130092220.960       -1877.226          44.000  
  22361202.033   117508910.901       -2315.276          48.000  
  22401506.992   117720701.077        1879.802          48.000  
  22156595.333   116433690.347         -88.580          51.000  
  20777819.915   109188185.382        1784.015          48.000  
  23866219.078   125417817.941        2675.128          39.000  
  22867944.751   120171841.255       -2427.206          41.000  
 16  5 20 10 24  2.0000000  0  9G 1G 3G 8G11G17G22G28G19G30
  21542010.338   113204032.780       -2124.879          51.000  
  21621242.179   113620388.283        1781.986          49.000  
  24756085.708   130094098.929       -1879.005          36.000  
  22361642.755   117511226.994       -2316.105          49.000  
  22401149.036   117718821.216        1879.695          47.000  
  22156613.097   116433779.723         -89.656          51.000  
  20777480.544   109186401.877        1783.142          48.000  
  23865710.230   125415142.302        2675.079          39.000  
  22868406.589   120174268.973       -2427.872          38.000  
 16  5 20 10 24  3.0000000  0  9G 1G 3G 8G11G17G22G28G19G30
  21542414.485   113206158.008       -2125.112          51.000  
  21620903.034   113618606.770        1780.998          48.000  
  24756442.512   130095977.267       -1879.344          42.000  
  22362083.879   117513543.203       -2316.568          47.000  
  22400791.272   117716941.383        1879.722          48.000  
  22156629.657   116433869.804         -90.063          50.000  
  20777141.067   109184618.863        1782.562          48.000  
  23865201.539   125412466.801        2675.317          41.000  
  22868868.706   120176697.370       -2428.661          39.000  
 16  5 20 10 24  4.0000000  0  9G 1G 3G 8G11G17G22G28G19G30
  21542818.964   113208282.926       -2125.160          51.000  
  21620564.116   113616825.827        1779.555          48.000  
  24756796.856   130097855.172       -1878.042          42.000  
  22362524.707   117515858.948       -2316.177          48.000  
  22400433.176   117715061.273        1879.932          48.000  
  22156647.369   116433960.117         -90.965          49.000  
  20776801.835   109182836.019        1782.196          48.000  
  23864692.516   125409791.285        2674.896          42.000  
  22869330.875   120179126.521       -2429.789          39.000  
 16  5 20 10 24  5.0000000  0  9G 1G 3G 8G11G17G22G28G19G30
  21543223.303   113210407.874       -2124.982          51.000  
  21620225.163   113615045.940        1778.841          49.000  
  24757157.517   130099733.243       -1878.157          44.000  
  22362965.046   117518174.537       -2315.103          49.000  
  22400075.499   117713181.520        1879.653          49.000  
  22156664.157   116434051.004         -91.074          50.000  
  20776462.655   109181053.944        1781.793          48.000  
  23864183.493   125407116.363        2674.835          43.000  
  22869793.358   120181557.276       -2430.841          39.000  
 16  5 20 10 24  6.0000000  0  9G 1G 3G 8G11G17G22G28G19G30
  21543627.590   113212532.675       -2125.004          51.000  
  21619886.542   113613266.971        1778.566          49.000  
  24757513.711   130101611.336       -1880.487          39.000  
  22363405.576   117520489.739       -2315.155          49.000  
  22399717.351   117711301.942        1879.457          48.000  
  22156682.183   116434142.267         -91.491          51.000  
  20776123.911   109179272.527        1780.542          48.000  
  23863674.837   125404441.927        2672.974          41.000  
  22870256.172   120183989.626       -2434.283          38.000  
 16  5 20 10 24  7.0000000  0  9G 1G 3G 8G11G17G22G28G19G30
  21544031.754   113214656.950       -2124.526          51.000  
  21619547.938   113611488.137        1778.483          49.000  
  24757872.418   130103487.920       -1875.863          46.000  
  22363846.090   117522804.034       -2314.022          49.000  
  22399360.232   117709422.881        1878.529          48.000  
  22156699.354   116434233.182         -91.313          51.000  
  20775785.046   109177491.657        1780.383          48.000  
  23863165.674   125401768.471        2672.894          41.000  
  22870719.284   120186423.355       -2434.308          39.000  
 16  5 20 10 24  8.0000000  0  9G 1G 3G 8G11G17G22G28G19G30
  21544436.023   113216780.654       -2123.242          51.000  
  21619209.822   113609709.588        1778.220          49.000  
  24758228.560   130105363.918       -1875.726          45.000  
  22364286.376   117525117.405       -2313.017          49.000  
  22399002.729   117707544.200        1878.757          47.000  
  22156716.385   116434323.813         -90.401          51.000  
  20775446.284   109175711.328        1780.524          48.000  
  23862656.931   125399095.885        2672.760          39.000  
  22871182.727   120188858.618       -2436.226          39.000  
 16  5 20 10 24  9.0000000  0  9G 1G 3G 8G11G17G22G28G19G30
  21544840.048   113218903.842       -2122.791          51.000  
  21618871.532   113607931.763        1777.345          50.000  
  24758585.137   130107239.260       -1875.393          44.000  
  22364726.069   117527429.934       -2312.230          49.000  
  22398645.192   117705665.814        1877.569          46.000  
  22156733.469   116434414.436         -90.612          50.000  
  20775107.593   109173931.592        1779.297          48.000  
  23862148.431   125396424.103        2671.326          39.000  
  22871646.414   120191295.765       -2438.375          39.000  
 16  5 20 10 24 10.0000000  0  9G 1G 3G 8G11G17G22G28G19G30
  21545243.986   113221026.576       -2122.999          51.000  
  21618533.626   113606154.709        1776.214          49.000  
  24758941.715   130109114.148       -1875.465          44.000  
  22365166.233   117529741.741       -2311.820          49.000  
  22398287.602   117703787.531        1878.352          47.000  
  22156750.640   116434505.139         -90.619          50.000  
  20774768.762   109172152.385        1778.638          48.000  
  23861640.316   125393752.943        2670.758          40.000  
  22872110.624   120193734.830       -2439.984          39.000  
 16  5 20 10 24 11.0000000  0  9G 1G 3G 8G11G17G22G28G19G30
  21545648.028   113223148.689       -2121.705          51.000  
  21618195.563   113604378.406        1775.712          49.000  
  24759298.240   130110988.683       -1874.653          43.000  
  22365605.944   117532052.728       -2310.825          49.000  
  22397930.448   117701909.119        1878.425          47.000  
  22156768.352   116434595.916         -90.946          51.000  
  20774430.333   109170373.428        1778.583          48.000  
  23861132.357   125391081.986        2670.404          41.000  
  22872575.184   120196175.315       -2441.260          40.000  
 16  5 20 10 24 12.0000000  0  9G 1G 3G 8G11G17G22G28G19G30
  21546051.617   113225270.627       -2121.941          51.000  
  21617857.588   113602603.014        1774.594          48.000  
  24759655.324   130112862.955       -1873.580          42.000  
  22366045.690   117534363.254       -2310.851          49.000  
  22397573.452   117700030.995        1877.621          47.000  
  22156785.052   116434686.966         -91.177          51.000  
  20774092.060   109168595.203        1777.301          48.000  
  23860624.277   125388411.795        2669.360          40.000  
  22873039.866   120198617.645       -2443.589          38.000  
 16  5 20 10 24 13.0000000  0  9G 1G 3G 8G11G17G22G28G19G30
  21546455.275   113227392.330       -2121.819          51.000  
  21617519.943   113600828.705        1773.335          48.000  
  24760012.408   130114737.049       -1872.469          42.000  
  22366485.243   117536673.312       -2310.481          49.000  
  22397215.775   117698153.051        1877.704          48.000  
  22156803.043   116434778.417         -91.416          50.000  
  20773753.893   109166817.634        1776.868          48.000  
  23860116.371   125385742.184        2669.238          40.000  
  22873504.897   120201061.844       -2445.264          38.000  
 16  5 20 10 24 14.0000000  0  9G 1G 3G 8G11G17G22G28G19G30
  21546859.091   113229513.966       -2122.264          52.000  
  21617182.299   113599055.418        1772.767          49.000  
  24760368.951   130116611.475       -1873.022          41.000  
  22366924.814   117538983.167       -2310.043          49.000  
  22396858.115   117696275.064        1877.766          47.000  
  22156819.935   116434870.461         -93.144          49.000  
  20773415.917   109165040.505        1776.715          48.000  
  23859607.749   125383072.710        2670.068          39.000  
  22873970.224   120203507.281       -2445.646          39.000  
 16  5 20 10 24 15.0000000  0  9G 1G 3G 8G11G17G22G28G19G30
  21547263.220   113231637.365       -2124.291          51.000  
  21616844.917   113597283.186        1771.522          48.000  
  24760726.104   130118487.508       -1877.307          42.000  
  22367364.752   117541294.972       -2312.966          49.000  
  22396501.258   117694397.483        1877.015          49.000  
  22156838.432   116434964.410         -95.259          50.000  
  20773077.609   109163264.257        1775.781          48.000  
  23859099.983   125380403.111        2669.989          42.000  
  22874435.342   120205951.667       -2443.943          39.000  
 16  5 20 10 24 16.0000000  0  9G 1G 3G 8G11G17G22G28G19G30
  21547667.856   113233762.934       -2126.270          51.000  
  21616507.813   113595511.894        1770.873          48.000  
  24761083.153   130120364.976       -1879.012          41.000  
  22367805.108   117543608.950       -2314.694          49.000  
  22396143.720   117692520.600        1876.900          48.000  
  22156856.353   116435060.388         -97.115          50.000  
  20772739.808   109161489.121        1775.012          49.000  
  23858592.094   125377733.599        2669.952          42.000  
  22874900.391   120208394.686       -2442.320          39.000  
 16  5 20 10 24 17.0000000  0  9G 1G 3G 8G11G17G22G28G19G30
  21548072.544   113235890.213       -2128.168          51.000  
  21616170.762   113593741.323        1770.000          49.000  
  24761440.673   130122243.531       -1880.271          46.000  
  22368245.691   117545924.764       -2316.563          49.000  
  22395786.654   117690644.120        1876.034          47.000  
  22156875.339   116435158.037         -99.329          50.000  
  20772402.059   109159714.795        1773.737          47.000  
  23858084.363   125375063.823        2669.336          41.000  
  22875364.916   120210836.410       -2442.067          39.000  
 16  5 20 10 24 18.0000000  0  9G 1G 3G 8G11G17G22G28G19G30
  21548477.267   113238018.015       -2128.267          51.000  
  21615833.833   113591971.127        1770.266          48.000  
  24761797.949   130124122.571       -1882.023          40.000  
  22368686.693   117548240.923       -2316.249          50.000  
  22395429.745   117688767.868        1876.018          48.000  
  22156893.540   116435256.355         -98.985          50.000  
  20772064.520   109157940.991        1773.266          48.000  
  23857575.689   125372394.276        2669.189          41.000  
  22875829.615   120213277.864       -2441.480          38.000  
 16  5 20 10 24 19.0000000  0  9G 1G 3G 8G11G17G22G28G19G30
  21548882.391   113240146.496       -2128.875          51.000  
  21615497.236   113590201.475        1769.463          49.000  
  24762155.574   130126001.474       -1878.958          44.000  
  22369127.503   117550557.619       -2317.149          49.000  
  22395073.132   117686892.060        1875.278          48.000  
  22156912.630   116435355.483         -99.517          50.000  
  20771727.085   109156167.909        1772.510          48.000  
  23857067.800   125369725.016        2668.170          40.000  
  22876294.454   120215719.351       -2441.761          39.000  
 16  5 20 10 24 20.0000000  0  9G 1G 3G 8G11G17G22G28G19G30
  21549287.707   113242275.720       -2129.729          51.000  
  21615160.796   113588432.529        1767.876          49.000  
  24762513.373   130127880.953       -1880.181          47.000  
  22369568.522   117552875.019       -2318.032          49.000  
  22394716.240   117685016.612        1875.446          47.000  
  22156931.110   116435455.526        -100.820          50.000  
  20771389.859   109154395.558        1771.960          48.000  
  23856560.261   125367056.052        2669.269          43.000  
  22876759.048   120218160.898       -2441.439          39.000  
 16  5 20 10 24 21.0000000  0  9G 1G 3G 8G11G17G22G28G19G30
  21549692.832   113244405.595       -2130.573          51.000  
  21614824.408   113586664.285        1767.253          49.000  
  24762871.085   130129760.922       -1880.984          42.000  
  22370009.576   117555192.961       -2318.531          48.000  
  22394359.261   117683141.271        1875.139          47.000  
  22156950.811   116435556.480        -101.633          50.000  
  20771052.599   109152623.697        1771.387          48.000  
  23856051.814   125364387.033        2669.061          39.000  
  22877223.695   120220602.295       -2441.645          39.000  
 16  5 20 10 24 22.0000000  0  9G 1G 3G 8G11G17G22G28G19G30
  21550098.322   113246535.962       -2130.874          50.000  
  21614488.125   113584896.504        1767.238          49.000  
  24763229.356   130131641.328       -1880.353          34.000  
  22370450.683   117557511.352       -2318.827          49.000  
  22394002.230   117681265.841        1875.577          47.000  
  22156970.146   116435658.204        -102.176          51.000  
  20770715.688   109150852.180        1771.417          48.000  
  23855544.239   125361717.875        2669.006          42.000  
  22877688.203   120223043.426       -2440.903          39.000  
 16  5 20 10 24 23.0000000  0  9G 1G 3G 8G11G17G22G28G19G30
  21550503.883   113248667.029       -2131.490          51.000  
  21614151.598   113583129.619        1766.547          49.000  
  24763587.137   130133522.271       -1881.596          42.000  
  22370892.069   117559830.509       -2319.895          50.000  
  22393645.722   117679390.253        1875.987          48.000  
  22156990.022   116435761.041        -102.950          50.000  
  20770378.427   109149081.076        1771.094          48.000  
  23855036.368   125359048.250        2669.440          41.000  
  22878152.640   120225484.229       -2440.277          40.000  
 16  5 20 10 24 24.0000000  0  9G 1G 3G 8G11G17G22G28G19G30
  21550909.845   113250799.174       -2133.353          51.000  
  21613815.559   113581363.741        1764.636          48.000  
  24763945.216   130135404.404       -1883.641          44.000  
  22371333.367   117562150.770       -2321.768          50.000  
  22393288.498   117677514.754        1874.975          48.000  
  22157009.217   116435865.322        -105.962          51.000  
  20770041.551   109147310.598        1769.354          48.000  
  23854527.939   125356378.439        2668.719          41.000  
  22878616.886   120227924.657       -2440.453          39.000  
 16  5 20 10 24 25.0000000  0  9G 1G 3G 8G11G17G22G28G19G30
  21551315.545   113252932.430       -2133.210          51.000  
  21613479.607   113579598.617        1765.063          49.000  
  24764303.399   130137287.316       -1881.511          45.000  
  22371775.224   117564472.136       -2321.626          45.000  
  22392931.537   117675639.314        1875.606          48.000  
  22157030.018   116435970.857        -105.666          50.000  
  20769704.727   109145540.641        1769.678          48.000  
  23854019.910   125353708.323        2669.958          41.000  
  22879081.236   120230364.370       -2439.503          39.000  
 16  5 20 10 24 26.0000000  0  9G 1G 3G 8G11G17G22G28G19G30
  21551721.524   113255066.597       -2134.615          50.000  
  21613143.882   113577834.358        1763.846          49.000  
  24764661.844   130139171.127       -1884.102          39.000  
  22372217.238   117566794.420       -2322.457          47.000  
  22392574.872   117673764.138        1875.269          48.000  
  22157049.841   116436077.546        -106.744          52.000  
  20769368.164   109143771.385        1768.939          48.000  
  23853511.865   125351038.286        2670.135          41.000  
  22879545.569   120232803.956       -2439.694          38.000  
 16  5 20 10 24 27.0000000  0  9G 1G 3G 8G11G17G22G28G19G30
  21552127.765   113257201.305       -2134.858          50.000  
  21612808.384   113576070.586        1763.288          48.000  
  24765020.376   130141055.279       -1886.108          44.000  
  22372659.200   117569117.173       -2323.395          51.000  
  22392217.962   117671888.963        1875.287          48.000  
  22157070.799   116436185.131        -108.556          50.000  
  20769031.375   109142002.526        1768.341          48.000  
  23853003.592   125348368.097        2669.507          42.000  
  22880009.919   120235243.112       -2439.022          39.000  
 16  5 20 10 24 28.0000000  0  9G 1G 3G 8G11G17G22G28G19G30
  21552534.338   113259336.912       -2136.035          51.000  
  21612472.712   113574307.745        1762.484          49.000  
  24765378.664   130142939.987       -1884.431          46.000  
  22373101.528   117571440.787       -2323.722          49.000  
  22391861.228   117670014.034        1874.919          48.000  
  22157090.884   116436293.773        -109.296          50.000  
  20768694.795   109140234.350        1768.268          48.000  
  23852495.494   125345697.947        2670.691          42.000  
  22880474.200   120237682.316       -2439.162          38.000  
 16  5 20 10 24 29.0000000  0  9G 1G 3G 8G11G17G22G28G19G30
  21552940.684   113261473.117       -2136.105          51.000  
  21612137.389   113572545.696        1761.556          49.000  
  24765737.388   130144825.237       -1885.574          46.000  
  22373543.804   117573764.992       -2324.736          49.000  
  22391504.510   117668139.183        1874.823          48.000  
  22157112.296   116436403.393        -108.480          45.000  
  20768358.460   109138466.764        1767.419          48.000  
  23851987.204   125343027.816        2669.952          41.000  
  22880938.323   120240121.523       -2439.027          38.000  
 16  5 20 10 24 30.0000000  0  9G 1G 3G 8G11G17G22G28G19G30
  21553347.448   113263610.136       -2137.057          51.000  
  21611802.397   113570784.321        1762.749          49.000  
  24766096.234   130146713.6973      -1885.308          41.000  
  22373986.237   117576089.888       -2324.596          49.000  
  22391147.775   117666264.476        1875.197          49.000  
  22157133.323   116436514.157        -111.209          51.000  
  20768022.229   109136699.768        1766.852          48.000  
  23851479.386   125340357.676        2669.714          42.000  
  22881402.167   120242560.592       -2438.171          38.000  
 16  5 20 10 24 31.0000000  0  9G 1G 3G 8G11G17G22G28G19G30
  21553754.335   113265748.112       -2138.241          51.000  
  21611467.143   113569023.908        1760.769          48.000  
  24766455.849   130148600.2442      -1887.496          41.000  
  22374428.757   117578415.682       -2326.530          49.000  
  22390790.831   117664390.365        1873.797          48.000  
  22157154.386   116436625.941        -112.264          51.000  
  20767686.155   109134933.609        1766.064          48.000  
  23850971.619   125337687.852        2670.337          41.000  
  22881866.186   120244999.771       -2439.189          38.000  
 16  5 20 10 24 32.0000000  0  9G 1G 3G 8G11G17G22G28G19G30
  21554161.082   113267886.365       -2138.400          51.000  
  21611132.239   113567263.886        1759.850          48.000  
  24766812.932   130150486.6562      -1886.312          44.000  
  22374871.347   117580741.617       -2326.358          49.000  
  22390434.219   117662516.318        1873.897          47.000  
  22157175.954   116436738.259        -112.546          50.000  
  20767350.099   109133167.915        1765.564          48.000  
  23850463.835   125335018.231        2669.946          42.000  
  22882330.292   120247439.000       -2439.406          38.000  
 16  5 20 10 24 33.0000000  0  9G 1G 3G 8G11G17G22G28G19G30
  21554567.951   113270024.750       -2138.470          51.000  
  21610797.474   113565504.381        1759.117          49.000  
  24767172.965   130152373.0872      -1885.648          44.000  
  22375313.727   117583067.543       -2326.045          49.000  
  22390077.658   117660642.457        1873.411          48.000  
  22157197.104   116436851.078        -113.714          50.000  
  20767014.200   109131402.699        1764.575          48.000  
  23849955.633   125332348.854        2668.939          42.000  
  22882794.887   120249878.819       -2440.812          39.000  
 16  5 20 10 24 34.0000000  0  9G 1G 3G 8G11G17G22G28G19G30
  21554974.890   113272163.108       -2138.403          51.000  
  21610462.761   113563745.787        1758.159          48.000  
  24767532.178   130154259.4712      -1883.771          40.000  
  22375756.561   117585393.200       -2325.301          49.000  
  22389721.255   117658768.800        1873.536          48.000  
  22157219.161   116436964.272        -113.681          51.000  
  20766678.213   109129638.110        1764.239          48.000  
  23849447.831   125329680.001        2669.006          41.000  
  22883259.499   120252319.925       -2441.838          39.000  
 16  5 20 10 24 35.0000000  0  9G 1G 3G 8G11G17G22G28G19G30
  21555382.039   113274301.031       -2138.374          51.000  
  21610128.293   113561987.770        1757.137          49.000  
  24767891.356   130156145.6132      -1886.295          45.000  
  22376198.994   117587718.295       -2325.351          49.000  
  22389364.956   117656894.864        1873.672          48.000  
  22157240.188   116437077.667        -114.662          50.000  
  20766342.593   109127873.705        1763.556          48.000  
  23848939.838   125327011.156        2667.816          40.000  
  22883724.250   120254762.038       -2442.899          39.000  
 16  5 20 10 24 36.0000000  0  9G 1G 3G 8G11G17G22G28G19G30
  21555788.768   113276438.590       -2137.506          51.000  
  21609793.807   113560230.266        1757.319          48.000  
  24768250.603   130158031.3122      -1885.171          46.000  
  22376641.130   117590042.806       -2324.212          48.000  
  22389007.890   117655020.813        1873.973          48.000  
  22157261.827   116437191.105        -113.315          51.000  
  20766007.148   109126109.599        1764.191          48.000  
  23848431.810   125324342.410        2668.268          41.000  
  22884189.334   120257205.128       -2443.529          39.000  
 16  5 20 10 24 37.0000000  0  9G 1G 3G 8G11G17G22G28G19G30
  21556195.498   113278575.971       -2137.423          51.000  
  21609459.566   113558473.588        1756.094          48.000  
  24768608.996   130159916.3341      -1886.164          44.000  
  22377083.511   117592366.910       -2324.021          49.000  
  22388651.487   117653146.942        1873.652          48.000  
  22157283.692   116437304.895        -114.453          51.000  
  20765671.336   109124346.051        1762.988          48.000  
  23847924.375   125321674.172        2667.969          41.000  
  22884654.312   120259649.574       -2445.418          38.000  
 16  5 20 10 24 38.0000000  0  9G 1G 3G 8G11G17G22G28G19G30
  21556602.175   113280713.003       -2136.608          51.000  
  21609125.202   113556717.492        1756.020          49.000  
  24768967.074   130161801.496       -1884.763          44.000  
  22377525.699   117594690.485       -2323.306          49.000  
  22388294.996   117651273.149        1874.225          48.000  
  22157305.068   116437418.793        -113.804          50.000  
  20765335.663   109122582.932        1763.092          48.000  
  23847416.451   125319006.392        2668.280          42.000  
  22885119.657   120262095.299       -2446.039          39.000  
 16  5 20 10 24 39.0000000  0  9G 1G 3G 8G11G17G22G28G19G30
  21557008.696   113282849.883       -2136.798          51.000  
  21608791.292   113554962.128        1754.823          49.000  
  24769325.886   130163686.371       -1885.438          43.000  
  22377967.818   117597013.634       -2322.676          50.000  
  22387938.628   117649399.572        1873.500          48.000  
  22157326.916   116437533.014        -114.536          50.000  
  20765000.462   109120820.381        1762.024          48.000  
  23846908.894   125316339.152        2666.711          43.000  
  22885585.438   120264542.356       -2447.606          39.000  
 16  5 20 10 24 40.0000000  0  9G 1G 3G 8G11G17G22G28G19G30
  21557415.111   113284986.569       -2136.478          51.000  
  21608457.382   113553207.496        1754.572          49.000  
  24769682.586   130165571.086       -1884.171          44.000  
  22378409.972   117599336.392       -2322.742          48.000  
  22387582.138   117647526.148        1873.520          48.000  
  22157348.327   116437647.492        -114.518          50.000  
  20764665.191   109119058.369        1762.018          48.000  
  23846401.547   125313672.318        2667.114          42.000  
  22886051.377   120266990.724       -2448.342          37.000  
 16  5 20 10 24 41.0000000  0  9G 1G 3G 8G11G17G22G28G19G30
  21557821.562   113287123.070       -2137.094          51.000  
  21608123.472   113551453.269        1753.774          49.000  
  24770043.544   130167455.546       -1885.993          43.000  
  22378851.794   117601658.817       -2323.642          49.000  
  22387225.560   117645652.607        1873.262          49.000  
  22157370.611   116437762.218        -116.096          49.000  
  20764329.798   109117296.614        1761.292          48.000  
  23845894.025   125311005.561        2666.772          42.000  
  22886517.175   120269439.563       -2447.907          38.000  
 16  5 20 10 24 42.0000000  0  9G 1G 3G 8G11G17G22G28G19G30
  21558228.571   113289260.763       -2138.385          51.000  
  21607789.946   113549699.561        1753.011          49.000  
  24770402.268   130169340.598       -1884.864          44.000  
  22379294.017   117603982.341       -2323.863          50.000  
  22386868.825   117643779.424        1872.699          48.000  
  22157392.197   116437878.041        -116.302          50.000  
  20763994.265   109115535.553        1760.498          47.000  
  23845386.485   125308338.800        2665.662          40.000  
  22886982.869   120271887.557       -2447.827          39.000  
 16  5 20 10 24 43.0000000  0  9G 1G 3G 8G11G17G22G28G19G30
  21558635.492   113291399.435       -2138.647          51.000  
  21607456.281   113547946.619        1752.883          48.000  
  24770762.004   130171226.294       -1885.384          44.000  
  22379736.275   117606306.815       -2324.699          49.000  
  22386512.457   117641906.720        1872.726          48.000  
  22157414.429   116437995.033        -117.004          50.000  
  20763659.134   109113775.347        1759.888          47.000  
  23844879.120   125305672.308        2666.583          42.000  
  22887448.650   120274335.435       -2448.155          39.000  
 16  5 20 10 24 44.0000000  0  9G 1G 3G 8G11G17G22G28G19G30
  21559042.484   113293538.759       -2139.590          51.000  
  21607122.981   113546194.312        1751.877          48.000  
  24771120.222   130173112.262       -1886.041          45.000  
  22380178.656   117608631.814       -2325.054          49.000  
  22386156.036   117640034.264        1872.372          48.000  
  22157437.184   116438112.895        -118.455          50.000  
  20763324.351   109112015.731        1759.186          48.000  
  23844371.860   125303005.973        2666.058          42.000  
  22887914.501   120276783.240       -2447.715          39.000  
 16  5 20 10 24 45.0000000  0  9G 1G 3G 8G11G17G22G28G19G30
  21559449.842   113295678.653       -2140.264          51.000  
  21606789.386   113544442.667        1751.021          48.000  
  24771479.766   130174998.670       -1886.190          47.000  
  22380621.455   117610957.343       -2326.092          49.000  
  22385799.999   117638161.883        1872.193          49.000  
  22157459.380   116438231.588        -119.419          50.000  
  20762990.040   109110256.613        1758.685          49.000  
  23843864.320   125300339.607        2666.321          42.000  
  22888380.492   120279230.974       -2447.657          39.000  
 16  5 20 10 24 46.0000000  0  9G 1G 3G 8G11G17G22G28G19G30
  21559857.339   113297819.101       -2140.321          51.000  
  21606456.627   113542691.780        1750.581          49.000  
  24771839.817   130176885.560       -1886.708          46.000  
  22381063.836   117613283.364       -2326.107          48.000  
  22385443.387   117636289.566        1871.954          48.000  
  22157482.607   116438351.207        -120.132          51.000  
  20762655.938   109108498.022        1758.148          49.000  
  23843357.129   125297673.133        2666.986          43.000  
  22888846.238   120281678.740       -2447.979          39.000  
 16  5 20 10 24 47.0000000  0  9G 1G 3G 8G11G17G22G28G19G30
  21560264.802   113299960.061       -2140.858          51.000  
  21606123.573   113540941.752        1749.576          48.000  
  24772197.319   130178772.760       -1886.546          44.000  
  22381506.600   117615609.759       -2326.202          48.000  
  22385086.879   117634417.376        1872.228          48.000  
  22157505.938   116438471.654        -120.603          50.000  
  20762321.592   109106740.022        1757.910          49.000  
  23842849.468   125295006.911        2665.985          41.000  
  22889312.142   120284126.971       -2448.843          38.000  
 16  5 20 10 24 48.0000000  0  9G 1G 3G 8G11G17G22G28G19G30
  21560672.369   113302101.274       -2141.284          51.000  
  21605790.273   113539192.606        1748.844          48.000  
  24772556.706   130180660.422       -1889.352          44.000  
  22381949.207   117617936.307       -2327.139          48.000  
  22384731.016   117632545.471        1871.622          49.000  
  22157528.762   116438592.841        -121.680          50.000  
  20761987.106   109104982.733        1756.744          49.000  
  23842341.998   125292340.988        2665.778          40.000  
  22889777.975   120286576.045       -2449.371          38.000  
 16  5 20 10 24 49.0000000  0  9G 1G 3G 8G11G17G22G28G19G30
  21561079.727   113304242.355       -2141.246          51.000  
  21605457.550   113537443.945        1748.141          48.000  
  24772915.448   130182547.624       -1888.025          42.000  
  22382391.745   117620262.533       -2326.220          48.000  
  22384374.997   117630673.386        1872.233          48.000  
  22157552.233   116438714.257        -121.613          50.000  
  20761652.306   109103225.648        1756.836          48.000  
  23841834.860   125289675.016        2666.034          43.000  
  22890244.140   120289025.626       -2449.698          38.000  
 16  5 20 10 24 50.0000000  0  9G 1G 3G 8G11G17G22G28G19G30
  21561486.788   113306383.284       -2140.985          51.000  
  21605125.158   113535695.813        1747.654          48.000  
  24773273.910   130184432.6883      -1887.117          45.000  
  22382834.649   117622588.481       -2325.282          50.000  
  22384018.367   117628801.145        1872.696          48.000  
  22157574.971   116438835.965        -121.873          50.000  
  20761317.436   109101468.837        1756.647          47.000  
  23841327.495   125287009.051        2666.156          42.000  
  22890710.742   120291475.780       -2450.613          39.000  
 16  5 20 10 24 51.0000000  0  9G 1G 3G 8G11G17G22G28G19G30
  21561894.163   113308523.974       -2140.664          51.000  
  21604792.487   113533948.126        1747.161          48.000  
  24773630.959   130186320.0282      -1887.372          41.000  
  22383276.872   117624914.035       -2324.918          49.000  
  22383662.365   117626928.794        1871.722          48.000  
  22157598.179   116438957.887        -122.584          50.000  
  20760983.265   109099712.286        1756.232          48.000  
  23840820.252   125284343.156        2665.381          42.000  
  22891177.081   120293926.607       -2451.374          40.000  
 16  5 20 10 24 52.0000000  0  9G 1G 3G 8G11G17G22G28G19G30
  21562301.958   113310664.635       -2140.627          51.000  
  21604460.131   113532201.077        1746.606          49.000  
  24773991.376   130188206.6792      -1887.357          42.000  
  22383719.445   117627239.418       -2326.099          49.000  
  22383306.276   117625056.451        1872.327          48.000  
  22157621.284   116439080.192        -122.788          50.000  
  20760649.303   109097956.162        1755.835          48.000  
  23840313.044   125281677.476        2665.186          42.000  
  22891643.578   120296378.148       -2451.676          40.000  
 16  5 20 10 24 53.0000000  0  9G 1G 3G 8G11G17G22G28G19G30
  21562709.368   113312805.324       -2140.710          51.000  
  21604127.826   113530454.501        1746.227          49.000  
  24774351.671   130190093.0022      -1880.508          40.000  
  22384161.877   117629564.590       -2325.095          48.000  
  22382949.838   117623184.292        1872.062          48.000  
  22157644.545   116439202.799        -122.737          49.000  
  20760315.550   109096200.548        1755.517          49.000  
  23839805.661   125279012.073        2665.271          42.000  
  22892110.389   120298830.399       -2453.010          39.000  
 16  5 20 10 24 54.0000000  0  9G 1G 3G 8G11G17G22G28G19G30
  21563116.342   113314946.145       -2140.388          50.000  
  21603795.364   113528708.570        1745.929          49.000  
  24774710.133   130191979.7013      -1886.812          40.000  
  22384604.659   117631889.676       -2324.595          50.000  
  22382593.399   117621312.409        1872.024          48.000  
  22157668.190   116439325.840        -123.197          51.000  
  20759981.622   109094445.535        1755.042          48.000  
  23839298.523   125276347.167        2664.667          41.000  
  22892577.042   120301283.377       -2453.292          39.000  
 16  5 20 10 24 55.0000000  0  9G 1G 3G 8G11G17G22G28G19G30
  21563523.926   113317086.940       -2140.909          51.000  
  21603463.322   113526962.973        1745.445          49.000  
  24775070.777   130193865.6972      -1885.062          46.000  
  22385046.952   117634214.569       -2324.546          49.000  
  22382237.764   117619440.663        1871.525          48.000  
  22157691.399   116439449.130        -123.455          51.000  
  20759647.520   109092690.926        1754.156          48.000  
  23838791.542   125273682.481        2664.148          38.000  
  22893044.010   120303736.855       -2453.529          40.000  
 16  5 20 10 24 56.0000000  0  9G 1G 3G 8G11G17G22G28G19G30
  21563931.459   113319227.742       -2140.825          51.000  
  21603131.209   113525217.954        1744.871          49.000  
  24775428.646   130195751.6792      -1885.887          43.000  
  22385489.158   117636539.269       -2323.679          50.000  
  22381881.431   117617569.103        1871.592          48.000  
  22157714.817   116439572.822        -123.945          50.000  
  20759313.820   109090936.884        1753.406          48.000  
  23838284.334   125271018.247        2663.794          38.000  
  22893511.031   120306191.195       -2454.762          40.000  
 16  5 20 10 24 57.0000000  0  9G 1G 3G 8G11G17G22G28G19G30
  21564338.398   113321368.424       -2140.773          50.000  
  21602799.411   113523473.407        1744.491          48.000  
  24775785.189   130197629.7283      -1884.867          42.000  
  22385931.626   117638863.695       -2324.153          50.000  
  22381525.464   117615697.725        1870.846          48.000  
  22157738.776   116439696.711        -124.227          50.000  
  20758980.050   109089183.247        1753.558          48.000  
  23837777.701   125268354.478        2663.580          40.000  
  22893977.963   120308646.253       -2455.278          40.000  
 16  5 20 10 24 58.0000000  0  9G 1G 3G 8G11G17G22G28G19G30
  21564745.930   113323509.759       -2142.072          51.000  
  21602467.455   113521729.712        1743.244          48.000  
  24776145.082   130199520.9562      -1885.657          43.000  
  22386374.007   117641188.679       -2325.495          51.000  
  22381169.601   117613826.540        1870.434          48.000  
  22157762.299   116439821.527        -125.234          51.000  
  20758646.541   109087430.301        1752.692          49.000  
  23837270.633   125265690.719        2662.976          40.000  
  22894445.472   120311101.593       -2454.987          39.000  
 16  5 20 10 24 59.0000000  0  9G 1G 3G 8G11G17G22G28G19G30
  21565153.707   113325652.009       -2142.649          51.000  
  21602135.971   113519986.828        1742.330          49.000  
  24776504.312   130201407.6592      -1885.749          40.000  
  22386816.457   117643514.538       -2324.867          46.000  
  22380812.867   117611955.601        1870.660          48.000  
  22157786.555   116439947.544        -126.053          52.000  
  20758313.067   109085678.031        1751.977          47.000  
  23836763.948   125263027.039        2663.092          41.000  
  22894912.859   120313556.764       -2455.319          39.000  
 16  5 20 10 25  0.0000000  0  9G 1G 3G 8G11G17G22G28G19G30
  21565561.396   113327794.757       -2141.841          51.000  
  21601804.556   113518244.645        1742.073          48.000  
  24776865.950   130203294.7542      -1887.908          41.000  
  22387259.937   117645840.758       -2326.537          36.000  
  22380457.179   117610085.085        1870.710          48.000  
  22157810.741   116440074.268        -126.296          50.000  
  20757979.664   109083926.536        1751.416          48.000  
  23836257.247   125260363.839        2663.916          40.000  
  22895379.896   120316012.380       -2455.409          39.000  
 16  5 20 10 25  1.0000000  0  9G 1G 3G 8G11G17G22G28G19G30
  21565969.086   113329937.336       -2141.971          50.000  
  21601473.229   113516503.106        1741.979          49.000  
  24777223.907   130205189.5143      -1885.824          44.000  
  22387701.183   117648163.0453      -2325.528          48.000  
  22380101.212   117608214.685        1870.285          48.000  
  22157834.455   116440201.320        -126.321          50.000  
  20757646.644   109082175.491        1750.671          48.000  
  23835750.545   125257701.042        2662.097          42.000  
  22895847.353   120318469.182       -2457.870          39.000  
 16  5 20 10 25  2.0000000  0  9G 1G 3G 8G11G17G22G28G19G30
  21566376.740   113332079.667       -2142.439          50.000  
  21601142.041   113514762.424        1740.211          50.000  
  24777583.294                       -1889.370          39.000  
  22388145.343   117650488.4032      -2324.721          48.000  
  22379745.227   117606344.428        1870.397          48.000  
  22157859.113   116440328.536        -126.861          50.000  
  20757313.850   109080424.968        1750.098          48.000  
  23835243.424   125255038.696        2661.700          43.000  
  22896315.193   120320927.377       -2458.448          39.000  
 16  5 20 10 25  3.0000000  0  9G 1G 3G 8G11G17G22G28G19G30
  21566784.482   113334221.647       -2141.925          50.000  
  21600810.766   113513022.319        1739.700          44.000  
  24777940.552   130208955.8203      -1886.183          42.000  
  22388585.839   117652813.2152      -2324.414          49.000  
  22379389.644   117604474.195        1869.769          49.000  
  22157883.124   116440456.033        -128.016          50.000  
  20756980.377   109078674.913        1750.043          48.000  
  23834737.071   125252376.714        2661.713          42.000  
  22896783.138   120323386.852       -2460.192          39.000  
 16  5 20 10 25  4.0000000  0  9G 1G 3G 8G11G17G22G28G19G30
  21567192.015   113336363.104       -2141.796          51.000  
  21600479.893   113511282.721        1739.091          50.000  
  24778298.980   130210839.7842      -1887.466          43.000  
  22389028.935   117655137.3592      -2324.841          49.000  
  22379033.834   117602603.603        1870.617          48.000  
  22157906.856   116440583.475        -127.657          51.000  
  20756647.235   109076924.948        1749.548          48.000  
  23834230.508   125249714.610        2662.842          42.000  
  22897251.258   120325847.203       -2460.713          39.000  
 16  5 20 10 25  5.0000000  0  9G 1G 3G 8G11G17G22G28G19G30
  21567599.425   113338505.445       -2142.959          51.000  
  21600148.880   113509543.854        1738.744          48.000  
  24778657.652   130212724.3363      -1887.530          42.000  
  22389472.223   117657462.3252      -2326.090          49.000  
  22378677.797   117600733.089        1870.438          48.000  
  22157931.514   116440712.057        -129.257          49.000  
  20756314.511   109075175.520        1749.634          48.000  
  23833724.295   125247052.347        2663.324          44.000  
  22897719.377   120328307.093       -2458.127          39.000  
 16  5 20 10 25  6.0000000  0  9G 1G 3G 8G11G17G22G28G19G30
  21568007.603   113340649.258       -2144.420          51.000  
  21599817.832   113507805.569        1737.908          49.000  
  24779015.922   130214612.1232      -1892.257          39.000  
  22389913.836   117659788.7852      -2326.784          48.000  
  22378321.761   117598862.859        1869.880          48.000  
  22157956.555   116440842.126        -130.795          50.000  
  20755981.544   109073426.751        1748.322          48.000  
  23833217.366   125244389.897        2662.268          42.000  
  22898187.340   120330765.533       -2458.096          39.000  
 16  5 20 10 25  7.0000000  0  9G 1G 3G 8G11G17G22G28G19G30
  21568415.816   113342793.618       -2144.709          51.000  
  21599487.220   113506067.521        1737.811          49.000  
  24779375.780                       -1877.552          32.000  
  22390357.193   117662115.7742      -2327.180          49.000  
  22377966.300   117596992.565        1869.603          48.000  
  22157980.723   116440972.866        -131.728          49.000  
  20755648.751   109071678.263        1748.492          48.000  
  23832710.734   125241727.046        2663.080          42.000  
  22898655.058   120333223.269       -2457.358          39.000  
 16  5 20 10 25  8.0000000  0  9G 1G 3G 8G11G17G22G28G19G30
  21568823.872   113344938.706       -2145.188          51.000  
  21599156.451   113504330.184        1737.319          48.000  
  24779736.476   130218393.5873      -1887.503          41.000  
  22390800.237   117664443.4532      -2328.307          50.000  
  22377609.984   117595122.411        1870.028          49.000  
  22158006.549   116441104.582        -132.398          50.000  
  20755316.167   109069930.394        1747.809          48.000  
  23832204.050   125239064.247        2663.062          42.000  
  22899122.986   120335680.822       -2457.189          39.000  
 16  5 20 10 25  9.0000000  0  9G 1G 3G 8G11G17G22G28G19G30
  21569232.154   113347084.255       -2145.822          51.000  
  21598826.031   113502593.433        1736.583          48.000  
  24780093.909   130220282.3272      -1889.549          42.000  
  22391242.914   117666771.4812      -2327.742          50.000  
  22377254.087   117593252.155        1869.816          48.000  
  22158031.678   116441237.026        -132.602          51.000  
  20754983.950   109068182.823        1747.375          48.000  
  23831697.278   125236401.143        2663.586          42.000  
  22899590.809   120338138.061       -2457.615          39.000  
 16  5 20 10 25 10.0000000  0  9G 1G 3G 8G11G17G22G28G19G30
  21569640.716   113349230.988       -2147.395          51.000  
  21598495.489   113500857.374        1735.938          48.000  
  24780450.784   130222172.1342      -1898.313          32.000  
  22391686.342   117669100.7762      -2330.384          49.000  
  22376898.277   117591382.201        1869.462          48.000  
  22158056.736   116441370.820        -134.730          50.000  
  20754651.331   109066435.920        1746.704          48.000  
  23831190.157   125233737.990        2663.214          41.000  
  22900057.654   120340594.544       -2455.970          39.000  
 16  5 20 10 25 11.0000000  0  9G 1G 3G 8G11G17G22G28G19G30
  21570049.470   113351379.082       -2148.358          51.000  
  21598165.383   113499122.140        1735.047          49.000  
  24780816.243   130224067.8683      -1890.779          45.000  
  22392129.943   117671431.3592      -2331.416          48.000  
  22376542.589   117589512.616        1869.182          47.000  
  22158082.912   116441506.067        -135.870          49.000  
  20754319.114   109064689.826        1745.746          48.000  
  23830683.734   125231074.835        2663.049          42.000  
  22900525.146   120343050.275       -2455.030          39.000  
 16  5 20 10 25 12.0000000  0  9G 1G 3G 8G11G17G22G28G19G30
  21570458.486   113353528.611       -2150.459          51.000  
  21597835.539   113497387.741        1734.214          49.000  
  24781175.945   130225959.0852      -1889.378          39.000  
  22392573.406   117673763.3972      -2333.239          48.000  
  22376186.919   117587643.496        1868.954          49.000  
  22158109.279   116441642.791        -137.592          49.000  
  20753987.193   109062944.636        1744.647          48.000  
  23830177.242   125228411.707        2662.659          40.000  
  22900992.131   120345505.341       -2454.539          39.000  
 16  5 20 10 25 13.0000000  0  9G 1G 3G 8G11G17G22G28G19G30
  21570867.781   113355679.268       -2151.285          50.000  
  21597505.643   113495653.986        1733.380          49.000  
  24781535.576   130227851.3462      -1892.019          43.000  
  22393017.671   117676096.0331      -2333.827          48.000  
  22375831.301   117585774.703        1868.797          50.000  
  22158135.035   116441780.797        -138.553          50.000  
  20753655.081   109061200.088        1744.250          48.000  
  23829670.452   125225748.570        2662.921          40.000  
  22901459.186   120347959.655       -2454.090          39.000  
 16  5 20 10 25 14.0000000  0  9G 1G 3G 8G11G17G22G28G19G30
  21571277.250   113357830.748       -2151.914          51.000  
  21597175.712   113493920.704        1732.943          49.000  
  24781894.754   130229743.6252      -1891.981          39.000  
  22393461.779   117678429.920       -2334.098          48.000  
  22375475.159   117583906.201        1868.262          47.000  
  22158161.979   116441919.621        -138.375          49.000  
  20753323.282   109059456.142        1743.683          48.000  
  23829163.227   125223085.609        2663.068          42.000  
  22901926.433   120350413.435       -2453.443          39.000  
 16  5 20 10 25 15.0000000  0  9G 1G 3G 8G11G17G22G28G19G30
  21571687.051   113359982.995       -2152.340          51.000  
  21596846.304   113492187.795        1732.734          49.000  
  24782254.752   130231636.1932      -1891.572          39.000  
  22393905.922   117680764.415       -2335.526          48.000  
  22375119.838   117582038.232        1868.369          48.000  
  22158188.276   116442059.294        -140.522          49.000  
  20752991.746   109057712.968        1742.786          48.000  
  23828656.857   125220422.876        2663.519          42.000  
  22902393.366   120352867.075       -2453.652          39.000  
 16  5 20 10 25 16.0000000  0  9G 1G 3G 8G11G17G22G28G19G30
  21572096.503   113362136.002       -2153.799          51.000  
  21596516.599   113490455.706        1732.035          49.000  
  24782615.431   130233529.3962      -1892.893          38.000  
  22394350.239   117683099.602       -2335.452          49.000  
  22374764.272   117580170.301        1867.978          48.000  
  22158214.277   116442199.964        -141.409          49.000  
  20752659.895   109055970.341        1742.401          48.000  
  23828149.998   125217760.149        2661.865          36.000  
  22902860.089   120355320.378       -2453.288          38.000  
 16  5 20 10 25 17.0000000  0  9G 1G 3G 8G11G17G22G28G19G30
  21572506.286   113364290.406       -2154.889          51.000  
  21596187.331   113488724.696        1730.694          49.000  
  24782976.249   130235423.8102      -1896.117          48.000  
  22394794.679   117685436.296       -2337.022          49.000  
  22374408.532   117578302.775        1867.175          48.000  
  22158241.639   116442342.281        -142.766          49.000  
  20752328.690   109054228.563        1741.406          48.000  
  23827642.929   125215097.293        2662.750          41.000  
  22903326.778   120357773.174       -2452.349          38.000  
 16  5 20 10 25 18.0000000  0  9G 1G 3G 8G11G17G22G28G19G30
  21572916.105   113366445.805       -2156.021          50.000  
  21595857.958   113486994.351        1729.967          49.000  
  24783337.189   130237318.8732      -1896.308          42.000  
  22395239.607   117687773.952       -2338.494          49.000  
  22374053.717   117576435.363        1867.054          48.000  
  22158269.838   116442485.740        -143.848          50.000  
  20751997.258   109052487.360        1740.790          48.000  
  23827136.088   125212434.435        2661.853          41.000  
  22903793.432   120360225.415       -2452.491          38.000  
 16  5 20 10 25 19.0000000  0  9G 1G 3G 8G11G17G22G28G19G30
  21573326.639   113368601.635       -2155.959          51.000  
  21595528.586   113485264.599        1729.429          49.000  
  24783697.850   130239213.6361      -1894.990          46.000  
  22395684.937   117690111.909       -2338.374          49.000  
  22373698.099   117574568.058        1867.109          48.000  
  22158297.357   116442629.946        -144.661          50.000  
  20751665.808   109050746.630        1740.680          48.000  
  23826629.543   125209771.493        2663.190          40.000  
  22904260.103   120362677.660       -2452.344          39.000  
 16  5 20 10 25 20.0000000  0  9G 1G 3G 8G11G17G22G28G19G30
  21573737.190   113370757.485       -2155.537          51.000  
  21595199.649   113483535.288        1729.238          49.000  
  24784058.511   130241108.686       -1893.097          46.000  
  22396129.481   117692449.782       -2337.326          49.000  
  22373343.057   117572700.783        1867.696          48.000  
  22158324.405   116442774.484        -144.275          50.000  
  20751334.970   109049006.306        1740.570          48.000  
  23826122.806   125207108.716        2662.286          42.000  
  22904726.774   120365130.340       -2453.263          39.000  
 16  5 20 10 25 21.0000000  0  9G 1G 3G 8G11G17G22G28G19G30
  21574147.305   113372912.499       -2154.467          51.000  
  21594870.800   113481806.639        1728.137          49.000  
  24784418.666   130243003.164       -1894.287          43.000  
  22396574.444   117694786.499       -2335.931          49.000  
  22372987.753   117570833.424        1867.179          48.000  
  22158351.785   116442918.834        -144.267          50.000  
  20751003.922   109047266.286        1739.606          49.000  
  23825616.470   125204446.413        2661.365          41.000  
  22905193.829   120367584.852       -2455.779          39.000  
 16  5 20 10 25 22.0000000  0  9G 1G 3G 8G11G17G22G28G19G30
  21574557.385   113375067.205       -2154.797          50.000  
  21594542.055   113480078.942        1727.661          49.000  
  24784779.432   130244897.551       -1894.313          44.000  
  22397018.674   117697122.732       -2336.170          49.000  
  22372632.815   117568966.006        1868.020          49.000  
  22158379.600   116443063.537        -144.936          51.000  
  20750672.612   109045526.722        1739.886          48.000  
  23825110.431   125201784.341        2662.878          42.000  
  22905661.181   120370040.991       -2455.528          39.000  
 16  5 20 10 25 23.0000000  0  9G 1G 3G 8G11G17G22G28G19G30
  21574967.343   113377222.565       -2155.498          50.000  
  21594213.101   113478352.293        1726.079          49.000  
  24785139.901   130246792.668       -1895.662          45.000  
  22397463.219   117699459.655       -2337.028          49.000  
  22372277.215   117567098.593        1867.390          48.000  
  22158407.172   116443209.350        -146.411          50.000  
  20750341.703   109043787.722        1739.020          48.000  
  23824603.660   125199122.192        2663.354          41.000  
  22906128.498   120372497.297       -2456.591          38.000  
 16  5 20 10 25 24.0000000  0  9G 1G 3G 8G11G17G22G28G19G30
  21575377.406   113379378.173       -2155.649          50.000  
  21593884.758   113476626.524        1725.980          49.000  
  24785500.772   130248688.089       -1894.680          42.000  
  22397908.112   117701796.650       -2336.031          50.000  
  22371921.579   117565231.025        1867.258          48.000  
  22158434.987   116443355.876        -145.762          51.000  
  20750010.777   109042049.118        1738.843          48.000  
  23824096.975   125196459.936        2661.792          43.000  
  22906596.059   120374954.089       -2457.046          38.000  
 16  5 20 10 25 25.0000000  0  9G 1G 3G 8G11G17G22G28G19G30
  21575787.765   113381533.991       -2156.276          51.000  
  21593556.519   113474901.302        1724.705          48.000  
  24785861.450   130250583.299       -1894.836          41.000  
  22398353.162   117704133.762       -2337.397          49.000  
  22371566.520   117563363.815        1867.122          48.000  
  22158462.873   116443502.933        -148.005          49.000  
  20749680.288   109040311.179        1737.390          48.000  
  23823590.413   125193798.072        2661.676          40.000  
  22907063.742   120377411.456       -2457.698          38.000  
 16  5 20 10 25 26.0000000  0  9G 1G 3G 8G11G17G22G28G19G30
  21576198.246   113383690.894       -2157.424          49.000  
  21593228.228   113473176.715        1723.736          49.000  
  24786222.583   130252478.4963      -1897.318          37.000  
  22398797.480   117706471.805       -2338.008          51.000  
  22371211.408   117561497.019        1866.954          48.000  
  22158491.334   116443651.070        -148.700          49.000  
  20749350.042   109038574.016        1736.890          49.000  
  23823083.711   125191136.453        2660.992          42.000  
  22907531.356   120379868.357       -2456.344          39.000  
 16  5 20 10 25 27.0000000  0  9G 1G 3G 8G11G17G22G28G19G30
  21576609.025   113385848.685       -2157.417          50.000  
  21592900.181   113471452.914        1724.299          48.000  
  24786590.329                       -1893.549          25.000  
  22399243.054   117708810.846       -2339.609          51.000  
  22370856.209   117559630.015        1866.895          48.000  
  22158519.952   116443800.519        -150.558          49.000  
  20749019.343   109036837.195        1736.475          48.000  
  23822577.288   125188474.141        2663.074          41.000  
  22907998.952   120382324.545       -2456.268          39.000  
 16  5 20 10 25 28.0000000  0  9G 1G 3G 8G11G17G22G28G19G30
  21577019.524   113388006.739       -2157.393          51.000  
  21592572.274   113469730.092        1723.271          48.000  
  24786944.777   130256273.3332      -1897.751          42.000  
  22399687.912   117711150.142       -2338.906          49.000  
  22370500.486   117557762.840        1866.978          48.000  
  22158548.501   116443950.705        -150.203          50.000  
  20748688.941   109035100.787        1736.365          48.000  
  23822070.673   125185811.702        2663.495          39.000  
  22908466.565   120384781.157       -2457.972          39.000  
 16  5 20 10 25 29.0000000  0  9G 1G 3G 8G11G17G22G28G19G30
  21577429.708   113390163.807       -2157.020          51.000  
  21592244.455   113468007.682        1722.673          49.000  
  24787307.690   130258169.5722      -1895.499          43.000  
  22400133.015   117713488.002       -2337.113          50.000  
  22370145.234   117555895.803        1866.731          48.000  
  22158576.788   116444100.416        -149.781          50.000  
  20748358.329   109033364.786        1735.590          48.000  
  23821563.587   125183150.055        2663.232          40.000  
  22908934.248   120387239.802       -2459.347          37.000  
 16  5 20 10 25 30.0000000  0  9G 1G 3G 8G11G17G22G28G19G30
  21577840.504   113392321.467       -2158.118          51.000  
  21591916.844   113466285.329        1722.930          48.000  
  24787667.321   130260070.7573      -1895.300          45.000  
  22400578.187   117715826.196       -2338.249          48.000  
  22369789.913   117554029.940        1865.339          48.000  
  22158605.109   116444250.503        -150.590          50.000  
  20748028.014   109031629.873        1733.856          48.000  
  23821057.339   125180489.776        2659.497          42.000  
  22909401.984   120389698.826       -2458.962          38.000  
 16  5 20 10 25 31.0000000  0  9G 1G 3G 8G11G17G22G28G19G30
  21578251.369   113394480.658       -2159.205          51.000  
  21591589.007   113464562.448        1723.348          49.000  
  24788026.010   130261966.5612      -1897.091          38.000  
  22401023.360   117718165.432       -2339.085          49.000  
  22369435.517   117552166.181        1862.928          47.000  
  22158634.112   116444401.143        -150.278          50.000  
  20747698.432   109029896.518        1732.648          48.000  
  23820551.073   125177831.407        2657.275          40.000  
  22909869.650   120392157.050       -2457.357          40.000  
 16  5 20 10 25 32.0000000  0  9G 1G 3G 8G11G17G22G28G19G30
  21578662.374   113396641.760       -2161.907          50.000  
  21591260.768   113462838.311        1724.813          48.000  
  24788389.010   130263863.0543      -1895.735          46.000  
  22401468.829   117720506.170       -2341.814          50.000  
  22369081.050   117550304.706        1861.232          47.000  
  22158662.660   116444552.236        -151.650          50.000  
  20747368.867   109028164.627        1730.963          47.000  
  23820045.750   125175174.919        2655.334          35.000  
  22910337.089   120394612.946       -2454.820          40.000  
 16  5 20 10 25 33.0000000  0  9G 1G 3G 8G11G17G22G28G19G30
  21579074.095   113398804.913       -2164.257          49.000  
  21590932.983   113461115.350        1721.854          49.000  
  24788746.565   130265759.4722      -1898.175          46.000  
  22401914.682   117722849.223       -2343.565          50.000  
  22368726.601   117548442.921        1863.570          47.000  
  22158691.593   116444705.679        -155.496          50.000  
  20747039.232   109026433.177        1732.031          48.000  
  23819540.025   125172517.248        2659.460          37.000  
  22910803.882   120397066.646       -2451.852          41.000  
 16  5 20 10 25 34.0000000  0  9G 1G 3G 8G11G17G22G28G19G30
  21579486.286   113400970.885       -2168.171          51.000  
  21590605.809   113459396.196        1716.322          49.000  
  24789109.390   130267661.5762      -1905.902          43.000  
  22402361.268   117725196.391       -2350.717          47.000  
  22368371.978   117546577.948        1866.085          47.000  
  22158722.096   116444863.884        -161.576          50.000  
  20746709.702   109024701.031        1732.257          48.000  
  23819033.655   125169865.8943       2665.845          41.000  
  22911270.379   120399517.147       -2448.919          39.000  
 16  5 20 10 25 35.0000000  0  9G 1G 3G 8G11G17G22G28G19G30
  21579899.246   113403140.709       -2171.796          51.000  
  21590279.874   113457681.899        1712.235          49.000  
  24789475.757                       -1906.348          40.000  
  22402808.604   117727548.927       -2354.961          50.000  
  22368016.482   117544708.917        1870.731          48.000  
  22158753.576   116445028.374        -167.586          50.000  
  20746379.806   109022967.985        1733.862          47.000  
  23818526.447   125167196.7562       2672.424          43.000  
  22911736.247   120401963.395       -2444.636          38.000  
 16  5 20 10 25 36.0000000  0  9G 1G 3G 8G11G17G22G28G19G30
  21580312.764   113405314.789       -2176.481          51.000  
  21589954.463   113455972.663        1707.958          47.000  
  24789838.704   130271480.8293      -1921.640          42.000  
  22403257.598   117729907.458       -2362.090          47.000  
  22367659.817   117542835.939        1873.686          49.000  
  22158785.824   116445199.674        -174.185          49.000  
  20746050.084   109021234.113        1734.125          49.000  
  23818016.447   125164520.9672       2679.218          42.000  
  22912200.964   120404404.997       -2438.018          40.000  
 16  5 20 10 25 37.0000000  0  9G 1G 3G 8G11G17G22G28G19G30
  21580727.712   113407494.321       -2182.410          50.000  
  21589629.871   113454266.431        1705.901          47.000  
  24790205.787   130273405.0642      -1926.425          41.000  
  22403707.657   117732272.677       -2368.075          44.000  
  22367302.664   117540961.346        1874.821          49.000  
  22158819.782   116445377.033        -180.109          48.000  
  20745720.205   109019500.437        1733.405          49.000  
  23817506.481   125161840.8142       2681.604          45.000  
  22912664.285   120406840.113       -2431.344          43.000  
 16  5 20 10 25 38.0000000  0  9G 1G 3G 8G11G17G22G28G19G30
  21581143.691   113409680.559       -2189.658          48.000  
  21589305.489   113452561.688        1705.001          47.000  
  24790572.154   130275334.3792      -1929.866          35.000  
  22404159.007   117734645.318       -2376.170          44.000  
  22366946.609   117539087.816        1872.226          51.000  
  22158854.456   116445559.983        -185.341          47.000  
  20745390.675   109017768.579        1730.701          50.000  
  23816995.923   125159158.9942       2681.512          48.000  
  22913126.052   120409267.866       -2423.825          44.000  
 16  5 20 10 25 39.0000000  0  8G 1G 3G11G17G22G28G19G30
  21581561.170   113411873.165       -2195.039          47.000  
  21588981.002   113450855.660        1708.237          45.000  
  22404611.875   117737024.007       -2380.483          42.000  
  22366591.166   117537219.230        1865.900          51.000  
  22158890.037   116445746.297        -186.546          44.000  
  20745061.878   109016040.102        1727.161          49.000  
  23816485.557   125156480.0462       2677.002          47.000  
  22913587.000   120411689.133       -2418.622          47.000  
 16  5 20 10 25 40.0000000  0  8G 1G 3G11G17G 8G28G19G30
  21581979.120   113414069.842       -2198.451          47.000  
  21588655.957   113449146.930        1709.837          47.000  
  22405065.249   117739406.082       -2383.653          42.000  
  22366236.473   117535355.503        1861.751          50.000  
  24791321.763                       -1924.119          30.000  
  20744733.308   109014314.476        1724.139          49.000  
  23815977.267   125153805.3092       2674.292          43.000  
  22914046.586   120414105.825       -2415.895          47.000  
 16  5 20 10 25 41.0000000  0  8G 1G 3G11G17G 8G28G19G22
  21582397.558   113416269.571       -2200.468          47.000  
  21588330.475   113447436.861        1709.973          46.000  
  22405518.902   117741790.395       -2384.419          40.000  
  22365882.931   117533496.872        1857.771          49.000  
  24791679.580                       -1943.049          29.000  
  20744405.890   109012592.155        1721.222          49.000  
  23815468.156   125151135.3972       2667.633          39.000  
  22158960.501   116446122.7713       -187.880          45.000  
 16  5 20 10 25 42.0000000  0  8G 1G 3G17G 8G28G19G22G30
  21582816.538   113418471.479       -2202.888          47.000  
  21588004.994   113445726.884        1710.993          47.000  
  22365529.791   117531640.444        1856.222          48.000  
  24792040.642                       -1930.011          30.000  
  20744078.419   109010871.642        1720.624          48.000  
  23814960.442   125148467.3662       2671.100          35.000  
  22158994.092   116446312.0062       -189.643          46.000  
  22914963.805   120418947.5183      -2413.625          49.000  
 16  5 20 10 25 43.0000000  0  9G 1G 3G11G17G 8G28G19G22G30
  21583235.972   113420675.289       -2204.612          47.000  
  21587679.094   113444016.927        1709.506          45.000  
  22406426.366                       -2387.988          43.000  
  22365175.988   117529784.195        1855.572          47.000  
  24792405.544                       -1929.489          29.000  
  20743751.000   109009151.590        1719.397          46.000  
  23814452.903   125145793.8433       2669.800          44.000  
  22159033.530   116446502.7442       -191.533          46.000  
  22915425.782   120421359.4352      -2411.352          49.000  
 16  5 20 10 25 44.0000000  0  9G 1G 3G11G17G 8G28G19G22G30
  21583655.684   113422880.676       -2206.404          47.000  
  21587354.118   113442308.487        1707.502          47.000  
  22406885.760   117748978.5723      -2390.816          42.000  
  22364823.337   117527928.904        1854.359          48.000  
  24792779.572                       -1932.495          33.000  
  20743424.053   109007432.825        1717.432          48.000  
  23813945.416   125143126.8823       2666.345          44.000  
  22159069.704   116446695.3432       -193.590          46.000  
  22915882.925   120423771.8702      -2413.718          50.000  
 16  5 20 10 25 45.0000000  0 10G 1G 3G11G17G 8G28G19G22G30G 7
  21584075.467   113425086.644       -2205.713          47.000  
  21587029.597   113440601.677        1706.038          47.000  
  22407336.290   117751368.6522      -2389.609          42.000  
  22364470.232   117526074.498        1853.966          48.000  
  24793147.073                       -1930.762          35.000  
  20743097.368   109005715.399        1716.937          48.000  
  23813438.330   125140460.2702       2668.616          45.000  
  22159106.053   116446889.0522       -193.943          46.000  
  22916344.675   120426186.3832      -2415.857          48.000  
  24162864.858   126976711.0012      -2966.645          42.000  
 16  5 20 10 25 46.0000000  0 10G 1G 3G11G17G 8G28G19G22G30G 7
  21584495.144   113427292.357       -2205.468          47.000  
  21586705.180   113438895.919        1706.020          48.000  
  22407790.153   117753758.2692      -2389.643          42.000  
  22364117.318   117524220.287        1853.597          44.000  
  24793513.039                       -1930.050          32.000  
  20742770.525   109003998.604        1716.852          47.000  
  23812931.628   125137794.1372       2665.216          39.000  
  22159142.925   116447083.1132       -194.163          46.000  
  22916803.023   120428602.8712      -2417.768          49.000  
  24163429.006   126979680.0942      -2970.345          44.000  
 16  5 20 10 25 47.0000000  0 10G 1G 3G11G17G 8G28G19G22G30G 7
  21584914.805   113429497.330       -2204.865          47.000  
  21586380.309   113437190.863        1704.772          46.000  
  22408247.139   117756146.8762      -2387.984          44.000  
  22363763.951   117522365.886        1853.533          48.000  
  24793881.623   130292727.2783      -1931.339          36.000  
  20742444.014   109002282.164        1715.674          48.000  
  23812424.455   125135128.4132       2664.819          39.000  
  22159180.705   116447277.0772       -194.116          45.000  
  22917263.255   120431021.0782      -2419.466          49.000  
  24163994.916   126982650.6282      -2971.355          45.000  
 16  5 20 10 25 48.0000000  0 10G 1G 3G11G17G 8G28G19G22G30G 7
  21585334.151   113431701.636       -2203.685          46.000  
  21586055.874   113435486.474        1704.438          47.000  
  22408700.705   117758534.6502      -2387.193          42.000  
  22363411.300   117520511.514        1855.136          48.000  
  24794246.106   130294641.7263      -1930.135          33.000  
  20742117.067   109000566.047        1715.948          48.000  
  23811916.775   125132463.1192       2665.350          46.000  
  22159217.507   116447470.9712       -193.407          46.000  
  22917723.504   120433440.9372      -2420.477          49.000  
  24164560.338   126985622.6822      -2972.313          45.000  
 16  5 20 10 25 49.0000000  0 10G 1G 3G11G17G 8G28G19G22G30G 7
  21585753.549   113433905.662       -2204.277          47.000  
  21585731.423   113433782.420        1703.632          47.000  
  22409154.865   117760921.8582      -2387.121          42.000  
  22363059.015   117518656.906        1854.471          48.000  
  24794618.197                       -1928.823          28.000  
  20741790.486   108998850.065        1715.814          48.000  
  23811409.498   125129797.7192       2665.533          46.000  
  22159254.484   116447665.0062       -194.295          47.000  
  22918184.487   120435861.2232      -2420.207          49.000  
  24165124.696   126988594.9212      -2971.910          42.000  
 16  5 20 10 25 50.0000000  0 11G 1G 3G11G17G 8G28G19G22G30G 6G 7
  21586173.210   113436111.065       -2206.836          46.000  
  21585407.651   113432079.176        1702.635          47.000  
  22409608.954   117763310.5282      -2390.319          42.000  
  22362705.526   117516802.599        1854.015          48.000  
  24794981.405   130298506.5522      -1931.607          33.000  
  20741464.202   108997134.810        1714.734          48.000  
  23810901.679   125127132.2812       2665.564          45.000  
  22159291.688   116447860.5152       -197.072          47.000  
  22918645.155   120438280.5892      -2417.870          49.000  
  23645724.217   124259118.7632       3258.107          43.000  
  24165690.432   126991565.8732      -2968.972          44.000  
 16  5 20 10 25 51.0000000  0 11G 1G 3G11G17G 8G28G19G22G30G 6G 7
  21586593.655   113438319.995       -2210.920          47.000  
  21585083.915   113430377.035        1701.529          47.000  
  22410064.178   117765702.9982      -2394.603          42.000  
  22362352.525   117514949.005        1853.010          49.000  
  24795350.460   130300440.7342      -1935.349          31.000  
  20741137.952   108995420.732        1713.239          48.000  
  23810394.139   125124466.1362       2666.083          45.000  
  22159329.817   116448059.2122       -200.647          47.000  
  22919104.724   120440696.5122      -2414.615          48.000  
  23645103.740   124255858.7542       3261.992          41.000  
  24166255.278   126994532.9842      -2966.168          43.000  
 16  5 20 10 25 52.0000000  0 11G 1G 3G11G17G 8G28G19G22G30G 6G 7
  21587014.642   113440532.280       -2213.927          47.000  
  21584760.178   113428676.030        1700.155          47.000  
  22410520.152   117768099.1232      -2397.683          42.000  
  22362000.799   117513096.096        1852.452          49.000  
  24795718.764   130302380.8653      -1936.368          32.000  
  20740812.035   108993707.779        1712.366          48.000  
  23809887.106   125121799.3662       2667.413          46.000  
  22159368.207   116448260.9912       -203.380          46.000  
  22919563.769   120443109.1792      -2410.831          49.000  
  23644482.809   124252595.6852       3264.553          44.000  
  24166819.531   126997496.3812      -2963.346          39.000  
 16  5 20 10 25 53.0000000  0 11G 1G 3G11G17G 8G28G19G22G30G 6G 7
  21587436.012   113442747.304       -2215.898          47.000  
  21584436.721   113426975.899        1699.386          47.000  
  22410977.191   117770498.1962      -2400.511          42.000  
  22361648.409   117511243.577        1852.260          48.000  
  24796089.739   130304319.6632      -1938.005          32.000  
  20740486.309   108991995.655        1711.645          48.000  
  23809379.322   125119131.9052       2667.963          46.000  
  22159407.086   116448465.2912       -204.957          46.000  
  22920022.309   120445519.0402      -2409.215          50.000  
  23643861.214   124249329.8802       3265.652          46.000  
  24167382.876   127000456.4782      -2959.945          43.000  
 16  5 20 10 25 54.0000000  0 11G 1G 3G11G17G 8G28G19G22G30G 6G 7
  21587857.662   113444962.984       -2215.621          47.000  
  21584113.386   113425276.590        1698.694          47.000  
  22411434.247   117772897.8292      -2399.526          42.000  
  22361295.531   117509391.241        1852.305          48.000  
  24796454.308   130306258.8962      -1937.997          32.000  
  20740160.496   108990284.145        1711.176          48.000  
  23808871.852   125116464.6642       2666.107          42.000  
  22159446.158   116448670.5862       -205.563          46.000  
  22920481.075   120447928.9722      -2410.348          51.000  
  23643240.091   124246064.2112       3264.067          41.000  
  24167946.012   127003416.4792      -2959.886          44.000  
 16  5 20 10 25 55.0000000  0 11G 1G 3G11G17G 8G28G19G22G30G 6G 7
  21588279.346   113447178.370       -2215.012          47.000  
  21583790.016   113423577.304        1699.343          47.000  
  22411890.622   117775296.9032      -2398.432          42.000  
  22360943.769   117507539.297        1852.173          48.000  
  24796832.664                       -1930.518          35.000  
  20739834.857   108988573.095        1711.359          48.000  
  23808363.998   125113797.4591       2663.971          42.000  
  22159485.333   116448875.7222       -204.858          46.000  
  22920940.190   120450339.6492      -2410.836          49.000  
  23642618.707   124242799.4852       3263.410          46.000  
  24168509.462   127006376.7802      -2960.004          45.000  
 16  5 20 10 25 56.0000000  0 11G 1G 3G11G17G 8G28G19G22G30G 6G 7
  21588700.996   113449394.371       -2217.260          47.000  
  21583466.227   113421878.437        1698.496          47.000  
  22412347.207   117777696.4062      -2400.946          42.000  
  22360590.786   117505687.872        1850.545          48.000  
  24797196.763                       -1941.260          32.000  
  20739509.533   108986862.680        1709.436          48.000  
  23807856.703   125111131.3813       2663.879          44.000  
  22159523.933   116449081.5122       -207.420          46.000  
  22921398.607   120452750.2172      -2410.350          49.000  
  23641998.020   124239534.7792       3264.828          46.000  
  24169072.790   127009336.5042      -2958.689          43.000  
 16  5 20 10 25 57.0000000  0 11G 1G 3G11G17G 8G28G19G22G30G 6G 7
  21589122.907   113451612.411       -2218.709          47.000  
  21583143.189   113420180.455        1697.162          47.000  
  22412804.595   117780097.9492      -2402.245          43.000  
  22360238.187   117503837.003        1850.727          48.000  
  24797561.699   130312065.4193      -1942.465          33.000  
  20739184.278   108985153.295        1708.679          48.000  
  23807349.268   125108464.4492       2666.223          37.000  
  22159563.667   116449289.2572       -208.737          46.000  
  22921856.833   120455159.3302      -2408.963          49.000  
  23641375.937   124236268.8242       3266.433          47.000  
  24169635.734   127012294.2612      -2958.340          42.000  
 16  5 20 10 25 58.0000000  0 11G 1G 3G11G17G 8G28G19G22G30G 6G 7
  21589545.290   113453831.740       -2219.502          47.000  
  21582820.569   113418483.383        1697.125          47.000  
  22413261.634   117782500.8882      -2403.601          43.000  
  22359886.670   117501986.406        1850.300          48.000  
  24797931.382   130314008.6783      -1941.904          32.000  
  20738859.076   108983444.542        1708.765          48.000  
  23806842.217   125105800.0172       2667.401          45.000  
  22159603.349   116449498.5152       -209.379          47.000  
  22922315.128   120457567.6032      -2407.543          48.000  
  23640754.290   124233002.0552       3268.048          46.000  
  24170198.137   127015250.9562      -2956.217          44.000  
 16  5 20 10 25 59.0000000  0 11G 1G 3G11G17G 8G28G19G22G30G 6G 7
  21589968.021   113456052.176       -2220.571          47.000  
  21582497.444   113416787.091        1696.083          47.000  
  22413719.423   117784904.8902      -2403.799          43.000  
  22359534.176   117500135.796        1851.185          48.000  
  24798301.903   130315950.4192      -1941.363          31.000  
  20738534.153   108981736.332        1707.935          48.000  
  23806334.660   125103133.1302       2667.371          44.000  
  22159643.432   116449709.0782       -210.614          47.000  
  22922773.126   120459974.9802      -2407.201          49.000  
  23640132.626   124229734.4922       3267.694          47.000  
  24170760.453   127018206.5682      -2954.987          43.000  
 16  5 20 10 26  0.0000000  0 11G 1G 3G11G17G 8G28G19G22G30G 6G 7
  21590390.578   113458272.301       -2220.013          47.000  
  21582174.806   113415091.577        1694.625          47.000  
  22414176.444   117787308.4052      -2402.523          43.000  
  22359181.751   117498285.232        1850.513          48.000  
  24798668.654   130317891.9502      -1941.016          31.000  
  20738209.282   108980028.497        1707.287          48.000  
  23805827.243   125100466.7302       2665.607          44.000  
  22159683.707   116449919.8992       -211.187          47.000  
  22923231.700   120462383.7082      -2409.579          48.000  
  23639511.120   124226468.2362       3264.550          47.000  
  24171323.083   127021163.3082      -2959.587          43.000  
 16  5 20 10 26  1.0000000  0 11G 1G 3G11G17G 8G28G19G22G30G 6G 7
  21590812.856   113460491.771       -2219.353          47.000  
  21581852.222   113413396.801        1694.469          47.000  
  22414633.483   117789711.0352      -2402.125          42.000  
  22358829.344   117496434.720        1849.883          47.000  
  24799039.785   130319832.8943      -1940.717          30.000  
  20737884.464   108978321.140        1707.355          48.000  
  23805320.802   125097804.3033       2665.649          43.000  
  22159723.965   116450130.1611       -210.884          47.000  
  22923690.589   120464794.354       -2411.317          48.000  
  23638889.665   124223203.892        3263.659          46.000  
  24171886.132   127024121.672       -2957.637          43.000  
 16  5 20 10 26  2.0000000  0 10G 1G 3G11G17G28G19G22G30G 6G 7
  21591235.361   113462711.285       -2219.442          47.000  
  21581529.916   113411702.857        1693.318          47.000  
  22415091.010   117792113.5112      -2402.400          42.000  
  22358477.565   117494584.369        1850.791          48.000  
  20737559.715   108976614.394        1706.677          48.000  
  23804811.221   125095138.7502       2667.328          42.000  
  22159764.153   116450341.466        -212.091          46.000  
  22924149.425   120467206.050       -2412.319          49.000  
  23638268.891   124219940.581        3262.853          45.000  
  24172449.442   127027080.947       -2959.563          45.000  
 16  5 20 10 26  3.0000000  0 11G 1G 3G11G17G 8G28G19G22G30G 6G 7
  21591657.778   113464931.105       -2219.595          47.000  
  21581208.047   113410009.697        1693.285          48.000  
  22415548.310   117794516.1102      -2402.101          42.000  
  22358125.036   117492734.385        1850.067          47.000  
  24799780.896   130323728.0972      -1941.748          32.000  
  20737235.106   108974908.295        1706.067          49.000  
  23804309.318   125092474.3812       2662.183          33.000  
  22159804.393   116450553.366        -212.089          47.000  
  22924608.784   120469618.525       -2412.309          50.000  
  23637648.187   124216678.078        3263.058          44.000  
  24173012.316   127030040.656       -2960.304          44.000  
 16  5 20 10 26  4.0000000  0 11G 1G 3G11G17G 8G28G19G22G30G 6G 7
  21592080.143   113467151.029       -2219.938          47.000  
  21580885.846   113408317.136        1692.024          47.000  
  22416005.401   117796918.6812      -2402.684          42.000  
  22357772.925   117490884.356        1849.177          47.000  
  24800145.902   130325669.2422      -1941.596          31.000  
  20736910.183   108973202.556        1705.517          48.000  
  23803801.412   125089819.8813       2664.392          39.000  
  22159844.947   116450765.766        -212.513          47.000  
  22925067.359   120472031.404       -2412.800          48.000  
  23637026.907   124213416.070        3262.275          45.000  
  24173575.679   127033000.665       -2960.940          42.000  
 16  5 20 10 26  5.0000000  0 11G 1G 3G11G17G 8G28G19G22G30G 6G 7
  21592502.665   113469371.327       -2220.317          47.000  
  21580563.890   113406625.384        1691.140          47.000  
  22416462.789   117799321.4632      -2402.631          42.000  
  22357421.652   117489034.562        1849.368          47.000  
  24800520.035   130327612.4203      -1940.382          31.000  
  20736585.644   108971497.422        1704.974          48.000  
  23803290.033   125087154.9362       2666.553          43.000  
  22159885.763   116450978.920        -213.677          46.000  
  22925526.631   120474444.700       -2412.739          49.000  
  23636406.202   124210154.581        3261.515          46.000  
  24174139.059   127035960.782       -2960.842          46.000  
 16  5 20 10 26  6.0000000  0 11G 1G 3G11G17G 8G28G19G22G30G 6G 7
  21592925.432   113471591.928       -2221.210          47.000  
  21580242.247   113404934.160        1690.360          47.000  
  22416920.177   117801724.4782      -2404.066          42.000  
  22357069.472   117487184.865        1849.318          48.000  
  24800891.620                       -1941.113          31.000  
  20736261.297   108969792.786        1703.790          47.000  
  23802784.989   125084490.3122       2667.029          44.000  
  22159926.370   116451192.651        -214.642          47.000  
  22925986.113   120476858.307       -2414.407          50.000  
  23635785.568   124206893.381        3260.528          46.000  
  24174702.335   127038920.821       -2960.447          46.000  
 16  5 20 10 26  7.0000000  0 11G 1G 3G11G17G 8G28G19G22G30G 6G 7
  21593347.919   113473812.729       -2220.917          47.000  
  21579920.395   113403243.323        1691.050          47.000  
  22417377.442   117804127.460       -2402.856          42.000  
  22356717.484   117485335.340        1848.943          47.000  
  24801258.650   130331493.1263      -1941.859          30.000  
  20735937.055   108968088.544        1704.059          47.000  
  23802277.781   125081826.0192       2664.075          47.000  
  22159967.064   116451406.810        -214.539          46.000  
  22926445.437   120479272.014       -2414.114          49.000  
  23635164.689   124203632.448        3260.403          45.000  
  24175265.698   127041880.581       -2959.594          45.000  
 16  5 20 10 26  8.0000000  0 11G 1G 3G11G17G 8G28G19G22G30G 6G 7
  21593770.302   113476033.672       -2221.671          47.000  
  21579598.788   113401552.888        1688.988          48.000  
  22417834.550   117806530.412       -2403.436          42.000  
  22356365.705   117483485.847        1849.095          48.000  
  24801633.132                       -1939.743          30.000  
  20735612.795   108966384.685        1703.296          48.000  
  23801768.462   125079161.6972       2663.867          45.000  
  22160007.740   116451621.291        -214.774          46.000  
  22926904.832   120481685.785       -2414.306          49.000  
  23634544.596   124200371.732        3259.481          47.000  
  24175828.886   127044840.186       -2960.200          44.000  
 16  5 20 10 26  9.0000000  0 11G 1G 3G11G17G 8G28G19G22G30G 6G 7
  21594192.946   113478254.967       -2221.952          47.000  
  21579277.076   113399862.914        1689.268          47.000  
  22418291.851   117808933.642       -2403.366          42.000  
  22356013.612   117481636.620        1848.166          46.000  
  24801998.312                       -1943.123          31.000  
  20735288.570   108964681.361        1702.716          48.000  
  23801263.348   125076497.5802       2663.849          42.000  
  22160048.365   116451836.479        -215.803          47.000  
  22927364.174   120484099.731       -2414.193          49.000  
  23633924.188   124197111.235        3261.156          44.000  
  24176391.970   127047799.593       -2959.471          42.000  
 16  5 20 10 26 10.0000000  0 11G 1G 3G11G17G 8G28G19G22G30G 6G 7
  21594616.061   113480476.838       -2222.272          47.000  
  21578955.747   113398173.804        1688.530          47.000  
  22418749.291   117811337.295       -2403.387          43.000  
  22355662.025   117479787.542        1849.239          48.000  
  24802368.449                       -1943.190          30.000  
  20734964.728   108962978.627        1702.319          48.000  
  23800757.204   125073833.6632       2664.008          45.000  
  22160089.582   116452052.553        -216.737          44.000  
  22927823.516   120486513.933       -2414.737          49.000  
  23633303.903   124193851.056        3259.087          45.000  
  24176954.984   127050758.924       -2960.419          45.000  
 16  5 20 10 26 11.0000000  0 11G 1G 3G11G17G 8G28G19G22G30G 6G 7
  21595038.845   113482699.047       -2222.051          47.000  
  21578634.314   113396485.276        1688.395          47.000  
  22419206.277   117813741.234       -2403.639          42.000  
  22355310.106   117477938.559        1848.792          49.000  
  24802736.945                       -1941.954          26.000  
  20734640.887   108961276.326        1702.167          48.000  
  23800250.956   125071162.5633       2664.331          39.000  
  22160130.782   116452269.231        -217.794          47.000  
  22928282.963   120488928.232       -2414.456          48.000  
  23632683.390   124190590.994        3259.915          45.000  
  24177518.189   127053718.145       -2959.696          45.000  
 16  5 20 10 26 12.0000000  0 11G 1G 3G11G17G 8G28G19G22G30G 6G 7
  21595461.577   113484921.576       -2222.769          47.000  
  21578313.126   113394797.308        1687.711          47.000  
  22419663.944   117816145.367       -2403.804          43.000  
  22354958.118   117476089.523        1847.947          46.000  
  24803107.274   130341208.3853      -1942.266          31.000  
  20734316.732   108959574.360        1701.977          48.000  
  23799742.805                        2661.619          34.000  
  22160172.261   116452486.533        -217.450          47.000  
  22928742.462   120491342.474       -2413.895          49.000  
  23632062.861   124187330.946        3260.144          44.000  
  24178081.430   127056677.069       -2958.044          45.000  
 16  5 20 10 26 13.0000000  0 11G 1G 3G 6G11G17G 8G28G19G22G 7G30
  21595884.762   113487144.634       -2223.047          47.000  
  21577991.693   113393110.080        1686.672          47.000  
  23631442.540   124184070.877        3260.020          45.000  
  22420121.506   117818550.015       -2405.087          43.000  
  22354606.269   117474240.449        1849.152          49.000  
  24803479.836                       -1942.627          34.000  
  20733993.048   108957872.859        1701.190          48.000  
  23799236.871   125065833.2562       2663.245          37.000  
  22160213.705   116452704.751        -218.315          47.000  
  24178644.391   127059635.632       -2957.510          45.000  
  22929201.821   120493756.653       -2413.989          48.000  
 16  5 20 10 26 14.0000000  0 11G 1G 3G 6G11G17G 8G28G19G22G 7G30
  21596307.912   113489368.428       -2223.889          46.000  
  21577671.045   113391423.645        1686.199          46.000  
  23630822.010   124180810.820        3260.448          45.000  
  22420578.964   117820955.306       -2405.752          42.000  
  22354254.839   117472391.600        1849.289          47.000  
  24803846.168                       -1943.309          30.000  
  20733669.346   108956171.965        1701.007          48.000  
  23798727.866   125063169.0322       2664.160          36.000  
  22160255.638   116452924.004        -219.708          47.000  
  24179207.702   127062593.991       -2957.816          48.000  
  22929660.971   120496170.828       -2413.967          49.000  
 16  5 20 10 26 15.0000000  0 10G 1G 3G 6G11G17G 8G28G22G 7G30
  21596731.063   113491592.715       -2224.851          47.000  
  21577350.153   113389737.914        1684.983          47.000  
  23630201.690   124177550.501        3260.376          45.000  
  22421037.137   117823361.004       -2405.655          43.000  
  22353902.554   117470542.706        1848.389          48.000  
  24804216.183   130347034.8483      -1942.927          34.000  
  20733345.784   108954471.433        1700.067          48.000  
  22160297.362   116453144.069        -220.844          46.000  
  24179770.384   127065551.840       -2957.701          44.000  
  22930120.331   120498584.737       -2414.453          49.000  
 16  5 20 10 26 16.0000000  0 10G 1G 3G 6G11G17G 8G28G22G 7G30
  21597154.300   113493817.523       -2225.050          47.000  
  21577029.662   113388052.695        1685.244          47.000  
  23629581.440   124174289.916        3260.701          44.000  
  22421495.327   117825767.183       -2406.202          42.000  
  22353551.020   117468693.690        1849.323          48.000  
  24804587.576   130348987.3672      -1945.476          30.000  
  20733022.292   108952771.250        1700.153          48.000  
  22160339.417   116453364.929        -221.051          47.000  
  24180333.258   127068509.071       -2956.647          46.000  
  22930579.621   120500998.266       -2412.868          49.000  
 16  5 20 10 26 17.0000000  0 11G 1G 3G 6G11G17G 8G28G19G22G 7G30
  21597577.765   113496043.098       -2225.724          47.000  
  21576709.206   113386368.247        1684.117          47.000  
  23628960.735   124171029.298        3260.091          44.000  
  22421953.552   117828174.066       -2406.823          43.000  
  22353199.904   117466844.986        1848.741          49.000  
  24804956.229   130350924.1982      -1942.555          32.000  
  20732698.730   108951071.677        1699.554          48.000  
  23797210.238                        2660.596          36.000  
  22160381.594   116453586.826        -222.283          46.000  
  24180895.609   127071465.803       -2956.045          45.000  
  22931038.614   120503411.699       -2412.983          49.000  
 16  5 20 10 26 18.0000000  0 11G 1G 3G 6G11G17G 8G28G19G22G 7G30
  21598001.369   113498268.983       -2226.687          47.000  
  21576388.227   113384683.982        1683.776          47.000  
  23628340.171   124167768.483        3260.640          46.000  
  22422411.516   117830581.110       -2407.220          42.000  
  22352847.933   117464996.417        1847.963          48.000  
  24805321.392   130352843.6123      -1944.882          35.000  
  20732375.378   108949372.480        1698.450          48.000  
  23796699.435   125052499.3343       2665.741          43.000  
  22160423.806   116453809.114        -222.959          46.000  
  24181458.361   127074422.023       -2956.661          45.000  
  22931497.973   120505824.883       -2414.049          49.000  
 16  5 20 10 26 19.0000000  0 11G 1G 3G 6G11G17G 8G28G19G22G 7G30
  21598425.304   113500495.461       -2227.010          47.000  
  21576068.085   113383000.263        1683.312          47.000  
  23627719.623   124164507.881        3260.917          45.000  
  22422869.357   117832988.561       -2407.231          42.000  
  22352496.555   117463148.203        1848.453          48.000  
  24805692.820   130354795.5683      -1944.564          32.000  
  20732052.305   108947673.982        1697.968          48.000  
  23796193.344   125049835.6642       2665.912          40.000  
  22160466.367   116454032.145        -223.153          46.000  
  24182020.712   127077377.686       -2955.071          46.000  
  22931957.525   120508238.018       -2412.915          49.000  
 16  5 20 10 26 20.0000000  0 11G 1G 3G 6G11G17G 8G28G19G22G 7G30
  21598849.048   113502722.437       -2226.710          47.000  
  21575747.926   113381317.089        1683.116          47.000  
  23627099.094   124161247.202        3261.790          44.000  
  22423327.582   117835396.470       -2408.257          41.000  
  22352144.096   117461300.173        1848.269          48.000  
  24806063.149                       -1941.195          31.000  
  20731729.039   108945975.892        1698.322          48.000  
  23795686.328   125047171.7232       2664.783          42.000  
  22160509.085   116454255.928        -224.090          47.000  
  24182583.010   127080332.956       -2955.516          45.000  
  22932416.588   120510651.020       -2412.428          49.000  
 16  5 20 10 26 21.0000000  0 11G 1G 3G 6G11G17G 8G28G19G22G 7G30
  21599272.879   113504949.799       -2227.401          47.000  
  21575427.593   113379634.513        1682.449          47.000  
  23626478.686   124157986.307        3260.837          46.000  
  22423785.703   117837804.633       -2408.319          42.000  
  22351793.050   117459451.880        1848.425          48.000  
  24806433.530   130358687.0662      -1955.809          30.000  
  20731405.826   108944278.078        1697.913          48.000  
  23795179.242   125044507.4702       2663.013          41.000  
  22160551.978   116454480.446        -224.466          47.000  
  24183145.117   127083287.701       -2954.823          45.000  
  22932875.755   120513063.765       -2412.473          49.000  
 16  5 20 10 26 22.0000000  0 10G 1G 3G 6G11G17G 8G28G22G 7G30
  21599696.884   113507178.091       -2228.707          47.000  
  21575107.817   113377953.080        1680.710          47.000  
  23625858.348   124154725.565        3260.238          47.000  
  22424243.911   117840213.750       -2409.665          42.000  
  22351441.375   117457603.897        1848.103          48.000  
  24806807.069                       -1948.096          31.000  
  20731082.788   108942581.033        1696.545          48.000  
  22160594.748   116454706.266        -226.366          47.000  
  24183707.502   127086242.462       -2955.742          43.000  
  22933335.115   120515476.687       -2413.017          50.000  
 16  5 20 10 26 23.0000000  0 11G 1G 3G 6G11G17G 8G28G19G22G 7G30
  21600121.256   113509407.038       -2229.464          47.000  
  21574788.094   113376272.453        1679.609          47.000  
  23625237.871   124151464.726        3259.583          44.000  
  22424702.607   117842623.442       -2410.387          42.000  
  22351088.759   117455755.991        1847.050          47.000  
  24807178.253                       -1939.978          30.000  
  20730760.273   108940884.531        1695.837          48.000  
  23794158.875                        2667.969          37.000  
  22160637.746   116454933.091        -227.667          47.000  
  24184269.434   127089196.872       -2954.955          46.000  
  22933794.212   120517889.478       -2413.145          50.000  
 16  5 20 10 26 24.0000000  0 11G 1G 3G 6G11G17G 8G28G19G22G 7G30
  21600545.541   113511636.623       -2229.922          47.000  
  21574468.476   113374592.571        1679.360          47.000  
  23624616.940   124148204.062        3259.941          44.000  
  22425161.094   117845033.702       -2410.586          43.000  
  22350737.434   117453908.306        1847.647          48.000  
  24807541.077   130364507.5382      -1946.837          30.000  
  20730437.706   108939188.581        1695.697          48.000  
  23793654.023   125036495.4103       2670.020          42.000  
  22160681.319   116455160.819        -228.071          47.000  
  24184831.698   127092151.100       -2953.931          44.000  
  22934253.293   120520302.378       -2413.122          49.000  
 16  5 20 10 26 25.0000000  0 11G 1G 3G 6G11G17G 8G28G19G22G 7G30
  21600969.843   113513867.107       -2230.417          47.000  
  21574148.718   113372913.617        1678.530          47.000  
  23623996.462   124144943.183        3261.933          45.000  
  22425619.581   117847444.800       -2410.987          41.000  
  22350385.829   117452060.857        1847.536          48.000  
  24807906.974                       -1945.264          30.000  
  20730114.964   108937493.318        1695.410          48.000  
  23793150.445   125033831.2732       2669.055          46.000  
  22160724.735   116455389.744        -229.002          46.000  
  24185393.717   127095104.909       -2953.124          47.000  
  22934712.460   120522715.102       -2412.844          49.000  
 16  5 20 10 26 26.0000000  0 11G 1G 3G 6G11G17G 8G28G19G22G 7G30
  21601394.564   113516098.110       -2230.820          47.000  
  21573829.868   113371235.379        1678.190          47.000  
  23623376.596   124141682.435        3260.708          46.000  
  22426078.888   117849856.356       -2411.281          43.000  
  22350034.661   117450213.475        1848.482          48.000  
  24808288.313                       -1943.213          29.000  
  20729792.449   108935798.580        1694.714          48.000  
  23792645.435   125031167.4152       2665.021          41.000  
  22160768.552   116455619.505        -229.792          47.000  
  24185956.033   127098058.537       -2953.039          44.000  
  22935171.611   120525127.848       -2412.486          49.000  
 16  5 20 10 26 27.0000000  0 11G 1G 3G 6G11G17G 8G28G19G22G 7G30
  21601819.092   113518329.413       -2231.608          47.000  
  21573510.512   113369557.740        1677.395          47.000  
  23622756.049   124138421.761        3260.201          46.000  
  22426537.690   117852268.134       -2412.412          43.000  
  22349682.952   117448366.051        1847.178          49.000  
  24808651.470                       -1948.438          32.000  
  20729469.760   108934104.165        1694.257          48.000  
  23792137.180   125028503.6492       2665.961          46.000  
  22160812.544   116455849.901        -230.456          47.000  
  24186517.965   127101011.760       -2952.527          44.000  
  22935631.040   120527540.614       -2412.929          49.000  
 16  5 20 10 26 28.0000000  0 11G 1G 3G 6G11G17G 8G28G19G22G 7G30
  21602243.534   113520560.912       -2232.118          47.000  
  21573191.295   113367880.491        1676.799          47.000  
  23622135.868   124135161.232        3259.987          45.000  
  22426996.787   117854679.887       -2411.788          43.000  
  22349331.417   117446518.710        1846.129          49.000  
  24809025.393                       -1941.162          31.000  
  20729147.663   108932410.157        1693.408          48.000  
  23791634.108   125025839.1452       2663.770          37.000  
  22160856.240   116456080.748        -231.304          46.000  
  24187080.019   127103964.869       -2953.260          44.000  
  22936089.998   120529953.465       -2413.474          49.000  
 16  5 20 10 26 29.0000000  0 11G 1G 3G 6G11G17G 8G28G19G22G 7G30
  21602668.203   113522792.696       -2231.495          47.000  
  21572872.200   113366203.851        1676.650          47.000  
  23621515.687   124131900.992        3261.507          47.000  
  22427455.658   117857091.864       -2411.568          41.000  
  22348979.621   117444671.464        1846.312          49.000  
  24809400.102   130374276.7843      -1948.216          32.000  
  20728825.271   108930716.613        1693.848          48.000  
  23791122.293   125023175.2152       2663.000          45.000  
  22160900.494   116456312.223        -231.730          46.000  
  24187642.055   127106918.006       -2953.661          46.000  
  22936549.410   120532366.514       -2413.252          50.000  
 16  5 20 10 26 30.0000000  0 11G 1G 3G 6G11G17G 8G28G19G22G 7G30
  21603092.993   113525024.774       -2231.871          47.000  
  21572553.332   113364527.867        1675.990          47.000  
  23620895.314   124128641.032        3261.046          45.000  
  22427914.477   117859504.065       -2412.451          41.000  
  22348628.243   117442824.230        1847.166          49.000  
  24809766.870   130376224.4242      -1946.757          32.000  
  20728503.262   108929023.502        1693.353          48.000  
  23790617.162   125020536.8143       2662.988          43.000  
  22160944.329   116456544.335        -232.331          46.000  
  24188203.708   127109871.006       -2952.434          45.000  
  22937008.595   120534779.805       -2412.291          48.000  
 16  5 20 10 26 31.0000000  0 10G 1G 3G 6G11G17G28G19G22G 7G30
  21603517.749   113527256.964       -2232.657          47.000  
  21572234.272   113362852.336        1674.934          47.000  
  23620274.732   124125381.236        3259.848          47.000  
  22428373.644   117861916.180       -2412.347          41.000  
  22348276.866   117440976.824        1847.023          47.000  
  20728181.078   108927330.643        1692.346          48.000  
  23790108.279   125017872.8172       2663.715          45.000  
  22160988.949   116456776.901        -233.266          46.000  
  24188765.692   127112823.860       -2952.938          47.000  
  22937467.850   120537193.212       -2414.100          48.000  
 16  5 20 10 26 32.0000000  0 11G 1G 3G 6G11G17G 8G28G19G22G 7G30
  21603942.714   113529489.525       -2232.612          47.000  
  21571915.649   113361177.499        1674.916          47.000  
  23619653.784   124122121.716        3259.304          45.000  
  22428832.986   117864328.544       -2412.321          42.000  
  22347925.296   117439129.631        1845.897          49.000  
  24810507.527                       -1946.799          33.000  
  20727859.087   108925638.299        1692.255          48.000  
  23789603.723   125015210.4143       2664.514          43.000  
  22161033.464   116457010.163        -233.582          46.000  
  24189327.624   127115776.597       -2952.848          47.000  
  22937926.948   120539606.802       -2413.404          49.000  
 16  5 20 10 26 33.0000000  0 11G 1G 3G 6G11G17G 8G28G19G22G 7G30
  21604367.435   113531722.137       -2232.828          47.000  
  21571596.938   113359502.966        1674.078          47.000  
  23619033.621   124118862.162        3259.820          47.000  
  22429292.032   117866740.872       -2412.535          42.000  
  22347573.936   117437282.201        1847.681          48.000  
  24810879.496   130382051.6563      -1947.774          35.000  
  20727537.061   108923946.154        1691.601          48.000  
  23789096.707   125012546.3912       2663.666          46.000  
  22161077.631   116457243.767        -234.227          46.000  
  24189889.696   127118729.040       -2952.749          46.000  
  22938386.237   120542020.359       -2413.938          49.000  
 16  5 20 10 26 34.0000000  0 11G 1G 3G 6G11G17G 8G28G19G22G 7G30
  21604792.452   113533955.280       -2233.311          47.000  
  21571278.611   113357829.324        1672.379          47.000  
  23618413.353   124115603.128        3257.348          45.000  
  22429751.775   117869153.646       -2413.064          42.000  
  22347222.558   117435435.113        1846.875          48.000  
  24811245.270                       -1948.796          28.000  
  20727215.226   108922254.656        1691.144          48.000  
  23788588.644   125009876.1433       2664.038          45.000  
  22161122.164   116457478.243        -234.688          46.000  
  24190451.628   127121681.614       -2952.841          47.000  
  22938845.230   120544434.254       -2413.811          49.000  
 16  5 20 10 26 35.0000000  0 10G 1G 3G 6G11G17G28G19G22G 7G30
  21605217.191   113536188.414       -2233.561          47.000  
  21570960.180   113356155.963        1672.798          47.000  
  23617793.137   124112344.033        3258.332          43.000  
  22430210.768   117871566.254       -2413.008          43.000  
  22346871.129   117433587.763        1847.234          48.000  
  20726893.252   108920563.271        1690.912          48.000  
  23788081.348   125007212.2702       2661.572          41.000  
  22161166.801   116457713.038        -234.294          46.000  
  24191013.525   127124633.888       -2951.882          47.000  
  22939304.695   120546848.185       -2414.158          49.000  
 16  5 20 10 26 36.0000000  0 11G 1G 3G 6G11G17G 8G28G19G22G 7G30
  21605642.278   113538421.819       -2233.486          46.000  
  21570642.097   113354483.315        1672.296          47.000  
  23617172.886   124109085.299        3257.687          45.000  
  22430669.552   117873978.999       -2411.945          42.000  
  22346519.262   117431740.445        1847.313          47.000  
  24811988.457   130387878.8302      -1948.009          32.000  
  20726571.243   108918872.329        1690.790          48.000  
  23787575.798   125004548.2702       2663.611          46.000  
  22161211.788   116457948.539        -235.439          44.000  
  24191575.299   127127586.251       -2952.123          46.000  
  22939764.316   120549262.351       -2414.423          49.000  
 16  5 20 10 26 37.0000000  0 10G 1G 3G 6G11G17G28G19G22G 7G30
  21606067.470   113540655.302       -2233.626          47.000  
  21570323.683   113352811.208        1672.083          47.000  
  23616552.828   124105827.262        3258.033          44.000  
  22431128.423   117876391.795       -2412.507          41.000  
  22346168.007   117429893.056        1847.821          48.000  
  20726249.688   108917181.695        1690.668          48.000  
  23787069.288   125001884.3922       2663.123          43.000  
  22161256.687   116458184.495        -235.450          47.000  
  24192136.795   127130538.689       -2952.529          48.000  
  22940223.920   120551676.847       -2414.596          49.000  
 16  5 20 10 26 38.0000000  0 11G 1G 3G 6G11G17G 8G28G19G22G 7G30
  21606492.610   113542888.849       -2233.518          47.000  
  21570005.531   113351139.693        1671.428          47.000  
  23615933.275   124102569.118        3257.098          48.000  
  22431587.608   117878804.516       -2412.405          43.000  
  22345815.879   117428045.629        1847.631          48.000  
  24812730.842   130391779.8312      -1947.445          32.000  
  20725928.028   108915491.442        1690.332          48.000  
  23786561.138   124999220.6272       2666.064          41.000  
  22161301.465   116458420.884        -236.501          46.000  
  24192698.500   127133491.348       -2952.466          48.000  
  22940683.279   120554091.797       -2414.916          49.000  
 16  5 20 10 26 39.0000000  0 11G 1G 3G 6G11G17G 8G28G19G22G 7G30
  21606917.365   113545122.326       -2233.730          47.000  
  21569687.448   113349468.585        1670.698          47.000  
  23615312.937   124099311.713        3257.051          42.000  
  22432047.020   117881216.979       -2412.943          43.000  
  22345464.152   117426198.170        1847.374          47.000  
  24813102.357   130393732.0633      -1948.561          32.000  
  20725606.491   108913801.433        1689.795          48.000  
  23786054.698   124996557.0172       2663.391          45.000  
  22161346.556   116458657.544        -236.794          47.000  
  24193260.450   127136444.097       -2953.326          48.000  
  22941142.517   120556507.145       -2415.522          49.000  
 16  5 20 10 26 40.0000000  0 11G 1G 3G 6G11G17G 8G28G19G22G 7G30
  21607342.488   113547355.696       -2233.082          47.000  
  21569369.470   113347797.999        1670.355          47.000  
  23614693.385   124096054.603        3256.792          46.000  
  22432506.048   117883629.223       -2411.968          42.000  
  22345112.600   117424350.477        1848.463          48.000  
  24813471.464   130395679.6302      -1946.550          31.000  
  20725285.040   108912111.665        1689.868          48.000  
  23785547.734   124993896.6793       2663.123          43.000  
  22161391.717   116458894.582        -237.079          47.000  
  24193822.277   127139397.026       -2953.099          47.000  
  22941602.365   120558922.787       -2415.591          49.000  
 16  5 20 10 26 41.0000000  0 11G 1G 3G 6G11G17G 8G28G19G22G 7G30
  21607767.313   113549588.858       -2233.131          47.000  
  21569051.597   113346127.880        1669.449          47.000  
  23614073.728   124092797.994        3255.827          45.000  
  22432964.622   117886041.107       -2411.308          42.000  
  22344761.048   117422502.570        1848.052          48.000  
  24813843.904   130397627.1112      -1947.448          31.000  
  20724963.520   108910421.999        1689.252          48.000  
  23785041.259   124991232.5722       2664.178          45.000  
  22161436.931   116459131.871        -237.991          47.000  
  24194384.488   127142350.183       -2953.489          49.000  
  22942062.440   120561338.925       -2417.174          48.000  
 16  5 20 10 26 42.0000000  0 11G 1G 3G 6G11G17G 8G28G19G22G 7G30
  21608192.243   113551822.165       -2234.045          47.000  
  21568734.195   113344458.664        1668.281          47.000  
  23613454.036   124089542.159        3255.419          45.000  
  22433423.650   117888453.042       -2412.111          42.000  
  22344409.287   117420654.772        1846.155          42.000  
  24814205.926                       -1938.574          31.000  
  20724641.947   108908732.879        1688.354          48.000  
  23784533.405   124988569.0012       2662.042          45.000  
  22161482.546   116459369.760        -238.420          46.000  
  24194946.559   127145304.000       -2954.330          48.000  
  22942522.253   120563755.812       -2417.427          49.000  
 16  5 20 10 26 43.0000000  0 10G 1G 3G 6G11G17G28G19G22G 7G30
  21608617.331   113554055.596       -2233.319          47.000  
  21568416.950   113342790.154        1667.943          47.000  
  23612834.396   124086286.768        3254.563          44.000  
  22433882.608   117890865.026       -2412.024          42.000  
  22344057.473   117418806.636        1847.989          48.000  
  20724320.514   108907044.109        1688.574          48.000  
  23784026.930   124985905.1072       2662.653          43.000  
  22161528.003   116459608.256        -239.058          46.000  
  24195508.631   127148257.979       -2953.779          49.000  
  22942982.311   120566173.160       -2418.024          48.000  
 16  5 20 10 26 44.0000000  0 11G 1G 3G 6G11G17G 8G28G19G22G 7G30
  21609042.139   113556288.870       -2233.139          47.000  
  21568099.496   113341122.116        1667.755          47.000  
  23612215.070   124083031.644        3255.727          43.000  
  22434341.654   117893276.690       -2411.833          42.000  
  22343705.642   117416958.348        1848.333          49.000  
  24814952.900   130403457.1293      -1946.755          33.000  
  20723999.256   108905355.466        1688.452          48.000  
  23783519.338   124983241.2552       2662.122          43.000  
  22161573.252   116459847.038        -238.927          46.000  
  24196070.685   127151212.214       -2954.662          48.000  
  22943442.298   120568590.867       -2418.104          49.000  
 16  5 20 10 26 45.0000000  0 10G 1G 3G 6G11G17G28G19G22G 7G30
  21609467.104   113558522.346       -2233.088          47.000  
  21567781.832   113339454.904        1667.209          47.000  
  23611595.622   124079777.142        3254.147          45.000  
  22434800.245   117895688.467       -2411.382          42.000  
  22343353.915   117415110.080        1848.385          48.000  
  20723678.137   108903667.370        1688.263          48.000  
  23783012.584   124980574.1583       2663.068          44.000  
  22161618.587   116460086.482        -239.516          47.000  
  24196632.722   127154166.746       -2954.414          49.000  
  22943902.356   120571009.101       -2418.816          48.000  
 16  5 20 10 26 46.0000000  0 10G 1G 3G 6G11G17G28G19G22G 7G30
  21609892.366   113560755.889       -2233.506          47.000  
  21567464.360   113337788.395        1666.169          47.000  
  23610976.611   124076522.894        3253.222          45.000  
  22435259.064   117898100.159       -2411.576          42.000  
  22343002.258   117413261.588        1848.105          49.000  
  20723356.704   108901979.532        1687.311          48.000  
  23782506.981   124977910.0402       2662.537          44.000  
  22161664.377   116460326.479        -240.394          47.000  
  24197195.107   127157121.430       -2955.305          49.000  
  22944362.762   120573427.677       -2419.093          50.000  
 16  5 20 10 26 47.0000000  0 10G 1G 3G 6G11G17G28G19G22G 7G30
  21610317.593   113562989.457       -2233.216          47.000  
  21567147.569   113336122.279        1666.445          48.000  
  23610357.215   124073269.022        3254.890          47.000  
  22435718.214   117900511.771       -2411.270          42.000  
  22342650.636   117411413.099        1848.646          48.000  
  20723035.725   108900292.050        1687.457          48.000  
  23781999.860   124975245.9262       2663.849          45.000  
  22161710.271   116460566.801        -240.434          46.000  
  24197757.615   127160076.123       -2954.678          49.000  
  22944823.274   120575846.514       -2418.760          49.000  
 16  5 20 10 26 48.0000000  0 11G 1G 3G 6G11G17G 8G28G19G22G 7G30
  21610742.453   113565223.020       -2233.583          47.000  
  21566830.638   113334456.477        1665.649          48.000  
  23609738.518   124070015.664        3252.984          45.000  
  22436177.137   117902923.159       -2411.635          42.000  
  22342298.927   117409564.765        1848.091          49.000  
  24816445.226                       -1952.588          33.000  
  20722714.745   108898604.935        1686.725          48.000  
  23781492.879   124972582.1432       2663.470          45.000  
  22161756.078   116460807.352        -240.751          46.000  
  24198319.931   127163030.682       -2954.570          46.000  
  22945283.628   120578265.652       -2419.043          49.000  
 16  5 20 10 26 49.0000000  0 11G 1G 3G 6G11G17G 8G28G19G22G 7G30
  21611167.366   113567456.578       -2234.118          47.000  
  21566514.178   113332791.048        1664.673          48.000  
  23609119.314   124066762.703        3252.857          46.000  
  22436636.218   117905334.383       -2412.012          42.000  
  22341947.218   117407716.444        1847.906          48.000  
  24816814.106   130413237.8553      -1947.651          31.000  
  20722393.626   108896918.153        1685.846          48.000  
  23780985.950   124969924.5753       2662.646          45.000  
  22161801.728   116461048.206        -241.766          47.000  
  24198882.247   127165985.316       -2955.231          44.000  
  22945744.069   120580685.188       -2420.428          49.000  
 16  5 20 10 26 50.0000000  0 11G 1G 3G 6G11G17G 8G28G19G22G 7G30
  21611592.401   113569690.410       -2233.926          47.000  
  21566197.073   113331126.262        1664.417          47.000  
  23608500.338   124063510.512        3249.510          44.000  
  22437094.932   117907745.667       -2411.247          42.000  
  22341595.544   117405868.495        1847.845          48.000  
  24817181.695                       -1940.771          30.000  
  20722072.630   108895232.043        1685.693          48.000  
  23780479.056   124967261.4012       2662.683          46.000  
  22161847.691   116461289.592        -241.502          46.000  
  24199444.283   127168940.286       -2955.134          46.000  
  22946204.947   120583105.267       -2420.921          49.000  
 16  5 20 10 26 51.0000000  0 11G 1G 3G 6G11G17G 8G28G19G22G 7G30
  21612017.715   113571924.304       -2233.627          47.000  
  21565880.666   113329461.921        1664.241          47.000  
  23607881.658   124060258.677        3251.341          44.000  
  22437553.593   117910156.859       -2410.986          42.000  
  22341244.079   117404020.623        1848.572          48.000  
  24817551.273   130417111.8122      -1947.356          31.000  
  20721752.139   108893546.314        1686.163          48.000  
  23779972.110   124964598.5132       2660.791          44.000  
  22161893.795   116461531.367        -241.658          46.000  
  24200006.651   127171895.157       -2954.623          46.000  
  22946665.580   120585525.727       -2420.010          49.000  
 16  5 20 10 26 52.0000000  0 11G 1G 3G 6G11G17G 8G28G19G22G 7G30
  21612442.419   113574157.948       -2233.928          47.000  
  21565563.927   113327797.780        1663.689          47.000  
  23607262.838   124057007.144        3250.449          35.000  
  22438012.551   117912567.647       -2411.035          42.000  
  22340892.370   117402172.541        1848.234          48.000  
  24817921.723   130419058.1892      -1946.437          31.000  
  20721431.369   108891860.733        1685.016          48.000  
  23779465.530   124961935.3042       2662.640          45.000  
  22161939.846   116461773.218        -242.106          46.000  
  24200568.618   127174849.902       -2955.566          46.000  
  22947125.969   120587946.283       -2420.618          49.000  
 16  5 20 10 26 53.0000000  0 11G 1G 3G 6G11G17G 8G28G19G22G 7G30
  21612867.698   113576391.587       -2233.869          47.000  
  21565247.101   113326134.242        1663.148          47.000  
  23606644.018   124053756.156        3250.866          42.000  
  22438471.318   117914978.262       -2411.057          42.000  
  22340540.643   117400324.399        1847.951          45.000  
  24818292.959   130421004.6442      -1946.783          31.000  
  20721110.529   108890175.529        1684.686          48.000  
  23778958.828   124959272.3732       2661.481          44.000  
  22161985.758   116462015.456        -242.566          46.000  
  24201131.109   127177805.001       -2955.169          46.000  
  22947586.690   120590367.477       -2420.978          49.000  
 16  5 20 10 26 54.0000000  0 11G 1G 3G 6G11G17G 8G28G19G22G 7G30
  21613292.645   113578625.606       -2234.524          47.000  
  21564930.658   113324471.461        1662.089          47.000  
  23606025.303   124050505.703        3250.088          42.000  
  22438930.171   117917389.091       -2411.095          42.000  
  22340189.021   117398476.578        1847.365          47.000  
  24818658.681   130422951.1232      -1947.041          31.000  
  20720789.917   108888490.927        1684.357          48.000  
  23778451.760   124956609.6562       2662.738          44.000  
  22162032.227   116462258.426        -243.741          46.000  
  24201693.738   127180760.256       -2955.633          48.000  
  22948047.498   120592789.124       -2422.415          49.000  
 16  5 20 10 26 55.0000000  0 11G 1G 3G 6G11G17G 8G28G19G22G 7G30
  21613717.803   113580859.739       -2234.424          47.000  
  21564614.338   113322809.339        1661.530          47.000  
  23605406.658   124047255.756        3250.264          42.000  
  22439388.972   117919799.949       -2411.154          42.000  
  22339837.033   117396628.695        1847.673          48.000  
  24819029.481   130424879.7343      -1947.132          31.000  
  20720469.635   108886806.746        1683.490          48.000  
  23777944.866   124953947.0792       2662.244          44.000  
  22162078.471   116462501.909        -244.040          46.000  
  24202256.403   127183715.776       -2955.871          48.000  
  22948508.079   120595211.196       -2422.464          49.000  
 16  5 20 10 26 56.0000000  0 11G 1G 3G 6G11G17G 8G28G19G22G 7G30
  21614143.047   113583094.243       -2234.904          47.000  
  21564298.140   113321148.072        1660.506          47.000  
  23604788.519   124044006.500        3248.897          45.000  
  22439847.546   117922211.014       -2411.672          42.000  
  22339485.359   117394781.125        1846.957          48.000  
  24819398.954   130426826.5542      -1948.035          31.000  
  20720149.337   108885123.225        1682.935          48.000  
  23777438.216   124951284.7772       2662.506          45.000  
  22162124.993   116462746.132        -244.870          46.000  
  24202818.946   127186671.684       -2956.714          49.000  
  22948969.480   120597633.963       -2423.313          49.000  
 16  5 20 10 26 57.0000000  0 10G 1G 3G 6G11G17G28G19G22G 7G30
  21614568.239   113585328.882       -2235.162          47.000  
  21563982.396   113319487.456        1659.307          47.000  
  23604170.188   124040757.668        3248.707          44.000  
  22440306.400   117924622.066       -2411.772          42.000  
  22339134.103   117392933.542        1846.989          48.000  
  20719829.125   108883440.201        1682.477          48.000  
  23776931.654   124948622.5802       2662.305          42.000  
  22162171.515   116462990.862        -245.533          47.000  
  24203381.366   127189627.643       -2956.168          48.000  
  22949430.236   120600057.129       -2423.332          50.000  
 16  5 20 10 26 58.0000000  0 11G 1G 3G 6G11G17G 8G28G19G22G 7G30
  21614993.693   113587563.954       -2235.348          47.000  
  21563666.599   113317827.449        1659.631          46.000  
  23603552.206   124037509.101        3249.366          45.000  
  22440765.061   117927033.397       -2411.604          42.000  
  22338782.499   117391086.206        1847.599          49.000  
  24820141.007   130430721.1193      -1947.061          32.000  
  20719508.774   108881757.746        1682.031          48.000  
  23776425.074   124945960.5682       2661.896          45.000  
  22162218.247   116463236.274        -245.643          47.000  
  24203943.839   127192583.542       -2955.101          47.000  
  22949891.515   120602480.499       -2423.456          49.000  
 16  5 20 10 26 59.0000000  0 11G 1G 3G 6G11G17G 8G28G19G22G 7G30
  21615419.269   113589799.767       -2236.080          47.000  
  21563350.733   113316168.300        1658.906          47.000  
  23602934.259   124034260.834        3248.674          47.000  
  22441224.072   117929445.315       -2412.190          42.000  
  22338431.313   117389239.320        1846.284          47.000  
  24820512.819   130432668.3162      -1948.008          32.000  
  20719188.946   108880076.151        1680.920          47.000  
  23775918.739   124943298.8082       2661.737          44.000  
  22162265.258   116463482.684        -246.730          46.000  
  24204506.382   127195539.258       -2955.981          47.000  
  22950352.776   120604904.017       -2424.148          49.000  
 16  5 20 10 27  0.0000000  0 11G 1G 3G 6G11G17G 8G28G19G22G 7G30
  21615844.984   113592036.284       -2237.134          47.000  
  21563035.076   113314510.035        1657.766          48.000  
  23602316.277   124031013.000        3246.955          47.000  
  22441683.397   117931857.788       -2413.429          42.000  
  22338080.180   117387392.856        1845.585          48.000  
  24820885.974   130434635.6013      -1945.056          28.000  
  20718868.962   108878395.366        1679.840          48.000  
  23775412.456   124940637.4742       2660.193          45.000  
  22162312.338   116463730.015        -247.550          47.000  
  24205068.628   127198494.847       -2955.900          45.000  
  22950814.143   120607327.904       -2425.391          48.000  
 16  5 20 10 27  1.0000000  0 11G 1G 3G 6G11G17G 8G28G19G22G 7G30
  21616270.612   113594273.014       -2237.325          47.000  
  21562719.454   113312852.581        1656.714          48.000  
  23601698.365   124027766.197        3246.436          47.000  
  22442142.337   117934270.204       -2412.687          42.000  
  22337728.541   117385546.836        1845.383          48.000  
  24821257.228   130436583.1462      -1947.430          32.000  
  20718549.029   108876715.421        1679.260          48.000  
  23774906.068   124937976.1951       2660.522          45.000  
  22162359.419   116463977.912        -248.697          45.000  
  24205630.996   127201451.157       -2957.855          42.000  
  22951275.579   120609752.776       -2426.181          49.000  
 16  5 20 10 27  2.0000000  0 11G 1G 3G 6G11G17G 8G28G19G22G 7G30
  21616696.258   113596509.785       -2237.478          47.000  
  21562404.512   113311195.961        1655.646          48.000  
  23601080.610   124024520.500        3244.297          46.000  
  22442601.243   117936682.443       -2412.710          42.000  
  22337377.390   117383701.039        1844.971          48.000  
  24821625.270   130438530.3922      -1946.425          31.000  
  20718229.603   108875036.153        1678.314          48.000  
  23774400.046   124935316.228        2662.140          34.000  
  22162406.517   116464226.282        -249.121          46.000  
  24206193.434   127204408.096       -2956.887          42.000  
  22951737.050   120612178.681       -2426.454          49.000  
 16  5 20 10 27  3.0000000  0 11G 1G 3G 6G11G17G 8G28G19G22G 7G30
  21617121.974   113598746.472       -2236.266          47.000  
  21562089.292   113309539.896        1656.021          48.000  
  23600463.116   124021275.480        3243.975          44.000  
  22443060.271   117939094.470       -2411.549          41.000  
  22337026.222   117381855.289        1845.972          48.000  
  24821994.028   130440477.5492      -1947.550          32.000  
  20717910.212   108873357.259        1679.199          48.000  
  23773894.758   124932659.9863       2660.046          44.000  
  22162453.703   116464474.973        -248.786          46.000  
  24206756.099   127207365.599       -2958.163          44.000  
  22952198.538   120614605.308       -2426.887          49.000  
 16  5 20 10 27  4.0000000  0 11G 1G 3G 6G11G17G 8G28G19G22G 7G30
  21617547.741   113600983.364       -2237.066          47.000  
  21561774.350   113307884.728        1654.482          48.000  
  23599846.024   124018031.313        3243.956          46.000  
  22443519.299   117941506.522       -2412.316          41.000  
  22336675.019   117380009.660        1845.972          46.000  
  24822365.718   130442424.7842      -1947.700          32.000  
  20717590.733   108871679.016        1677.765          48.000  
  23773388.091   124930000.1802       2660.742          46.000  
  22162501.411   116464724.303        -249.887          46.000  
  24207318.834   127210323.671       -2958.239          41.000  
  22952660.795   120617032.771       -2427.577          49.000  
 16  5 20 10 27  5.0000000  0 11G 1G 3G 6G11G17G 8G28G19G22G 7G30
  21617973.230   113603219.987       -2236.564          47.000  
  21561459.339   113306229.824        1654.737          47.000  
  23599228.810   124014787.813        3242.169          44.000  
  22443978.205   117943918.108       -2411.183          42.000  
  22336323.746   117378164.013        1845.841          48.000  
  24822735.191   130444371.5692      -1946.967          31.000  
  20717271.534   108870001.006        1677.728          48.000  
  23772880.848   124927340.6632       2657.806          39.000  
  22162548.841   116464973.708        -249.752          46.000  
  24207881.813   127213281.978       -2958.787          43.000  
  22953122.702   120619460.749       -2429.021          49.000  
 16  5 20 10 27  6.0000000  0 11G 1G 3G 6G11G17G 8G28G19G22G 7G30
  21618398.841   113605456.349       -2236.461          46.000  
  21561144.450   113304575.071        1654.348          47.000  
  23598611.770   124011544.938        3242.472          46.000  
  22444437.093   117946329.158       -2410.844          41.000  
  22335972.438   117376318.593        1845.225          48.000  
  24823106.462   130446317.6432      -1946.578          31.000  
  20716952.177   108868323.375        1677.393          48.000  
  23772376.187   124924681.2362       2657.483          43.000  
  22162596.306   116465223.045        -249.557          46.000  
  24208445.175   127216240.254       -2958.279          42.000  
  22953585.098   120621889.215       -2429.034          49.000  
 16  5 20 10 27  7.0000000  0 11G 1G 3G 6G11G17G 8G28G19G22G 7G30
  21618824.365   113607692.632       -2236.198          46.000  
  21560829.578   113302920.762        1653.826          47.000  
  23597994.504   124008303.115        3240.842          47.000  
  22444895.947   117948739.888       -2410.632          42.000  
  22335621.305   117374473.415        1844.986          48.000  
  24823476.232   130448263.3442      -1946.320          31.000  
  20716633.065   108866646.307        1676.459          48.000  
  23771870.236   124922022.3102       2657.397          43.000  
  22162643.875   116465472.605        -249.818          46.000  
  24209008.887   127219199.039       -2959.529          42.000  
  22954047.459   120624318.540       -2430.437          48.000  
 16  5 20 10 27  8.0000000  0 11G 1G 3G 6G11G17G 8G28G19G22G 7G30
  21619250.063   113609928.993       -2236.449          46.000  
  21560514.968   113301267.118        1653.384          47.000  
  23597377.813   124005062.331        3239.942          47.000  
  22445354.591   117951150.502       -2410.624          42.000  
  22335270.084   117372628.598        1844.909          48.000  
  24823843.106   130450208.9672      -1944.917          28.000  
  20716314.337   108864969.899        1675.915          48.000  
  23771363.272   124919364.0272       2657.013          44.000  
  22162691.287   116465722.591        -250.317          45.000  
  24209572.547   127222158.444       -2959.890          43.000  
  22954509.872   120626748.809       -2430.411          50.000  
 16  5 20 10 27  9.0000000  0 11G 1G 3G 6G11G17G 8G28G19G22G 7G30
  21619675.673   113612165.307       -2236.424          47.000  
  21560200.428   113299614.141        1652.419          47.000  
  23596761.524   124001822.580        3239.775          49.000  
  22445813.026   117953560.849       -2409.965          41.000  
  22334919.178   117370784.028        1844.613          48.000  
  24824215.511   130452154.3272      -1946.875          31.000  
  20715995.260   108863294.041        1675.519          48.000  
  23770858.088   124916706.2412       2657.648          44.000  
  22162738.944   116465972.898        -250.428          46.000  
  24210135.403   127225118.578       -2959.893          40.000  
  22954972.495   120629180.088       -2431.209          48.000  
 16  5 20 10 27 10.0000000  0 11G 1G 3G 6G11G17G 8G28G19G22G 7G30
  21620101.075   113614401.530       -2236.288          47.000  
  21559885.940   113297961.828        1651.926          48.000  
  23596145.182   123998583.518        3238.726          48.000  
  22446271.670   117955970.957       -2409.925          41.000  
  22334568.306   117368939.389        1843.519          49.000  
  24824586.171                       -1937.444          31.000  
  20715676.322   108861618.587        1675.281          48.000  
  23770351.648   124914048.5292       2657.904          44.000  
  22162786.513   116466223.596        -250.840          46.000  
  24210698.121   127228079.175       -2960.441          43.000  
  22955435.379   120631612.043       -2431.923          49.000  
 16  5 20 10 27 11.0000000  0 11G 1G 3G 6G11G17G 8G28G19G22G 7G30
  21620526.529   113616637.555       -2235.845          47.000  
  21559571.522   113296309.732        1651.887          47.000  
  23595528.753   123995345.154        3237.762          46.000  
  22446730.279   117958380.670       -2409.148          42.000  
  22334217.435   117367094.815        1844.815          48.000  
  24824957.878   130456033.3223      -1944.624          31.000  
  20715357.646   108859943.438        1675.012          48.000  
  23769846.726   124911391.3912       2657.361          44.000  
  22162834.519   116466474.392        -250.774          46.000  
  24211261.449   127231039.972       -2962.012          45.000  
  22955898.019   120634044.528       -2433.105          49.000  
 16  5 20 10 27 12.0000000  0 11G 1G 3G 6G11G17G 8G28G19G22G 7G30
  21620951.965   113618873.334       -2235.252          47.000  
  21559257.139   113294657.995        1652.014          47.000  
  23594912.568   123992107.498        3237.454          48.000  
  22447188.452   117960789.919       -2408.757          41.000  
  22333866.162   117365250.260        1845.113          48.000  
  24825327.509   130457977.6012      -1944.081          31.000  
  20715039.005   108858268.615        1674.963          48.000  
  23769340.844   124908734.1282       2656.244          44.000  
  22162882.210   116466725.264        -250.640          46.000  
  24211825.370   127234001.084       -2960.751          42.000  
  22956360.921   120636477.649       -2432.888          49.000  
 16  5 20 10 27 13.0000000  0 11G 1G 3G 6G11G17G 8G28G19G22G 7G30
  21621377.366   113621108.749       -2235.248          47.000  
  21558942.965   113293006.647        1650.950          47.000  
  23594296.646   123988870.584        3236.482          46.000  
  22447646.921   117963198.647       -2408.852          41.000  
  22333515.255   117363405.529        1844.809          49.000  
  24825697.244   130459921.7132      -1943.609          32.000  
  20714720.277   108856593.950        1674.420          48.000  
  23768834.195   124906066.0683       2656.543          45.000  
  22162929.727   116466976.199        -251.054          46.000  
  24212389.413   127236962.625       -2961.486          42.000  
  22956824.172   120638911.434       -2434.656          49.000  
 16  5 20 10 27 14.0000000  0 11G 1G 3G 6G11G17G 8G28G19G22G 7G30
  21621803.099   113623344.235       -2234.855          47.000  
  21558628.861   113291356.158        1650.615          48.000  
  23593680.531   123985634.520        3236.199          47.000  
  22448105.304   117965607.250       -2408.324          41.000  
  22333164.157   117361560.976        1844.523          48.000  
  24826068.078   130461865.5342      -1944.370          32.000  
  20714401.828   108854919.993        1674.036          48.000  
  23768328.854   124903409.1902       2657.025          46.000  
  22162977.418   116467227.687        -251.330          46.000  
  24212953.212   127239924.827       -2961.904          44.000  
  22957287.441   120641346.165       -2434.977          49.000  
 16  5 20 10 27 15.0000000  0 11G 1G 3G 6G11G17G 8G28G19G22G 7G30
  21622228.169   113625579.432       -2234.505          46.000  
  21558314.932   113289706.163        1650.443          47.000  
  23593064.870   123982399.107        3235.464          46.000  
  22448563.651   117968015.433       -2407.740          42.000  
  22332813.076   117359716.105        1844.970          48.000  
  24826435.824   130463809.2602      -1944.127          30.000  
  20714083.519   108853246.118        1674.280          48.000  
  23767822.134   124900752.2792       2656.799          45.000  
  22163025.319   116467479.382        -251.501          46.000  
  24213517.378   127242887.482       -2962.351          46.000  
  22957750.971   120643781.467       -2435.676          49.000  
 16  5 20 10 27 16.0000000  0 11G 1G 3G 6G11G17G 8G28G19G22G 7G30
  21622653.483   113627814.322       -2234.846          47.000  
  21558000.967   113288056.623        1649.136          48.000  
  23592449.296   123979164.256        3234.269          45.000  
  22449021.929   117970423.164       -2407.549          41.000  
  22332462.152   117357870.966        1844.761          48.000  
  24826808.683   130465752.5422      -1941.751          25.000  
  20713764.913   108851572.424        1673.505          48.000  
  23767319.219   124898095.3062       2656.464          46.000  
  22163073.220   116467731.211        -251.997          46.000  
  24214080.915   127245850.407       -2963.004          40.000  
  22958214.431   120646217.308       -2436.175          49.000  
 16  5 20 10 27 17.0000000  0 11G 1G 3G 6G11G17G 8G28G19G22G 7G30
  21623078.797   113630049.188       -2234.500          47.000  
  21557687.247   113286407.875        1648.523          48.000  
  23591834.176   123975930.307        3233.788          42.000  
  22449480.067   117972830.723       -2407.265          42.000  
  22332110.879   117356025.856        1845.448          48.000  
  24827175.085                       -1944.453          31.000  
  20713446.481   108849899.212        1673.407          48.000  
  23766813.407   124895438.5462       2657.471          46.000  
  22163121.400   116467983.539        -252.291          46.000  
  24214644.400   127248814.059       -2963.662          46.000  
  22958678.048   120648654.076       -2436.892          49.000  
 16  5 20 10 27 18.0000000  0 11G 1G 3G 6G11G17G 8G28G19G22G 7G30
  21623503.920   113632283.681       -2234.557          47.000  
  21557373.388   113284759.535        1648.156          47.000  
  23591218.741   123972696.834        3232.745          41.000  
  22449937.891   117975237.776       -2406.760          42.000  
  22331759.729   117354180.429        1845.294          48.000  
  24827544.908   130469629.0823      -1941.148          31.000  
  20713128.276   108848226.116        1672.876          48.000  
  23766307.735   124892781.6872       2656.689          46.000  
  22163169.528   116468235.967        -252.510          46.000  
  24215208.723   127251778.090       -2963.896          46.000  
  22959142.032   120651091.390       -2437.714          48.000  
 16  5 20 10 27 19.0000000  0 11G 1G 3G 6G11G17G 8G28G19G22G 7G30
  21623929.077   113634517.994       -2233.409          47.000  
  21557059.947   113283111.784        1648.165          47.000  
  23590603.429   123969464.323        3232.766          39.000  
  22450395.837   117977644.507       -2406.033          42.000  
  22331408.526   117352334.979        1845.748          48.000  
  24827913.596   130471572.1972      -1942.686          30.000  
  20712809.653   108846553.355        1673.254          48.000  
  23765801.818                        2657.568          37.000  
  22163217.551   116468488.684        -252.132          46.000  
  24215773.394   127254742.794       -2964.417          47.000  
  22959605.981   120653529.480       -2438.084          49.000  
 16  5 20 10 27 20.0000000  0 11G 1G 3G 6G11G17G 8G28G19G22G 7G30
  21624354.164   113636751.949       -2233.408          47.000  
  21556746.506   113281464.457        1647.369          47.000  
  23589988.309   123966232.469        3231.633          40.000  
  22450853.835   117980050.666       -2405.757          42.000  
  22331057.026   117350489.306        1846.068          48.000  
  24828285.268   130473519.2083      -1942.737          30.000  
  20712491.500   108844880.822        1672.674          48.000  
  23765295.971   124887472.8053       2656.854          46.000  
  22163265.522   116468741.474        -252.498          46.000  
  24216337.665   127257707.715       -2966.241          45.000  
  22960070.070   120655968.278       -2439.098          50.000  
 16  5 20 10 27 21.0000000  0 11G 1G 3G 6G11G17G 8G28G19G22G 7G30
  21624779.286   113638985.775       -2233.756          47.000  
  21556433.257   113279817.636        1646.201          47.000  
  23589373.311   123963001.643        3230.748          40.000  
  22451311.903   117982456.514       -2405.857          42.000  
  22330705.858   117348643.870        1845.367          48.000  
  24828657.289   130475473.9892      -1944.843          31.000  
  20712173.069   108843208.779        1671.619          48.000  
  23764790.630   124884816.5692       2656.152          44.000  
  22163313.771   116468994.501        -253.403          46.000  
  24216901.830   127260673.344       -2965.286          46.000  
  22960534.560   120658407.922       -2439.853          49.000  
 16  5 20 10 27 22.0000000  0 10G 1G 3G 6G11G17G 8G28G22G 7G30
  21625204.321   113641219.391       -2233.456          47.000  
  21556120.131   113278171.234        1645.995          47.000  
  23588758.627   123959771.593        3230.146          36.000  
  22451769.588   117984861.923       -2405.184          42.000  
  22330354.846   117346798.564        1844.799          48.000  
  24829026.571   130477414.6712      -1940.450          30.000  
  20711854.899   108841537.160        1671.295          48.000  
  22163362.266   116469247.648        -253.347          46.000  
  24217466.030   127263639.524       -2966.128          46.000  
  22960998.945   120660848.472       -2441.179          49.000  
 16  5 20 10 27 23.0000000  0 10G 1G 3G 6G11G17G 8G28G22G 7G30
  21625629.374   113643452.718       -2233.512          47.000  
  21555806.672   113276525.217        1645.449          47.000  
  23588144.257   123956542.394        3229.092          40.000  
  22452227.289   117987266.885       -2404.999          42.000  
  22330003.783   117344953.157        1845.402          48.000  
  24829391.856   130479334.1713      -1941.125          30.000  
  20711537.131   108839865.810        1670.856          48.000  
  22163410.219   116469500.925        -253.865          46.000  
  24218030.650   127266606.068       -2966.781          45.000  
  22961463.470   120663289.569       -2441.662          49.000  
 16  5 20 10 27 24.0000000  0 10G 1G 3G 6G11G17G 8G28G22G 7G30
  21626054.461   113645686.660       -2233.949          47.000  
  21555493.755   113274880.315        1644.266          48.000  
  23587529.975   123953314.070        3228.413          40.000  
  22452684.956   117989672.305       -2405.792          42.000  
  22329652.667   117343108.249        1844.327          45.000  
  24829765.553   130481276.1372      -1942.730          30.000  
  20711219.362   108838195.367        1670.160          48.000  
  22163458.521   116469755.172        -254.485          46.000  
  24218595.042   127269573.082       -2967.694          39.000  
  22961927.628   120665731.556       -2442.123          48.000  
 16  5 20 10 27 25.0000000  0 10G 1G 3G 6G11G17G 8G28G22G 7G30
  21626479.461   113647921.066       -2234.059          47.000  
  21555180.855   113273236.242        1644.722          48.000  
  23586916.024   123950085.943        3228.704          42.000  
  22453142.902   117992078.091       -2405.350          42.000  
  22329301.569   117341263.422        1846.003          47.000  
  24830131.868   130483223.4803      -1941.556          29.000  
  20710901.524   108836525.460        1670.233          48.000  
  22163507.242   116470010.288        -254.697          47.000  
  24219159.784   127272540.375       -2967.043          44.000  
  22962392.205   120668173.883       -2441.786          49.000  
 16  5 20 10 27 26.0000000  0 10G 1G 3G 6G11G17G 8G28G22G 7G30
  21626904.897   113650155.683       -2235.065          47.000  
  21554868.217   113271592.679        1643.291          47.000  
  23586301.689   123946858.111        3227.048          50.000  
  22453600.656   117994484.014       -2406.313          42.000  
  22328950.680   117339418.534        1844.292          42.000  
  24830503.662   130485165.9432      -1942.434          33.000  
  20710583.703   108834855.869        1669.391          48.000  
  22163555.946   116470265.943        -256.219          47.000  
  24219724.909   127275507.254       -2966.615          43.000  
  22962857.411   120670616.194       -2442.689          49.000  
 16  5 20 10 27 27.0000000  0 10G 1G 3G 6G11G17G 8G28G22G 7G30
  21627330.072   113652390.641       -2235.179          47.000  
  21554555.806   113269949.743        1642.668          48.000  
  23585687.476   123943630.337        3227.528          42.000  
  22454058.463   117996890.189       -2406.171          42.000  
  22328599.512   117337573.763        1843.618          47.000  
  24830873.799   130487108.4672      -1942.150          33.000  
  20710265.795   108833186.763        1668.823          47.000  
  22163604.911   116470522.248        -256.248          47.000  
  24220288.376   127278474.133       -2966.563          43.000  
  22963322.284   120673058.657       -2442.455          49.000  
 16  5 20 10 27 28.0000000  0 10G 1G 3G 6G11G17G 8G28G22G 7G30
  21627755.508   113654625.947       -2235.481          47.000  
  21554243.360   113268307.400        1641.992          47.000  
  23585073.263   123940402.859        3227.663          45.000  
  22454516.461   117999296.582       -2406.355          42.000  
  22328248.553   117335729.113        1844.057          45.000  
  24831249.467   130489096.1723      -1943.203          35.000  
  20709948.341   108831518.097        1668.195          48.000  
  22163653.789   116470779.250        -257.444          47.000  
  24220853.013   127281440.766       -2966.645          47.000  
  22963787.088   120675501.282       -2443.363          49.000  
 16  5 20 10 27 29.0000000  0 10G 1G 3G 6G11G17G 8G28G22G 7G30
  21628180.805   113656861.402       -2235.398          46.000  
  21553930.722   113266665.820        1642.569          48.000  
  23584458.649   123937176.051        3226.318          46.000  
  22454974.564   118001702.988       -2405.861          42.000  
  22327897.612   117333884.553        1845.276          44.000  
  24831609.482                       -1941.068          31.000  
  20709630.799   108829849.984        1667.920          48.000  
  22163702.545   116471036.799        -257.856          46.000  
  24221417.109   127284407.961       -2967.239          44.000  
  22964251.805   120677944.563       -2444.382          49.000  
 16  5 20 10 27 30.0000000  0 10G 1G 3G 6G11G17G 8G28G22G 7G30
  21628605.944   113659096.323       -2234.106          46.000  
  21553618.450   113265024.836        1640.573          46.000  
  23583845.047   123933950.651        3223.812          47.000  
  22455432.301   118004108.681       -2405.060          42.000  
  22327547.054   117332039.990        1842.224          46.000  
  24831985.569                       -1941.472          27.000  
  20709313.257   108828182.257        1667.694          47.000  
  22163751.336   116471294.334        -256.812          47.000  
  24221982.758   127287376.214       -2968.733          47.000  
  22964717.237   120680389.222       -2445.764          49.000  
 16  5 20 10 27 31.0000000  0 10G 1G 3G 6G11G17G 8G28G22G 7G30
  21629030.875   113661329.284       -2232.021          46.000  
  21553306.597   113263384.230        1641.462          46.000  
  23583232.195   123930728.299        3220.133          43.000  
  22455889.305   118006511.895       -2401.419          42.000  
  22327195.677   117330194.964        1845.230          44.000  
  24832354.833   130494904.9553      -1938.197          32.000  
  20708996.012   108826514.662        1667.322          47.000  
  22163800.231   116471550.717        -255.650          47.000  
  24222548.389   127290347.512       -2973.874          45.000  
  22965183.298   120682837.109       -2450.038          49.000  
 16  5 20 10 27 32.0000000  0 11G 1G 3G 6G11G17G 8G28G19G22G 7G30
  21629455.473   113663559.210       -2228.151          46.000  
  21552994.011   113261743.476        1641.398          47.000  
  23582620.443   123927511.071        3213.470          42.000  
  22456345.994   118008911.311       -2396.660          42.000  
  22326844.718   117328350.603        1842.643          42.000  
  24832733.922                       -1937.590          28.000  
  20708678.872   108824847.500        1666.986          48.000  
  23759226.070   124855575.1423       2649.561          45.000  
  22163848.760   116471804.727        -251.795          47.000  
  24223114.701   127293323.077       -2978.132          47.000  
  22965649.986   120685289.714       -2455.565          49.000  
 16  5 20 10 27 33.0000000  0 11G 1G 3G 6G11G17G 8G28G19G22G 7G30
  21629878.938   113665785.047       -2224.656          46.000  
  21552681.269   113260100.451        1645.182          47.000  
  23582009.528   123924299.352        3211.148          39.000  
  22456801.497   118011305.492       -2392.365          41.000  
  22326493.794   117326507.437        1842.174          47.000  
  24833122.695                       -1930.329          27.000  
  20708361.732   108823180.667        1667.023          48.000  
  23758734.392   124852927.2022       2643.762          43.000  
  22163895.823   116472054.456        -247.789          44.000  
  24223681.222   127296302.109       -2978.721          48.000  
  22966117.739   120687747.118       -2458.266          49.000  
 16  5 20 10 27 34.0000000  0 10G 1G 3G 6G11G17G28G19G22G 7G30
  21630302.018   113668008.543       -2221.785          46.000  
  21552367.932   113258454.065        1648.737          48.000  
  23581399.068   123921091.550        3205.025          33.000  
  22457256.337   118013695.905       -2387.864          44.000  
  22326143.812   117324667.235        1838.538          47.000  
  20708045.063   108821514.953        1665.363          47.000  
  23758227.115   124850325.2473       2638.062          46.000  
  22163942.590   116472300.266        -243.467          41.000  
  24224247.726   127299281.128       -2979.219          45.000  
  22966585.842   120690206.685       -2460.685          49.000  
 16  5 20 10 27 35.0000000  0 11G 1G 3G 6G11G17G 8G28G19G22G 7G30
  21630724.314   113670227.680       -2216.503          47.000  
  21552053.672   113256804.136        1651.633          50.000  
  23580795.168   123917914.5203       3196.755          29.000  
  22457710.148   118016080.248       -2380.746          47.000  
  22325793.918   117322829.476        1836.982          48.000  
  24833826.829   130502640.2092      -1918.334          34.000  
  20707728.272   108819849.967        1664.587          47.000  
  23757726.398   124847687.0082       2636.682          42.000  
  22163988.362   116472540.647        -237.283          44.000  
  24224814.980   127302262.913       -2985.147          45.000  
  22967054.537   120692671.098       -2467.919          48.000  
 16  5 20 10 27 36.0000000  0 11G 1G 3G 6G11G17G 8G28G19G22G 7G30
  21631145.440   113672440.953       -2208.123          46.000  
  21551739.096   113255152.147        1652.717          50.000  
  23580187.429                        3190.384          28.000  
  22458162.510   118018457.297       -2371.423          45.000  
  22325444.320   117320993.082        1836.878          46.000  
  24834188.223   130504539.2643      -1907.427          30.000  
  20707411.602   108818185.483        1664.716          47.000  
  23757227.985                        2627.637          33.000  
  22164033.226   116472775.474        -231.882          48.000  
  24225383.543   127305250.776       -2990.757          43.000  
  22967525.152   120695143.043       -2476.677          48.000  
 16  5 20 10 27 37.0000000  0 10G 1G 3G 6G11G17G 8G28G22G 7G30
  21631565.466   113674647.773       -2205.727          47.000  
  21551425.324   113253502.882        1645.558          52.000  
  23579588.276                        3197.605          26.000  
  22458613.615   118020827.511       -2369.832          48.000  
  22325094.356   117319152.970        1843.806          47.000  
  24834553.561                       -1909.473          35.000  
  20707094.584   108816519.556        1667.486          46.000  
  22164077.009   116473007.410        -234.510          48.000  
  24225954.305                       -3011.181          33.000  
  22967997.337   120697624.836       -2485.619          44.000  
 16  5 20 10 27 38.0000000  0 10G 1G 3G 6G11G17G 8G28G19G22G30
  21631984.900   113676852.578       -2205.305          49.000  
  21551112.860   113251859.994        1640.414          51.000  
  23578986.156                        3206.814          25.000  
  22459064.477   118023197.356       -2370.455          47.000  
  22324742.996   117317305.547        1848.336          46.000  
  24834909.406   130508329.6282      -1919.085          35.000  
  20706776.973   108814850.846        1669.128          48.000  
  23756224.650                        2645.447          35.000  
  22164121.874   116473242.671        -237.842          45.000  
  22968470.011   120700109.657       -2485.632          42.000  
 16  5 20 10 27 39.0000000  0 11G 1G 3G 6G11G17G 8G28G19G22G 7G30
  21632404.560   113679058.217       -2204.653          49.000  
  21550801.025   113250220.279        1639.048          50.000  
  23578382.780                        3203.521          24.000  
  22459515.390   118025568.606       -2371.352          49.000  
  22324391.043   117315456.271        1849.447          47.000  
  24835279.752                       -1919.370          34.000  
  20706459.431   108813182.217        1668.561          47.000  
  23755713.411                        2654.986          28.000  
  22164166.790   116473480.442        -238.376          52.000  
  24227108.689                       -3006.931          33.000  
  22968943.436   120702595.445       -2486.802          41.000  
 16  5 20 10 27 40.0000000  0 10G 1G 3G 6G11G17G 8G28G22G 7G30
  21632824.290   113681263.607       -2206.416          50.000  
  21550489.364   113248582.051        1635.001          45.000  
  23577771.603                        3196.927          24.000  
  22459966.653   118027939.415       -2372.020          49.000  
  22324039.037   117313606.697        1848.649          47.000  
  24835640.535   130512171.6533      -1920.022          42.000  
  20706141.541   108811514.004        1667.535          48.000  
  22164212.737   116473718.866        -239.534          50.000  
  24227671.319                       -3010.498          32.000  
  22969416.738   120705082.894       -2487.571          40.000  
 16  5 20 10 27 41.0000000  0  9G 1G 3G 6G11G17G 8G28G22G 7
  21633244.317   113683470.902       -2207.807          51.000  
  21550177.581   113246945.011        1634.625          51.000  
  23577161.212                        3180.059          26.000  
  22460418.352   118030311.923       -2372.632          50.000  
  22323687.380   117311759.251        1846.725          48.000  
  24836007.094   130514091.4822      -1919.184          43.000  
  20705824.610   108809847.961        1665.027          48.000  
  22164258.439   116473959.019        -241.296          48.000  
  24228244.978   127320285.8483      -3010.992          37.000  
 16  5 20 10 27 42.0000000  0  9G 1G 3G 6G11G17G 8G28G22G 7
  21633664.326   113685677.933       -2206.528          50.000  
  21549866.199   113245309.058        1636.261          48.000  
  23576549.198   123895601.7902       3178.655          30.000  
  22460870.033   118032683.822       -2370.680          50.000  
  22323336.194   117309912.565        1847.235          48.000  
  24836374.055   130516011.2072      -1919.030          44.000  
  20705507.888   108808182.949        1665.063          48.000  
  22164303.932   116474199.464        -240.130          49.000  
  24228827.082                       -3007.406          35.000  
 16  5 20 10 27 43.0000000  0  9G 1G 3G 6G11G17G 8G28G22G 7
  21634083.917   113687883.502       -2205.093          51.000  
  21549554.818   113243673.784        1635.021          49.000  
  23575942.367   123892412.6892       3175.992          35.000  
  22461321.139   118035054.027       -2369.953          50.000  
  22322984.695   117308065.667        1846.917          48.000  
  24836736.374   130517929.9292      -1916.525          42.000  
  20705190.958   108806518.203        1664.172          48.000  
  22164349.634   116474439.281        -239.715          50.000  
  24229392.661                       -3005.957          28.000  
 16  5 20 10 27 44.0000000  0 10G 1G 3G 6G11G17G 8G28G22G 7G30
  21634503.647   113690088.412       -2204.204          50.000  
  21549244.186   113242039.272        1635.088          49.000  
  23575338.397   123889237.1152       3175.965          35.000  
  22461771.686   118037423.329       -2368.668          50.000  
  22322633.509   117306218.474        1847.742          49.000  
  24837101.170   130519848.1562      -1917.066          40.000  
  20704874.445   108804853.748        1664.441          48.000  
  22164395.284   116474679.118        -239.460          50.000  
  24229965.744   127329329.3262      -3018.923          33.000  
  22971316.404                       -2496.191          38.000  
 16  5 20 10 27 45.0000000  0 10G 1G 3G 6G11G17G 8G28G22G 7G30
  21634923.098   113692293.043       -2204.548          50.000  
  21548933.485   113240405.791        1633.081          49.000  
  23574733.765   123886063.2122       3173.075          35.000  
  22462222.512   118039792.185       -2368.556          50.000  
  22322282.027   117304371.365        1847.188          48.000  
  24837466.229   130521766.3722      -1918.253          43.000  
  20704557.794   108803189.914        1663.629          48.000  
  22164441.021   116474919.314        -240.378          50.000  
  24230543.887   127332367.1933      -3018.073          29.000  
  22971787.908   120717559.3173      -2497.263          39.000  
 16  5 20 10 27 46.0000000  0 10G 1G 3G 6G11G17G 8G28G22G 7G30
  21635342.845   113694497.926       -2205.135          51.000  
  21548622.994   113238772.746        1633.091          50.000  
  23574131.697   123882889.3442       3174.438          36.000  
  22462673.094   118042161.206       -2369.543          50.000  
  22321930.283   117302524.256        1847.113          48.000  
  24837832.195   130523684.9602      -1921.028          36.000  
  20704241.125   108801526.453        1663.141          48.000  
  22164486.845   116475160.029        -241.116          50.000  
  24231115.294   127335385.0382      -3019.017          30.000  
  22972262.223   120720056.4962      -2496.822          38.000  
 16  5 20 10 27 47.0000000  0 10G 1G 3G 6G11G17G 8G28G22G 7G30
  21635762.453   113696703.183       -2205.971          50.000  
  21548312.153   113237139.984        1632.059          48.000  
  23573525.547   123879714.7472       3174.493          35.000  
  22463124.060   118044530.568       -2370.205          48.000  
  22321578.696   117300676.881        1846.930          48.000  
  24838196.887   130525603.1922      -1918.796          44.000  
  20703924.717   108799863.117        1662.427          48.000  
  22164532.634   116475401.373        -242.292          50.000  
  24231687.330   127338402.0752      -3016.278          37.000  
  22972739.120   120722552.8732      -2497.011          38.000  
 16  5 20 10 27 48.0000000  0 11G 1G 3G 6G11G17G 8G28G22G19G 7G30
  21636182.183   113698908.621       -2205.669          51.000  
  21548001.347   113235507.527        1631.758          49.000  
  23572922.415   123876539.9892       3173.344          35.000  
  22463574.974   118046899.985       -2370.114          50.000  
  22321227.196   117298829.406        1847.185          48.000  
  24838562.015   130527521.5112      -1917.290          43.000  
  20703608.031   108798200.079        1662.360          48.000  
  22164578.424   116475643.191        -242.751          50.000  
  23751189.965   124813345.5733       2640.955          38.000  
  24232265.421   127341418.4612      -3016.817          38.000  
  22973214.865   120725049.0172      -2496.830          38.000  
 16  5 20 10 27 49.0000000  0 11G 1G 3G 6G11G17G 8G28G22G19G 7G30
  21636601.931   113701113.883       -2203.952          51.000  
  21547690.751   113233875.407        1632.712          49.000  
  23572317.887   123873365.4822       3174.976          35.000  
  22464025.800   118049269.104       -2368.263          49.000  
  22320875.749   117296981.691        1848.451          49.000  
  24838927.039   130529439.2461      -1916.991          41.000  
  20703291.885   108796537.190        1663.525          48.000  
  22164624.824   116475885.160        -241.174          51.000  
  23750688.673   124810704.3682       2641.736          43.000  
  24232835.380   127344434.8382      -3017.030          33.000  
  22973688.656   120727545.3812      -2496.375          39.000  
 16  5 20 10 27 50.0000000  0 11G 1G 3G 6G11G17G 8G28G22G19G 7G30
  21637021.417   113703318.285       -2203.548          51.000  
  21547379.840   113232243.346        1633.059          49.000  
  23571714.075   123870191.9142       3173.021          34.000  
  22464476.557   118051637.098       -2367.247          50.000  
  22320524.109   117295133.672        1848.355          48.000  
  24839291.766   130531356.456       -1914.819          44.000  
  20702975.426   108794874.336        1662.854          48.000  
  22164670.997   116476126.708        -241.103          50.000  
  23750185.670   124808063.1962       2641.370          40.000  
  24233412.685   127347451.6962      -3017.949          35.000  
  22974163.948   120730042.6012      -2497.439          39.000  
 16  5 20 10 27 51.0000000  0 11G 1G 3G 6G11G17G 8G28G22G19G 7G30
  21637440.449   113705521.984       -2203.706          50.000  
  21547069.523   113230611.524        1631.281          50.000  
  23571110.489   123867019.6142       3172.001          35.000  
  22464927.069   118054004.126       -2367.049          50.000  
  22320172.470   117293285.629        1848.112          48.000  
  24839656.545   130533272.883       -1917.922          40.000  
  20702658.948   108793211.750        1662.292          48.000  
  22164716.943   116476367.933        -241.120          50.000  
  23749683.593   124805422.4692       2640.222          42.000  
  24233984.599                       -3014.329          32.000  
  22974640.251   120732540.9972      -2498.446          39.000  
 16  5 20 10 27 52.0000000  0 11G 1G 3G 6G11G17G 8G28G22G19G 7G30
  21637859.551   113707725.070       -2202.812          50.000  
  21546759.101   113228980.298        1630.920          49.000  
  23570506.903   123863848.0552       3170.730          35.000  
  22465377.267   118056370.445       -2366.020          49.000  
  22319820.778   117291437.015        1848.497          48.000  
  24840020.976   130535189.023       -1915.887          43.000  
  20702342.524   108791549.192        1662.292          48.000  
  22164762.489   116476609.290        -241.476          49.000  
  23749181.777   124802781.3652       2640.161          42.000  
  24234562.916   127353487.0473      -3019.081          34.000  
  22975115.682   120735040.2702      -2499.759          39.000  
 16  5 20 10 27 53.0000000  0 11G 1G 3G 6G11G17G 8G28G22G19G 7G30
  21638278.670   113709927.220       -2201.564          51.000  
  21546448.557   113227349.372        1630.933          50.000  
  23569903.771   123860677.9032       3169.595          35.000  
  22465827.535   118058735.600       -2365.127          50.000  
  22319468.982   117289588.126        1849.255          48.000  
  24840385.476   130537104.264       -1915.038          43.000  
  20702026.291   108789886.800        1662.323          48.000  
  22164808.592   116476850.234        -241.160          50.000  
  23748678.931   124800140.4282       2640.381          42.000  
  24235134.498   127356506.7692      -3018.513          33.000  
  22975591.550   120737540.9242      -2501.493          39.000  
 16  5 20 10 27 54.0000000  0 11G 1G 3G 6G11G17G 8G28G22G19G 7G30
  21638697.597   113712129.480       -2202.430          50.000  
  21546138.397   113225719.231        1630.206          49.000  
  23569300.640   123857508.5262       3170.822          35.000  
  22466277.594   118061100.705       -2365.396          49.000  
  22319117.063   117287739.373        1848.899          48.000  
  24840749.749   130539019.773       -1915.493          41.000  
  20701709.831   108788224.946        1661.981          48.000  
  22164854.678   116477091.754        -241.978          49.000  
  23748176.854   124797499.8222       2640.393          42.000  
  24235711.699   127359527.0792      -3019.652          35.000  
  22976067.452   120740042.4032      -2500.905          39.000  
 16  5 20 10 27 55.0000000  0 11G 1G 3G 6G11G17G 8G28G22G19G 7G30
  21639117.013   113714332.240       -2203.040          50.000  
  21545828.306   113224089.390        1629.565          48.000  
  23568697.438   123854338.340        3170.382          35.000  
  22466727.844   118063466.252       -2364.899          50.000  
  22318765.005   117285890.380        1848.918          48.000  
  24841114.127   130540935.308       -1915.167          41.000  
  20701393.755   108786563.272        1661.401          48.000  
  22164900.816   116477333.904        -242.143          49.000  
  23747674.636   124794858.6862       2641.321          42.000  
  24236282.635   127362546.2222      -3019.397          32.000  
  22976543.198   120742542.9322      -2500.696          39.000  
 16  5 20 10 27 56.0000000  0 11G 1G 3G 6G11G17G 8G28G22G19G 7G30
  21639536.290   113716535.334       -2203.474          51.000  
  21545518.303   113222459.921        1628.613          49.000  
  23568094.184   123851168.284        3168.550          35.000  
  22467178.043   118065832.045       -2365.726          49.000  
  22318413.261   117284041.551        1848.221          48.000  
  24841479.116   130542851.033       -1916.855          43.000  
  20701077.592   108784902.022        1660.834          48.000  
  22164946.745   116477576.644        -242.986          50.000  
  23747172.227   124792217.7392       2640.588          42.000  
  24236859.784   127365564.7292      -3018.708          34.000  
  22977019.170   120745043.4002      -2501.533          39.000  
 16  5 20 10 27 57.0000000  0 11G 1G 3G 6G11G17G 8G28G22G19G 7G30
  21639955.357   113718737.828       -2202.163          51.000  
  21545207.986   113220830.975        1628.645          49.000  
  23567491.035   123847999.848        3167.031          35.000  
  22467628.066   118068197.016       -2364.465          49.000  
  22318061.569   117282192.881        1848.325          48.000  
  24841843.337   130544765.979       -1913.752          44.000  
  20700761.604   108783241.340        1659.924          48.000  
  22164992.744   116477819.281        -242.757          49.000  
  23746669.678   124789577.4452       2639.532          42.000  
  24237434.297   127368584.7382      -3019.354          32.000  
  22977495.264   120747545.5172      -2503.685          39.000  
 16  5 20 10 27 58.0000000  0 10G 1G 3G 6G11G17G 8G28G22G19G30
  21640374.249   113720939.158       -2201.384          50.000  
  21544898.157   113219202.301        1628.262          49.000  
  23566888.548   123844833.269        3165.743          35.000  
  22468077.654   118070560.432       -2363.586          50.000  
  22317709.616   117280344.087        1848.677          48.000  
  24842207.401   130546679.832       -1913.436          41.000  
  20700445.667   108781580.884        1660.144          48.000  
  22165039.214   116478061.220        -242.282          50.000  
  23746167.164   124786937.5552       2639.740          41.000  
  22977971.655   120750049.4552      -2505.073          39.000  
 16  5 20 10 27 59.0000000  0 11G 1G 3G 6G11G17G 8G28G22G19G 7G30
  21640793.037   113723139.279       -2199.998          50.000  
  21544588.451   113217573.881        1628.507          49.000  
  23566286.289   123841668.598        3163.605          35.000  
  22468527.084   118072922.341       -2360.980          50.000  
  22317357.802   117278495.152        1848.563          48.000  
  24842571.273   130548592.624       -1911.839          43.000  
  20700129.592   108779920.615        1659.973          48.000  
  22165085.056   116478302.611        -241.352          49.000  
  23745665.139   124784298.2442       2638.965          42.000  
  24238582.068   127374608.4383      -3025.400          33.000  
  22978448.569   120752555.2942      -2507.129          39.000  
 16  5 20 10 28  0.0000000  0 11G 1G 3G 6G11G17G 8G28G22G19G 7G30
  21641211.755   113725338.488       -2198.658          50.000  
  21544278.640   113215945.882        1628.011          49.000  
  23565684.274   123838505.873        3162.060          35.000  
  22468976.008   118075283.077       -2358.794          50.000  
  22317005.988   117276646.232        1849.013          48.000  
  24842935.249   130550504.602       -1910.745          42.000  
  20699813.882   108778260.714        1659.882          48.000  
  22165130.897   116478543.560        -240.747          50.000  
  23745162.922   124781659.5732       2637.781          42.000  
  24239163.579   127377633.1612      -3025.585          34.000  
  22978925.780   120755062.9742      -2508.576          39.000  
 16  5 20 10 28  1.0000000  0 11G 1G 3G 6G11G17G 8G28G22G19G 7G30
  21641629.932   113727536.888       -2198.531          51.000  
  21543968.933   113214318.327        1627.386          48.000  
  23565082.660   123835345.068        3159.606          35.000  
  22469425.125   118077642.679       -2358.938          50.000  
  22316654.209   117274797.471        1848.166          49.000  
  24843298.999   130552415.781       -1911.100          42.000  
  20699498.103   108776601.299        1659.076          48.000  
  22165176.268   116478784.175        -240.289          50.000  
  23744660.739   124779021.5862       2637.378          41.000  
  24239732.822                       -3025.268          29.000  
  22979403.149   120757572.5672      -2510.561          39.000  
 16  5 20 10 28  2.0000000  0 11G 1G 3G 6G11G17G 8G28G22G19G 7G30
  21642048.388   113729735.587       -2199.351          50.000  
  21543659.523   113212691.229        1626.819          49.000  
  23564481.326   123832184.655        3160.437          34.000  
  22469874.555   118080002.475       -2360.707          50.000  
  22316302.134   117272948.964        1848.543          48.000  
  24843662.592   130554326.863       -1911.552          40.000  
  20699182.394   108774942.463        1658.667          48.000  
  22165222.302   116479025.375        -241.682          50.000  
  23744158.801   124776383.9152       2638.086          42.000  
  24240311.088                       -3027.628          30.000  
  22979880.918   120760082.3752      -2509.106          39.000  
 16  5 20 10 28  3.0000000  0 11G 1G 3G 6G11G17G 8G28G22G19G 7G30
  21642467.106   113731935.683       -2200.801          51.000  
  21543349.869   113211064.618        1627.383          48.000  
  23563879.747   123829022.650        3163.799          35.000  
  22470323.724   118082363.630       -2361.688          50.000  
  22315950.617   117271100.678        1848.454          48.000  
  24844026.743   130556238.765       -1912.525          41.000  
  20698867.016   108773284.196        1658.197          48.000  
  22165268.737   116479267.955        -243.324          50.000  
  23743656.986   124773745.8302       2638.867          42.000  
  24240889.580   127386733.8113      -3022.615          34.000  
  22980357.937   120762590.4892      -2506.035          39.000  
 16  5 20 10 28  4.0000000  0 11G 1G 3G 6G11G17G 8G28G22G19G 7G30
  21642886.121   113734138.486       -2203.659          50.000  
  21543040.477   113209439.175        1624.758          49.000  
  23563277.714   123825858.872        3164.538          34.000  
  22470773.451   118084727.560       -2363.936          50.000  
  22315599.309   117269253.256        1847.015          48.000  
  24844390.999   130558152.455       -1913.787          43.000  
  20698551.830   108771627.155        1656.659          48.000  
  22165315.224   116479513.026        -246.208          49.000  
  23743154.681   124771107.7652       2637.958          42.000  
  24241462.994   127389755.4122      -3022.189          35.000  
  22980834.939   120765096.6192      -2505.946          39.000  
 16  5 20 10 28  5.0000000  0 11G 1G 3G 6G11G17G 8G28G22G19G 7G30
  21643305.519   113736342.394       -2204.784          51.000  
  21542731.591   113207814.318        1624.562          48.000  
  23562675.472   123822694.526        3164.457          34.000  
  22471223.300   118087092.577       -2364.806          49.000  
  22315247.704   117267406.174        1846.949          48.000  
  24844755.202   130560066.946       -1915.357          43.000  
  20698236.487   108769970.746        1656.006          48.000  
  22165361.903   116479759.280        -246.776          49.000  
  23742652.568   124768469.7802       2637.421          43.000  
  24242035.710   127392775.9362      -3020.680          35.000  
  22981311.906   120767602.0152      -2505.370          39.000  
 16  5 20 10 28  6.0000000  0 11G 1G 3G 6G11G17G 8G28G22G19G 7G30
  21643725.232   113738546.750       -2204.425          51.000  
  21542422.390   113206189.902        1624.237          49.000  
  23562073.440   123819530.219        3163.261          34.000  
  22471673.550   118089458.011       -2365.215          49.000  
  22314896.152   117265559.310        1846.847          48.000  
  24845119.615   130561981.468       -1913.671          43.000  
  20697921.214   108768314.815        1655.615          48.000  
  22165408.879   116480006.195        -247.116          50.000  
  23742150.438   124765831.8982       2637.732          42.000  
  24242606.437   127395795.8232      -3020.758          37.000  
  22981788.471   120770107.2452      -2505.781          39.000  
 16  5 20 10 28  7.0000000  0 11G 1G 3G 6G11G17G 8G28G22G19G 7G30
  21644144.473   113740750.634       -2203.820          50.000  
  21542113.172   113204566.052        1622.943          48.000  
  23561471.442   123816367.203        3161.656          34.000  
  22472123.399   118091822.796       -2363.991          42.000  
  22314544.827   117263712.467        1846.730          48.000  
  24845484.028   130563895.567       -1913.591          43.000  
  20697606.325   108766659.333        1654.865          48.000  
  22165455.855   116480253.079        -246.935          50.000  
  23741648.745   124763193.8861       2637.274          42.000  
  24243182.922   127398816.8362      -3022.062          34.000  
  22982265.368   120772613.783       -2507.349          39.000  
 16  5 20 10 28  8.0000000  0 11G 1G 3G 6G11G17G 8G28G22G19G 7G30
  21644563.645   113742953.408       -2202.145          51.000  
  21541804.478   113202942.488        1622.993          49.000  
  23560869.898   123813205.988        3159.767          34.000  
  22472573.301   118094185.965       -2361.441          46.000  
  22314193.188   117261865.468        1847.179          49.000  
  24845847.952   130565808.617       -1912.099          44.000  
  20697291.122   108765004.098        1654.865          48.000  
  22165503.146   116480499.477        -246.463          50.000  
  23741146.894   124760556.893        2636.371          41.000  
  24243757.925   127401839.3432      -3023.696          37.000  
  22982742.684   120775122.101       -2509.074          39.000  
 16  5 20 10 28  9.0000000  0 11G 1G 3G 6G11G17G 8G28G22G19G 7G30
  21644982.695   113745155.164       -2201.413          50.000  
  21541495.749   113201319.709        1622.626          49.000  
  23560268.773   123810046.693        3158.299          34.000  
  22473022.923   118096547.887       -2359.670          46.000  
  22313841.566   117260018.187        1847.400          48.000  
  24846211.859   130567720.959       -1912.064          44.000  
  20696976.617   108763349.232        1654.797          48.000  
  22165550.017   116480745.570        -245.514          50.000  
  23740645.340   124757920.038        2636.511          42.000  
  24244335.841   127404863.8142      -3025.561          36.000  
  22983220.576   120777632.503       -2510.957          39.000  
 16  5 20 10 28 10.0000000  0 11G 1G 3G 6G11G17G 8G28G22G19G 7G30
  21645401.570   113747355.745       -2200.746          51.000  
  21541186.758   113199697.616        1622.058          49.000  
  23559667.858   123806889.194        3157.622          34.000  
  22473472.162   118098908.511       -2360.397          49.000  
  22313490.084   117258170.332        1848.839          48.000  
  24846575.574   130569632.558       -1911.322          44.000  
  20696661.413   108761694.461        1655.328          48.000  
  22165596.452   116480991.282        -244.907          51.000  
  23740143.419   124755283.233        2636.627          42.000  
  24244910.651   127407890.2432      -3027.283          36.000  
  22983698.816   120780144.952       -2513.502          39.000  
 16  5 20 10 28 11.0000000  0 11G 1G 3G 6G11G17G 8G28G22G19G 7G30
  21645820.200   113749555.638       -2200.798          50.000  
  21540878.238   113198076.279        1620.258          49.000  
  23559067.151   123803732.839        3154.439          34.000  
  22473921.016   118101268.253       -2359.958          47.000  
  22313138.444   117256322.076        1847.092          48.000  
  24846939.429   130571543.974       -1913.798          38.000  
  20696346.472   108760039.932        1652.826          48.000  
  22165643.567   116481237.246        -246.834          50.000  
  23739641.970   124752646.224        2634.937          43.000  
  24245487.573   127410917.7212      -3028.896          35.000  
  22984176.987   120782658.549       -2514.849          38.000  
 16  5 20 10 28 12.0000000  0 11G 1G 3G 6G11G17G 8G28G22G19G 7G30
  21646238.657   113751754.821       -2198.918          51.000  
  21540569.875   113196455.547        1621.683          43.000  
  23558466.951   123800578.449        3153.937          34.000  
  22474370.028   118103626.939       -2358.366          50.000  
  22312786.718   117254474.106        1848.073          48.000  
  24847302.969   130573454.138       -1909.679          43.000  
  20696031.774   108758386.125        1653.510          47.000  
  22165690.456   116481482.737        -245.458          50.000  
  23739140.258   124750009.973        2635.449          42.000  
  24246063.936   127413946.7762      -3030.096          32.000  
  22984655.525   120785174.172       -2516.153          38.000  
 16  5 20 10 28 13.0000000  0 11G 1G 3G 6G11G17G 8G28G22G19G 7G30
  21646657.322   113753954.094       -2200.231          51.000  
  21540261.617   113194835.071        1619.960          49.000  
  23557866.821   123797424.189        3154.858          34.000  
  22474818.935   118105985.545       -2359.989          49.000  
  22312434.834   117252626.047        1847.805          49.000  
  24847666.160   130575364.229       -1909.425          41.000  
  20695717.025   108756732.654        1652.661          47.000  
  22165737.048   116481728.670        -246.897          51.000  
  23738638.111   124747373.624        2635.541          41.000  
  24246638.554   127416975.0681      -3027.925          32.000  
  22985134.132   120787689.884       -2514.970          37.000  
 16  5 20 10 28 14.0000000  0 11G 1G 3G 6G11G17G 8G28G22G19G 7G30
  21647075.988   113756155.054       -2201.925          51.000  
  21539953.359   113193215.282        1619.242          49.000  
  23557266.132   123794268.137        3155.874          34.000  
  22475267.841   118108345.808       -2361.002          48.000  
  22312083.352   117250778.159        1847.478          49.000  
  24848029.858   130577275.646       -1914.956          41.000  
  20695402.799   108755079.743        1652.362          48.000  
  22165783.972   116481976.269        -248.720          51.000  
  23738136.347   124744736.693        2637.329          42.000  
  24247216.052   127420001.585       -3026.102          33.000  
  22985612.529   120790203.624       -2514.123          37.000  
 16  5 20 10 28 15.0000000  0 11G 1G 3G 6G11G17G 8G28G22G19G 7G30
  21647495.107   113758357.818       -2203.689          51.000  
  21539645.118   113191596.278        1619.132          49.000  
  23556665.321   123791110.349        3159.561          34.000  
  22475717.429   118110708.157       -2362.912          50.000  
  22311731.712   117248930.538        1847.780          49.000  
  24848393.835   130579190.7543      -1914.508          44.000  
  20695088.206   108753427.467        1652.167          48.000  
  22165831.751   116482225.730        -250.609          50.000  
  23737634.671   124742099.471        2637.006          43.000  
  24247789.571   127422993.7443      -3022.753          33.000  
  22986090.369   120792715.504       -2510.996          38.000  
 16  5 20 10 28 16.0000000  0 11G 1G 3G 6G11G17G 8G28G22G19G 7G30
  21647914.767   113760562.800       -2205.593          51.000  
  21539337.401   113189978.521        1617.289          49.000  
  23556064.039   123787951.378        3159.691          34.000  
  22476167.278   118113072.721       -2365.297          50.000  
  22311380.474   117247083.590        1845.990          48.000  
  24848758.492   130581104.9482      -1914.505          45.000  
  20694774.085   108751776.321        1650.684          48.000  
  22165879.337   116482477.388        -252.532          51.000  
  23737132.733   124739462.110        2637.537          41.000  
  24248365.724   127426021.1733      -3023.532          33.000  
  22986568.540   120795226.105       -2510.156          38.000  
 16  5 20 10 28 17.0000000  0 11G 1G 3G 6G11G17G 8G28G22G19G 7G30
  21648334.550   113762768.781       -2206.108          51.000  
  21539029.806   113188361.527        1616.588          48.000  
  23555462.879   123784792.235        3159.648          34.000  
  22476617.563   118115438.229       -2365.263          50.000  
  22311029.097   117245237.035        1846.315          49.000  
  24849122.416   130583019.8932      -1914.516          43.000  
  20694459.824   108750125.938        1650.366          47.000  
  22165927.360   116482730.243        -253.132          51.000  
  23736631.179   124736824.985        2636.743          42.000  
  24248941.320   127429046.6213      -3021.357          28.000  
  22987046.152   120797736.327       -2510.300          37.000  
 16  5 20 10 28 18.0000000  0 11G 1G 3G 6G11G17G 8G28G22G19G 7G30
  21648754.315   113764974.914       -2206.129          51.000  
  21538722.246   113186745.256        1615.731          49.000  
  23554861.823   123781633.895        3157.788          32.000  
  22477067.814   118117803.707       -2364.820          50.000  
  22310677.789   117243390.720        1845.875          48.000  
  24849486.567   130584934.8322      -1915.254          45.000  
  20694145.668   108748476.176        1649.365          47.000  
  22165976.012   116482983.561        -253.179          50.000  
  23736129.607   124734188.212        2636.395          42.000  
  24249518.311   127432068.9742      -3022.790          36.000  
  22987523.904   120800247.358       -2511.654          38.000  
 16  5 20 10 28 19.0000000  0 11G 1G 3G 6G11G17G 8G28G22G19G 7G30
  21649174.080   113767180.493       -2205.239          51.000  
  21538414.651   113185129.414        1615.476          49.000  
  23554259.651   123778476.692        3156.370          33.000  
  22477517.872   118120168.433       -2364.107          49.000  
  22310326.516   117241544.265        1846.348          49.000  
  24849850.718   130586849.2022      -1912.433          41.000  
  20693832.052   108746826.746        1648.901          48.000  
  22166024.226   116483236.865        -253.642          51.000  
  23735627.599   124731551.652        2636.963          43.000  
  24250091.080   127435092.2632      -3023.503          35.000  
  22988001.900   120802759.528       -2513.528          38.000  
 16  5 20 10 28 20.0000000  0 11G 1G 3G 6G11G17G 8G28G22G19G 7G30
  21649593.426   113769384.945       -2204.664          51.000  
  21538107.353   113183514.252        1614.493          48.000  
  23553661.022   123775321.742        3154.138          34.000  
  22477967.495   118122531.781       -2363.466          49.000  
  22309974.807   117239697.695        1846.145          48.000  
  24850215.114   130588762.7932      -1911.586          42.000  
  20693518.367   108745177.665        1648.645          48.000  
  22166072.005   116483489.766        -253.280          50.000  
  23735125.836   124728915.644        2635.461          43.000  
  24250669.118   127438117.8762      -3025.984          35.000  
  22988480.525   120805274.016       -2515.729          38.000  
 16  5 20 10 28 21.0000000  0 11G 1G 3G 6G11G17G 8G28G22G19G 7G30
  21650013.051   113771589.217       -2204.760          51.000  
  21537800.177   113181899.803        1614.020          48.000  
  23553058.082   123772167.239        3154.757          34.000  
  22478417.135   118124894.864       -2363.463          48.000  
  22309623.604   117237850.710        1846.656          48.000  
  24850579.457   130590676.5602      -1914.406          43.000  
  20693204.473   108743528.797        1648.669          48.000  
  22166120.011   116483743.085        -253.920          51.000  
  23734624.386   124726279.347        2636.578          41.000  
  24251242.812   127441143.8282      -3026.445          37.000  
  22988959.062   120807789.046       -2515.227          38.000  
 16  5 20 10 28 22.0000000  0 11G 1G 3G 6G11G17G 8G28G22G19G 7G30
  21650432.415   113773793.721       -2204.357          51.000  
  21537492.878   113180285.972        1613.772          48.000  
  23552457.742   123769013.184        3153.852          34.000  
  22478866.600   118127258.023       -2363.053          49.000  
  22309271.877   117236003.825        1846.797          48.000  
  24850943.835   130592590.4192      -1913.697          42.000  
  20692891.014   108741880.442        1648.364          48.000  
  22166168.365   116483996.988        -254.134          50.000  
  23734122.728   124723643.154        2635.815          41.000  
  24251816.453   127444169.9892      -3026.626          33.000  
  22989437.669   120810304.407       -2514.553          38.000  
 16  5 20 10 28 23.0000000  0 11G 1G 3G 6G11G17G 8G28G22G19G 7G30
  21650852.040   113775998.082       -2204.371          51.000  
  21537186.156   113178672.857        1613.041          49.000  
  23551860.229   123765860.114        3153.080          34.000  
  22479316.170   118129620.932       -2363.609          49.000  
  22308920.482   117234157.010        1847.250          48.000  
  24851307.602   130594503.9272      -1913.234          42.000  
  20692577.556   108740232.635        1647.931          48.000  
  22166216.772   116484251.156        -254.468          50.000  
  23733620.912   124721007.211        2636.499          41.000  
  24252395.032   127447196.6132      -3025.726          38.000  
  22989916.346   120812820.853       -2516.154          37.000  
 16  5 20 10 28 24.0000000  0 11G 1G 3G 6G11G17G 8G28G22G19G 7G30
  21651271.387   113778202.599       -2204.576          50.000  
  21536879.189   113177060.283        1612.363          49.000  
  23551258.528   123762707.426        3152.788          34.000  
  22479766.141   118131983.815       -2362.611          49.000  
  22308569.122   117232310.220        1846.732          47.000  
  24851671.841   130596417.6302      -1913.328          44.000  
  20692263.854   108738585.228        1647.156          48.000  
  22166265.092   116484505.837        -254.529          51.000  
  23733119.427   124718371.394        2635.651          41.000  
  24252971.413   127450223.4372      -3027.003          38.000  
  22990395.058   120815337.584       -2516.500          36.000  
 16  5 20 10 28 25.0000000  0 11G 1G 3G 6G11G17G 8G28G22G19G 7G30
  21651690.733   113780406.726       -2203.890          50.000  
  21536572.275   113175448.031        1612.005          48.000  
  23550660.195   123759555.354        3151.121          34.000  
  22480215.589   118134346.142       -2361.664          49.000  
  22308217.710   117230463.224        1846.909          48.000  
  24852036.114   130598330.4481      -1913.883          41.000  
  20691950.518   108736937.995        1647.052          48.000  
  22166313.935   116484760.590        -254.985          50.000  
  23732617.943   124715735.562        2635.645          42.000  
  24253548.073   127453250.476       -3027.393          38.000  
  22990874.049   120817854.848       -2517.129          36.000  
 16  5 20 10 28 26.0000000  0 11G 1G 3G 6G11G17G 8G28G22G19G 7G30
  21652110.114   113782610.680       -2204.522          51.000  
  21536265.622   113173836.487        1610.765          48.000  
  23550060.256   123756404.549        3149.606          35.000  
  22480665.176   118136708.114       -2362.438          50.000  
  22307866.297   117228616.428        1845.979          48.000  
  24852400.038   130600243.420       -1913.322          44.000  
  20691636.972   108735291.415        1645.947          47.000  
  22166362.464   116485015.542        -255.508          49.000  
  23732115.569   124713100.273        2634.546          40.000  
  24254123.389   127456278.524       -3027.843          35.000  
  22991353.232   120820373.457       -2519.306          36.000  
 16  5 20 10 28 27.0000000  0 11G 1G 3G 6G11G17G 8G28G22G19G 7G30
  21652529.355   113784814.587       -2204.227          51.000  
  21535959.091   113172225.480        1610.546          49.000  
  23549460.789   123753254.326        3150.345          34.000  
  22481114.519   118139069.887       -2362.009          49.000  
  22307514.832   117226769.651        1846.450          49.000  
  24852763.962   130602156.245       -1912.578          45.000  
  20691323.584   108733645.242        1646.124          48.000  
  22166410.784   116485270.870        -255.814          50.000  
  23731614.678   124710465.042        2635.083          43.000  
  24254698.722   127459306.879       -3028.194          35.000  
  22991832.851   120822892.519       -2518.891          37.000  
 16  5 20 10 28 28.0000000  0 11G 1G 3G 6G11G17G 8G28G22G19G 7G30
  21652949.068   113787018.791       -2204.498          51.000  
  21535652.561   113170615.071        1609.751          49.000  
  23548861.409   123750104.718        3149.298          34.000  
  22481564.072   118141431.789       -2361.738          49.000  
  22307163.455   117224923.191        1846.364          47.000  
  24853127.852   130604069.258       -1911.151          38.000  
  20691010.492   108731999.754        1644.897          48.000  
  22166459.714   116485526.749        -256.235          50.000  
  23731113.472   124707830.262        2634.357          40.000  
  24255275.417   127462335.242       -3027.294          35.000  
  22992312.383   120825412.097       -2519.856          38.000  
 16  5 20 10 28 29.0000000  0 11G 1G 3G 6G11G17G 8G28G22G19G 7G30
  21653368.187   113789222.861       -2204.139          50.000  
  21535346.083   113169005.215        1609.746          49.000  
  23548262.343   123746956.311        3146.954          34.000  
  22482013.310   118143793.333       -2361.393          48.000  
  22306812.042   117223077.012        1845.751          48.000  
  24853491.811   130605980.2993      -1913.012          38.000  
  20690697.505   108730354.865        1644.647          47.000  
  22166508.784   116485782.874        -256.257          50.000  
  23730610.924   124705196.016        2634.265          39.000  
  24255853.194   127465364.528       -3030.209          37.000  
  22992792.107   120827932.749       -2521.284          38.000  
 16  5 20 10 28 30.0000000  0 11G 1G 3G 6G11G17G 8G28G22G19G 7G30
  21653787.760   113791426.463       -2202.868          51.000  
  21535039.796   113167395.793        1609.377          49.000  
  23547663.521   123743809.177        3146.284          35.000  
  22482462.496   118146154.129       -2359.860          50.000  
  22306460.734   117221230.981        1846.083          48.000  
  24853855.857   130607892.3302      -1911.680          39.000  
  20690384.570   108728710.484        1643.994          47.000  
  22166557.366   116486038.918        -255.593          50.000  
  23730110.137   124702562.334        2633.508          42.000  
  24256429.819   127468394.760       -3030.711          33.000  
  22993271.779   120830454.683       -2522.716          38.000  
 16  5 20 10 28 31.0000000  0 11G 1G 3G 6G11G17G 8G28G22G19G 7G30
  21654206.880   113793629.497       -2203.302          50.000  
  21534733.755   113165786.610        1608.898          49.000  
  23547064.787   123740663.118        3146.242          34.000  
  22482911.525   118148514.175       -2360.301          50.000  
  22306109.235   117219384.853        1846.245          48.000  
  24854219.886   130609803.7812      -1911.333          37.000  
  20690071.618   108727066.308        1644.177          48.000  
  22166605.668   116486294.788        -256.249          49.000  
  23729608.915   124699928.944        2633.337          42.000  
  24257006.618   127471425.544       -3031.740          36.000  
  22993751.852   120832977.541       -2522.930          38.000  
 16  5 20 10 28 32.0000000  0 11G 1G 3G 6G11G17G 8G28G22G19G 7G30
  21654626.261   113795833.045       -2203.943          51.000  
  21534427.660   113164178.117        1608.286          49.000  
  23546466.262   123737517.165        3145.647          35.000  
  22483360.467   118150874.657       -2360.530          50.000  
  22305757.997   117217538.925        1846.067          48.000  
  24854583.531   130611715.3262      -1908.794          37.000  
  20689759.067   108725422.758        1642.926          48.000  
  22166654.598   116486551.479        -256.926          50.000  
  23729108.058   124697295.663        2633.313          41.000  
  24257583.331   127474456.074       -3031.545          36.000  
  22994232.169   120835500.456       -2523.009          38.000  
 16  5 20 10 28 33.0000000  0 11G 1G 3G 6G11G17G 8G28G22G19G 7G30
  21655045.764   113798036.994       -2204.637          51.000  
  21534121.793   113162570.229        1607.572          49.000  
  23545867.493   123734370.958        3146.627          35.000  
  22483810.124   118153235.487       -2361.212          51.000  
  22305406.584   117215692.786        1846.335          48.000  
  24854947.211   130613628.4573      -1909.884          41.000  
  20689446.446   108723779.444        1642.987          48.000  
  22166703.494   116486808.948        -258.287          50.000  
  23728607.499   124694662.033        2633.771          42.000  
  24258160.095   127477486.135       -3030.630          36.000  
  22994712.225   120838023.067       -2522.332          38.000  
 16  5 20 10 28 34.0000000  0 11G 1G 3G 6G11G17G 8G28G22G19G 7G30
  21655465.023   113800241.868       -2204.883          50.000  
  21533815.733   113160963.244        1606.638          49.000  
  23545268.706   123731224.112        3146.910          35.000  
  22484259.729   118155597.355       -2361.254          47.000  
  22305055.364   117213846.537        1846.402          48.000  
  24855311.206   130615541.5412      -1911.376          42.000  
  20689133.843   108722136.593        1642.719          48.000  
  22166752.633   116487067.725        -259.242          50.000  
  23728106.154   124692027.952        2634.277          42.000  
  24258736.476   127480515.447       -3029.969          34.000  
  22995192.071   120840545.139       -2521.798          36.000  
 16  5 20 10 28 35.0000000  0 11G 1G 3G 6G11G17G 8G28G22G19G 7G30
  21655884.544   113802446.868       -2205.463          50.000  
  21533509.988   113159356.865        1605.845          49.000  
  23544669.605   123728077.250        3146.566          34.000  
  22484708.863   118157959.272       -2361.158          47.000  
  22304704.353   117211999.951        1846.719          49.000  
  24855675.008   130617454.8112      -1912.792          41.000  
  20688821.327   108720493.887        1642.291          47.000  
  22166802.227   116487327.082        -260.288          51.000  
  23727604.844   124689393.529        2634.302          42.000  
  24259312.630   127483544.534       -3028.724          36.000  
  22995672.074   120843067.129       -2522.313          37.000  
 16  5 20 10 28 36.0000000  0 11G 1G 3G 6G11G17G 8G28G22G19G 7G30
  21656304.448   113804651.617       -2204.508          50.000  
  21533204.627   113157751.270        1605.240          49.000  
  23544070.870   123724931.514        3144.905          34.000  
  22485158.398   118160320.815       -2361.096          50.000  
  22304353.027   117210153.355        1846.592          48.000  
  24856039.089   130619368.0272      -1915.455          38.000  
  20688508.759   108718851.751        1641.901          48.000  
  22166851.472   116487586.759        -261.880          51.000  
  23727103.569   124686759.371        2633.923          42.000  
  24259887.039   127486574.742       -3029.570          38.000  
  22996152.286   120845590.360       -2523.697          38.000  
 16  5 20 10 28 37.0000000  0 11G 1G 3G 6G11G17G 8G28G22G19G 7G30
  21656723.760   113806855.634       -2204.019          50.000  
  21532899.021   113156146.222        1605.109          49.000  
  23543472.276   123721787.154        3143.184          34.000  
  22485607.846   118162681.410       -2360.101          49.000  
  22304001.737   117208306.446        1847.001          48.000  
  24856399.541   130621261.1693      -1913.186          42.000  
  20688196.295   108717209.785        1641.821          48.000  
  22166900.873   116487846.223        -259.562          50.000  
  23726602.260   124684125.204        2634.290          42.000  
  24260466.560                       -3031.026          35.000  
  22996632.813   120848115.017       -2525.674          38.000  
 16  5 20 10 28 38.0000000  0 11G 1G 3G 6G11G17G 8G28G22G19G 7G30
  21657143.193   113809059.541       -2204.302          50.000  
  21532593.765   113154541.909        1603.950          49.000  
  23542874.187   123718643.502        3143.514          35.000  
  22486056.892   118165041.817       -2360.341          50.000  
  22303649.906   117206459.419        1846.899          48.000  
  24856766.641   130623189.4293      -1913.071          41.000  
  20687883.971   108715568.198        1641.394          48.000  
  22166950.397   116488106.162        -260.158          51.000  
  23726101.107   124681491.191        2635.309          42.000  
  24261038.579   127492617.6623      -3032.281          33.000  
  22997113.462   120850640.345       -2525.229          38.000  
 16  5 20 10 28 39.0000000  0 11G 1G 3G 6G11G17G 8G28G22G19G 7G30
  21657562.487   113811263.797       -2204.154          50.000  
  21532288.735   113152938.321        1603.499          49.000  
  23542275.627   123715500.087        3143.144          34.000  
  22486506.148   118167402.518       -2360.048          51.000  
  22303298.179   117204612.405        1847.114          48.000  
  24857132.590   130625102.3082      -1906.348          38.000  
  20687571.525   108713927.100        1641.046          48.000  
  22167000.147   116488366.857        -260.578          51.000  
  23725600.006   124678857.179        2634.442          42.000  
  24261618.886   127495649.6682      -3031.918          36.000  
  22997593.971   120853166.024       -2526.501          38.000  
 16  5 20 10 28 40.0000000  0 11G 1G 3G 6G11G17G 8G28G22G19G 7G30
  21657981.903   113813467.922       -2204.493          51.000  
  21531983.879   113151335.415        1602.281          49.000  
  23541677.835   123712357.567        3142.478          34.000  
  22486955.212   118169762.934       -2360.579          50.000  
  22302946.749   117202765.355        1846.953          48.000  
  24857495.955   130627022.3873      -1910.497          39.000  
  20687259.393   108712286.445        1639.953          48.000  
  22167049.566   116488627.907        -261.505          49.000  
  23725098.679   124676223.382        2633.295          42.000  
  24262198.512   127498713.3843      -3032.970          29.000  
  22998074.707   120855692.499       -2526.861          38.000  
 16  5 20 10 28 41.0000000  0 11G 1G 3G 6G11G17G 8G28G22G19G 7G30
  21658401.389   113815672.275       -2204.503          51.000  
  21531678.989   113149732.987        1602.401          50.000  
  23541079.868   123709215.069        3142.236          35.000  
  22487404.695   118172123.475       -2360.921          50.000  
  22302595.302   117200918.234        1846.992          48.000  
  24857859.496   130628932.4082      -1913.865          38.000  
  20686947.331   108710646.136        1640.063          48.000  
  22167099.352   116488889.476        -261.811          50.000  
  23724597.404   124673589.299        2634.955          43.000  
  24262773.479   127501745.8102      -3031.618          38.000  
  22998555.635   120858218.945       -2525.946          38.000  
 16  5 20 10 28 42.0000000  0 11G 1G 3G 6G11G17G 8G28G22G19G 7G30
  21658821.415   113817877.152       -2205.080          51.000  
  21531374.012   113148131.175        1601.747          49.000  
  23540481.971   123706072.609        3141.812          35.000  
  22487853.846   118174484.447       -2360.514          50.000  
  22302243.837   117199071.304        1846.860          48.000  
  24858223.891   130630845.6952      -1913.328          40.000  
  20686635.216   108709006.356        1639.545          48.000  
  22167149.504   116489151.879        -262.759          50.000  
  23724096.530   124670955.472        2634.235          42.000  
  24263350.959   127504777.8082      -3032.159          31.000  
  22999036.371   120860745.412       -2526.759          38.000  
 16  5 20 10 28 43.0000000  0 11G 1G 3G 6G11G17G 8G28G22G19G 7G30
  21659240.761   113820082.013       -2204.841          50.000  
  21531069.296   113146529.877        1601.002          50.000  
  23539884.232   123702930.795        3141.260          35.000  
  22488302.822   118176845.272       -2360.726          49.000  
  22301892.337   117197224.454        1847.105          48.000  
  24858590.538   130632774.8773      -1913.228          37.000  
  20686323.433   108707367.101        1638.629          48.000  
  22167199.045   116489414.588        -262.967          50.000  
  23723595.011   124668321.881        2633.276          42.000  
  24263927.689   127507800.5383      -3031.800          34.000  
  22999517.142   120863272.384       -2527.529          38.000  
 16  5 20 10 28 44.0000000  0 11G 1G 3G 6G11G17G 8G28G22G19G 7G30
  21659660.579   113822286.969       -2205.203          51.000  
  21530764.650   113144929.155        1600.938          49.000  
  23539286.335   123699789.586        3141.683          35.000  
  22488752.253   118179206.009       -2360.889          50.000  
  22301540.558   117195377.757        1846.744          48.000  
  24858950.920   130634668.0232      -1912.800          42.000  
  20686011.266   108705728.329        1638.342          47.000  
  22167249.633   116489677.685        -262.629          50.000  
  23723093.876   124665688.447        2633.691          42.000  
  24264503.947   127510832.9232      -3032.084          34.000  
  22999998.053   120865799.972       -2527.183          38.000  
 16  5 20 10 28 45.0000000  0 11G 1G 3G 6G11G17G 8G28G22G19G 7G30
  21660079.698   113824492.665       -2206.160          50.000  
  21530460.074   113143328.863        1600.093          49.000  
  23538688.333   123696647.921        3141.425          34.000  
  22489201.456   118181567.449       -2361.866          49.000  
  22301189.634   117193531.213        1846.449          48.000  
  24859319.416   130636581.4052      -1914.149          41.000  
  20685699.623   108704090.041        1638.434          47.000  
  22167299.837   116489941.710        -264.227          50.000  
  23722592.548   124663055.014        2634.796          42.000  
  24265081.794   127513864.4962      -3031.512          30.000  
  23000478.928   120868326.805       -2526.209          38.000  
 16  5 20 10 28 46.0000000  0 11G 1G 3G 6G11G17G 8G28G22G19G 7G30
  21660499.760   113826698.957       -2206.193          50.000  
  21530155.847   113141729.113        1599.700          49.000  
  23538090.646   123693506.014        3141.018          36.000  
  22489651.026   118183929.376       -2361.848          49.000  
  22300838.170   117191684.849        1846.686          48.000  
  24859678.123   130638495.0892      -1913.701          40.000  
  20685387.700   108702452.327        1637.917          47.000  
  22167350.129   116490206.531        -265.002          50.000  
  23722091.291   124660421.637        2633.362          41.000  
  24265657.267   127516888.7283      -3029.188          31.000  
  23000959.664   120870853.397       -2526.198          38.000  
 16  5 20 10 28 47.0000000  0 11G 1G 3G 6G11G17G 8G28G22G19G 7G30
  21660919.787   113828905.654       -2207.095          51.000  
  21529851.620   113140129.993        1598.746          49.000  
  23537492.836   123690364.375        3141.643          35.000  
  22490100.457   118186291.564       -2362.042          50.000  
  22300486.949   117189838.652        1846.453          48.000  
  24860044.368   130640408.9612      -1913.686          40.000  
  20685076.458   108700815.171        1636.888          48.000  
  22167400.857   116490472.024        -265.972          50.000  
  23721590.051   124657788.314        2634.088          41.000  
  24266233.892   127519919.3562      -3030.145          29.000  
  23001440.575   120873380.136       -2526.570          38.000  
 16  5 20 10 28 48.0000000  0 11G 1G 3G 6G11G17G 8G28G22G19G 7G30
  21661340.005   113831113.672       -2208.745          50.000  
  21529547.445   113138531.982        1597.187          49.000  
  23536894.974   123687222.077        3142.311          35.000  
  22490550.009   118188655.193       -2364.980          49.000  
  22300136.427   117187992.675        1845.424          49.000  
  24860411.084   130642323.9462      -1911.813          40.000  
  20684765.216   108699178.724        1635.807          48.000  
  22167451.619   116490739.202        -268.657          50.000  
  23721088.968   124655154.896        2633.203          43.000  
  24266809.906   127522949.1522      -3029.311          35.000  
  23001921.328   120875906.223       -2525.538          38.000  
 16  5 20 10 28 49.0000000  0 11G 1G 3G 6G11G17G 8G28G22G19G 7G30
  21661760.555   113833323.416       -2210.804          50.000  
  21529243.532   113136934.806        1596.328          49.000  
  23536296.694   123684078.762        3143.185          34.000  
  22491000.539   118191020.459       -2365.709          50.000  
  22299785.520   117186147.232        1844.629          49.000  
  24860771.867   130644240.1612      -1916.570          35.000  
  20684453.991   108697543.141        1634.698          48.000  
  22167502.400   116491007.959        -269.592          50.000  
  23720588.723   124652521.418        2632.922          43.000  
  24267389.219   127525977.4162      -3029.332          35.000  
  23002401.872   120878431.141       -2525.442          37.000  
 16  5 20 10 28 50.0000000  0 11G 1G 3G 6G11G17G 8G28G22G19G 7G30
  21662180.984   113835534.087       -2211.551          51.000  
  21528939.567   113135338.277        1595.903          49.000  
  23535698.588   123680935.562        3142.788          34.000  
  22491450.528   118193386.605       -2366.453          50.000  
  22299433.445   117184302.363        1844.534          48.000  
  24861138.252   130646162.5633      -1916.665          39.000  
  20684143.028   108695908.401        1634.176          48.000  
  22167554.227   116491277.798        -270.268          51.000  
  23720087.814   124649888.407        2632.581          42.000  
  24267965.530   127529019.1443      -3027.654          35.000  
  23002882.469   120880955.851       -2524.622          37.000  
 16  5 20 10 28 51.0000000  0 11G 1G 3G 6G11G17G 8G28G22G19G 7G30
  21662601.900   113837744.756       -2210.730          50.000  
  21528635.793   113133742.059        1596.047          49.000  
  23535100.377   123677792.282        3142.683          35.000  
  22491900.639   118195752.636       -2366.008          50.000  
  22299082.154   117182457.441        1844.859          48.000  
  24861501.566   130648079.0522      -1916.405          43.000  
  20683831.786   108694273.975        1634.167          47.000  
  22167605.251   116491547.949        -270.648          47.000  
  23719586.487   124647255.322        2632.733          42.000  
  24268540.584   127532046.3732      -3027.822          34.000  
  23003362.577   120883480.542       -2525.197          37.000  
 16  5 20 10 28 52.0000000  0 11G 1G 3G 6G11G17G 8G28G22G19G 7G30
  21663022.206   113839954.962       -2210.101          50.000  
  21528331.985   113132146.310        1595.568          49.000  
  23534502.148   123674650.334        3141.083          34.000  
  22492350.872   118198117.938       -2364.244          48.000  
  22298731.038   117180612.459        1845.012          48.000  
  24861866.991   130649994.8282      -1915.233          41.000  
  20683520.509   108692639.893        1633.921          47.000  
  22167656.659   116491818.076        -269.733          50.000  
  23719085.997   124644622.592        2632.361          43.000  
  24269117.035                       -3026.085          34.000  
  23003843.226   120886006.363       -2526.540          38.000  
 16  5 20 10 28 53.0000000  0 11G 1G 3G 6G11G17G 8G28G22G19G 7G30
  21663443.001   113842165.267       -2211.018          51.000  
  21528028.508   113130551.252        1594.424          48.000  
  23533904.409   123671508.932        3142.041          35.000  
  22492801.000   118200483.290       -2366.241          49.000  
  22298379.957   117178767.601        1844.555          47.000  
  24862231.386                       -1922.510          34.000  
  20683209.669   108691006.353        1633.078          48.000  
  22167708.242   116492088.731        -271.737          50.000  
  23718585.821   124641990.058        2631.964          42.000  
  24269691.391   127538099.0963      -3027.552          36.000  
  23004324.311   120888532.826       -2526.256          39.000  
 16  5 20 10 28 54.0000000  0 11G 1G 3G 6G11G17G 8G28G22G19G 7G30
  21663863.708   113844376.472       -2211.614          50.000  
  21527724.962   113128956.869        1594.237          49.000  
  23533306.564   123668367.340        3143.161          34.000  
  22493251.355   118202849.396       -2366.129          50.000  
  22298029.208   117176923.045        1844.800          49.000  
  24862596.445   130653826.0633      -1917.640          40.000  
  20682898.967   108689373.487        1633.048          48.000  
  22167759.581   116492360.459        -272.351          50.000  
  23718084.442   124639357.584        2632.690          44.000  
  24270265.922   127541107.3383      -3026.214          38.000  
  23004804.855   120891058.921       -2525.454          38.000  
 16  5 20 10 28 55.0000000  0 11G 1G 3G 6G11G17G 8G28G22G19G 7G30
  21664284.764   113846588.502       -2212.938          51.000  
  21527422.096   113127363.334        1592.633          50.000  
  23532708.789   123665225.675        3141.933          35.000  
  22493701.745   118205216.317       -2367.851          49.000  
  22297678.598   117175078.712        1843.966          49.000  
  24862960.892   130655740.6342      -1919.001          40.000  
  20682588.633   108687741.271        1631.813          47.000  
  22167811.705   116492633.192        -273.263          50.000  
  23717582.888   124636725.182        2632.019          38.000  
  24270843.507   127544134.6212      -3026.948          35.000  
  23005285.608   120893584.811       -2525.816          38.000  
 16  5 20 10 28 56.0000000  0 11G 1G 3G 6G11G17G 8G28G22G19G 7G30
  21664705.576   113848800.867       -2211.887          51.000  
  21527118.881   113125770.473        1592.755          48.000  
  23532110.666   123662083.974        3141.464          34.000  
  22494152.345   118207583.505       -2367.062          48.000  
  22297327.291   117173234.254        1844.817          48.000  
  24863326.474   130657658.0412      -1914.986          40.000  
  20682277.879   108686109.431        1631.955          48.000  
  22167864.247   116492906.823        -273.681          51.000  
  23717081.752   124634092.575        2633.331          42.000  
  24271423.116   127547161.7182      -3026.113          34.000  
  23005766.292   120896110.777       -2526.408          37.000  
 16  5 20 10 28 57.0000000  0 11G 1G 3G 6G11G17G 8G28G22G19G 7G30
  21665126.633   113851013.026       -2211.826          51.000  
  21526815.736   113124178.302        1592.313          49.000  
  23531512.804   123658943.094        3140.410          34.000  
  22494602.456   118209950.374       -2365.878          50.000  
  22296976.053   117171389.651        1844.741          48.000  
  24863689.963   130659575.4832      -1915.644          42.000  
  20681967.370   108684477.926        1631.887          47.000  
  22167916.039   116493180.690        -273.335          50.000  
  23716580.791   124631460.033        2632.709          42.000  
  24271998.048   127550189.6472      -3028.423          35.000  
  23006247.063   120898637.552       -2527.226          37.000  
 16  5 20 10 28 58.0000000  0 11G 1G 3G 6G11G17G 8G28G22G19G 7G30
  21665547.445   113853225.010       -2212.928          51.000  
  21526512.835   113122586.756        1591.219          49.000  
  23530914.907   123655802.653        3140.266          34.000  
  22495052.794   118212316.954       -2366.911          50.000  
  22296624.937   117169544.708        1844.884          48.000  
  24864058.686   130661492.9692      -1919.319          44.000  
  20681656.931   108682846.661        1630.830          47.000  
  22167968.390   116493454.911        -275.002          51.000  
  23716079.691   124628827.223        2633.490          41.000  
  24272572.562   127553217.7262      -3027.063          35.000  
  23006727.869   120901164.847       -2527.073          37.000  
 16  5 20 10 28 59.0000000  0 11G 1G 3G 6G11G17G 8G28G22G19G 7G30
  21665968.728   113855437.797       -2214.078          50.000  
  21526210.423   113120996.011        1590.281          49.000  
  23530317.621   123652662.074        3140.471          36.000  
  22495503.568   118214684.654       -2364.083          37.000  
  22296273.838   117167699.959        1844.656          48.000  
  24864420.010   130663411.0172      -1919.606          39.000  
  20681346.509   108681216.042        1630.247          48.000  
  22168020.409   116493730.278        -275.698          50.000  
  23715578.782   124626194.488        2632.837          42.000  
  24273148.384   127556245.3602      -3027.865          35.000  
  23007209.233   120903691.873       -2527.451          37.000  
 16  5 20 10 29  0.0000000  0 11G 1G 3G 6G11G17G 8G28G22G19G 7G30
  21666389.540   113857651.073       -2213.146          51.000  
  21525907.731   113119405.922        1592.113          46.000  
  23529719.986   123649521.667        3140.379          34.000  
  22495954.237   118217052.158       -2366.992          51.000  
  22295922.583   117165855.386        1845.012          49.000  
  24864785.330   130665328.0353      -1922.333          41.000  
  20681036.767   108679586.010        1630.001          49.000  
  22168072.900   116494006.414        -278.638          45.000  
  23715077.734   124623561.829        2633.112          42.000  
  24273724.887   127559273.0642      -3028.375          35.000  
  23007690.004   120906219.117       -2527.814          37.000  
 16  5 20 10 29  1.0000000  0 11G 1G 3G 6G11G17G 8G28G22G19G 7G30
  21666810.753   113859863.960       -2212.782          50.000  
  21525605.389   113117816.350        1590.071          48.000  
  23529122.927   123646382.252        3139.713          35.000  
  22496404.540   118219419.420       -2367.592          51.000  
  22295571.851   117164010.734        1844.652          49.000  
  24865146.550                       -1916.396          42.000  
  20680726.642   108677956.303        1629.733          48.000  
  22168125.704   116494282.536        -276.156          48.000  
  23714576.529   124620929.405        2631.830          42.000  
  24274300.866                       -3020.166          31.000  
  23008171.159   120908747.246       -2528.304          37.000  
 16  5 20 10 29  2.0000000  0 11G 1G 3G 6G11G17G 8G28G22G19G 7G30
  21667232.106   113862077.002       -2213.703          50.000  
  21525302.994   113116227.589        1587.947          50.000  
  23528525.885   123643243.605        3138.225          35.000  
  22496854.720   118221786.599       -2367.879          49.000  
  22295220.822   117162166.287        1843.541          48.000  
  24865513.057   130669152.4592      -1920.452          39.000  
  20680416.622   108676327.246        1628.201          47.000  
  22168178.229   116494559.251        -277.315          50.000  
  23714075.656   124618297.290        2630.774          42.000  
  24274875.938   127565333.2413      -3028.446          28.000  
  23008652.209   120911276.058       -2528.833          37.000  
 16  5 20 10 29  3.0000000  0 11G 1G 3G 6G11G17G 8G28G22G19G 7G30
  21667653.302   113864290.610       -2213.577          50.000  
  21525000.616   113114638.952        1588.304          49.000  
  23527928.756   123640104.737        3139.053          35.000  
  22497305.320   118224154.224       -2367.576          48.000  
  22294869.846   117160322.153        1844.105          48.000  
  24865878.202   130671070.3922      -1917.036          39.000  
  20680106.828   108674698.673        1628.432          48.000  
  22168231.505   116494836.562        -277.812          49.000  
  23713574.817   124615665.433        2631.342          42.000  
  24275455.320   127568378.1393      -3027.582          36.000  
  23009133.085   120913804.457       -2528.447          37.000  
 16  5 20 10 29  4.0000000  0 11G 1G 3G 6G11G17G 8G28G22G19G 7G30
  21668074.550   113866504.341       -2214.022          49.000  
  21524698.326   113113051.016        1587.106          49.000  
  23527331.435   123636966.298        3138.052          35.000  
  22497755.920   118226521.939       -2368.147          50.000  
  22294519.044   117158478.028        1843.375          48.000  
  24866248.426   130672988.4302      -1918.177          44.000  
  20679797.121   108673070.571        1627.500          47.000  
  22168284.274   116495114.458        -278.393          51.000  
  23713073.891   124613033.524        2632.245          43.000  
  24276029.973   127571398.5152      -3028.809          30.000  
  23009614.239   120916333.240       -2529.590          38.000  
 16  5 20 10 29  5.0000000  0 10G 1G 3G 6G11G17G 8G28G22G19G30
  21668495.956   113868718.634       -2214.090          50.000  
  21524396.403   113111463.972        1586.749          49.000  
  23526734.219   123633828.249        3139.708          35.000  
  22498206.746   118228890.057       -2368.084          50.000  
  22294168.400   117156634.165        1844.127          48.000  
  24866612.001   130674927.9343      -1916.034          36.000  
  20679487.188   108671443.193        1627.802          48.000  
  22168337.323   116495393.210        -279.070          50.000  
  23712573.349   124610401.933        2632.184          41.000  
  23010095.569   120918862.420       -2527.935          37.000  
 16  5 20 10 29  6.0000000  0 11G 1G 3G 6G11G17G 8G28G22G19G 7G30
  21668917.152   113870933.251       -2214.486          50.000  
  21524094.566   113109877.364        1585.188          50.000  
  23526137.090   123630690.023        3137.254          35.000  
  22498657.537   118231258.453       -2368.743          50.000  
  22293817.144   117154790.210        1843.991          47.000  
  24866977.531   130676848.2852      -1922.073          37.000  
  20679177.656   108669816.146        1626.824          48.000  
  22168390.249   116495672.597        -279.603          50.000  
  23712072.266   124607770.147        2631.171          41.000  
  24277185.230                       -3027.644          28.000  
  23010576.636   120921391.274       -2529.114          37.000  
 16  5 20 10 29  7.0000000  0 11G 1G 3G 6G11G17G 8G28G22G19G 7G30
  21669338.609   113873147.843       -2214.600          51.000  
  21523792.451   113108291.301        1585.369          49.000  
  23525540.013   123627552.407        3136.825          35.000  
  22499108.364   118233626.624       -2368.137          50.000  
  22293466.657   117152946.230        1844.078          48.000  
  24867340.496   130678766.9532      -1918.786          43.000  
  20678867.985   108668189.486        1625.994          48.000  
  22168443.403   116495952.344        -280.060          49.000  
  23711571.706   124605138.494        2631.366          43.000  
  24277759.412                       -3021.045          29.000  
  23011057.652   120923920.804       -2530.711          37.000  
 16  5 20 10 29  8.0000000  0 11G 1G 3G 6G11G17G 8G28G22G19G 7G30
  21669760.084   113875362.518       -2215.354          51.000  
  21523490.771   113106705.888        1584.235          50.000  
  23524943.163   123624415.307        3136.368          36.000  
  22499558.911   118235994.849       -2369.499          50.000  
  22293115.715   117151102.273        1842.886          47.000  
  24867706.968   130680681.4183      -1919.107          40.000  
  20678558.313   108666563.279        1625.122          48.000  
  22168496.853   116496232.633        -281.480          49.000  
  23711071.409   124602506.768        2632.098          42.000  
  24278337.677   127583524.9092      -3020.055          29.000  
  23011539.330   120926450.643       -2529.700          37.000  
 16  5 20 10 29  9.0000000  0 11G 1G 3G 6G11G17G 8G28G22G19G 7G30
  21670181.699   113877578.713       -2216.540          50.000  
  21523189.231   113105121.347        1584.491          50.000  
  23524345.999   123621277.215        3139.756          35.000  
  22500009.982   118238364.521       -2370.493          50.000  
  22292765.053   117149258.624        1844.269          48.000  
  24868071.485   130682601.3102      -1921.049          42.000  
  20678249.095   108664937.860        1625.765          48.000  
  22168550.215   116496514.463        -282.087          50.000  
  23710570.553   124599875.100        2632.812          42.000  
  24278911.790   127586541.7462      -3024.668          31.000  
  23012020.729   120928979.529       -2527.887          37.000  
 16  5 20 10 29 10.0000000  0 11G 1G 3G 6G11G17G 8G28G22G19G 7G30
  21670603.924   113879796.401       -2217.788          51.000  
  21522888.023   113103537.620        1583.595          47.000  
  23523748.382   123618138.016        3139.971          36.000  
  22500460.564   118240735.801       -2371.436          48.000  
  22292414.199   117147415.349        1843.514          47.000  
  24868437.556   130684522.1672      -1919.213          39.000  
  20677939.860   108663313.100        1624.805          47.000  
  22168604.503   116496797.950        -284.531          51.000  
  23710069.086   124597243.189        2632.800          43.000  
  24279485.500   127589566.7302      -3024.038          31.000  
  23012501.692   120931507.092       -2527.032          38.000  
 16  5 20 10 29 11.0000000  0 11G 1G 3G 6G11G17G 8G28G22G19G 7G30
  21671026.167   113882014.760       -2218.600          50.000  
  21522586.972   113101954.537        1581.770          50.000  
  23523150.904   123614998.451        3140.214          35.000  
  22500911.599   118243107.708       -2372.028          49.000  
  22292063.415   117145572.048        1843.264          48.000  
  24868801.184   130686443.5662      -1923.277          39.000  
  20677631.253   108661688.769        1624.417          49.000  
  22168658.494   116497082.278        -284.236          50.000  
  23709568.823   124594611.102        2631.036          40.000  
  24280059.124   127592590.9502      -3024.632          35.000  
  23012982.655   120934034.247       -2527.217          38.000  
 16  5 20 10 29 12.0000000  0 11G 1G 3G 6G11G17G 8G28G22G19G 7G30
  21671448.201   113884234.052       -2220.503          50.000  
  21522285.764   113100372.176        1581.887          49.000  
  23522553.339   123611858.581        3140.019          35.000  
  22501363.700   118245480.486       -2374.203          49.000  
  22291712.177   117143729.055        1842.049          48.000  
  24869166.748   130688352.4013      -1916.936          36.000  
  20677322.349   108660065.172        1622.779          48.000  
  22168713.078   116497367.812        -286.706          49.000  
  23709067.461   124591978.904        2632.556          41.000  
  24280631.910                       -3000.963          31.000  
  23013463.670   120936560.928       -2526.359          39.000  
 16  5 20 10 29 13.0000000  0 11G 1G 3G 6G11G17G 8G28G22G19G 7G30
  21671871.159   113886456.004       -2223.052          50.000  
  21521984.678   113098790.900        1580.819          48.000  
  23521955.250   123608716.589        3142.336          35.000  
  22501815.800   118247856.030       -2376.558          49.000  
  22291361.811   117141886.698        1842.296          48.000  
  24869534.407   130690284.8122      -1924.133          46.000  
  20677013.690   108658442.573        1622.105          48.000  
  22168767.715   116497655.863        -289.192          49.000  
  23708566.168   124589346.592        2632.251          40.000  
  24281218.063   127598661.1833      -3019.900          31.000  
  23013944.040   120939085.304       -2522.902          37.000  
 16  5 20 10 29 14.0000000  0 11G 1G 3G 6G11G17G 8G28G22G19G 7G30
  21672294.344   113888679.271       -2223.606          51.000  
  21521683.801   113097210.291        1580.408          48.000  
  23521357.109   123605573.347        3143.314          36.000  
  22502268.651   118250232.971       -2377.321          50.000  
  22291011.254   117140044.563        1842.006          48.000  
  24869902.676   130692209.5562      -1925.423          45.000  
  20676704.646   108656820.490        1621.582          47.000  
  22168822.683   116497945.303        -290.015          49.000  
  23708065.713   124586713.876        2631.824          42.000  
  24281785.352   127601643.1412      -3018.499          32.000  
  23014424.287   120941608.303       -2522.654          37.000  
 16  5 20 10 29 15.0000000  0 11G 1G 3G 6G11G17G 8G28G22G19G 7G30
  21672717.617   113890903.010       -2223.552          51.000  
  21521383.308   113095630.006        1580.182          48.000  
  23520758.793   123602429.628        3143.179          35.000  
  22502720.838   118252610.309       -2377.500          49.000  
  22290660.819   117138202.371        1842.310          48.000  
  24870266.758   130694134.1492      -1923.003          45.000  
  20676396.126   108655198.722        1621.485          48.000  
  22168878.053   116498235.417        -290.065          49.000  
  23707565.189   124584080.985        2633.179          42.000  
  24282361.488   127604661.3032      -3018.278          34.000  
  23014904.133   120944130.716       -2522.419          35.000  
 16  5 20 10 29 16.0000000  0 11G 1G 3G 6G11G17G 8G28G22G19G 7G30
  21673140.593   113893126.267       -2222.817          50.000  
  21521082.536   113094049.850        1580.165          48.000  
  23520160.739   123599286.985        3141.648          35.000  
  22503172.624   118254986.867       -2375.927          49.000  
  22290310.034   117136360.323        1842.087          48.000  
  24870634.469   130696058.2822      -1923.564          47.000  
  20676086.856   108653577.314        1621.131          48.000  
  22168933.195   116498525.323        -289.460          49.000  
  23707063.670   124581448.578        2632.263          43.000  
  24282934.833   127607679.8032      -3017.157          34.000  
  23015384.294   120946653.948       -2523.936          35.000  
 16  5 20 10 29 17.0000000  0 11G 1G 3G 6G11G17G 8G28G22G19G 7G30
  21673563.359   113895348.116       -2220.907          51.000  
  21520781.834   113092469.645        1580.441          48.000  
  23519563.191   123596146.121        3140.000          35.000  
  22503624.637   118257361.689       -2374.066          50.000  
  22289959.250   117134518.122        1842.840          48.000  
  24870999.737   130697980.7522      -1921.955          47.000  
  20675778.633   108651956.147        1621.289          48.000  
  22168988.198   116498814.300        -288.180          50.000  
  23706563.442   124578816.681        2631.891          42.000  
  24283510.812   127610699.8362      -3021.116          34.000  
  23015864.681   120949179.030       -2525.904          36.000  
 16  5 20 10 29 18.0000000  0 10G 1G 3G 6G11G17G 8G28G22G19G30
  21673985.934   113897569.635       -2221.846          51.000  
  21520481.185   113090890.231        1578.965          49.000  
  23518965.940   123593006.966        3138.746          35.000  
  22504076.650   118259735.927       -2374.252          50.000  
  22289609.356   117132676.175        1841.818          48.000  
  24871364.847   130699903.0642      -1922.051          44.000  
  20675470.724   108650335.579        1620.409          48.000  
  22169043.341   116499103.423        -289.221          50.000  
  23706062.044   124576185.474        2631.152          42.000  
  23016345.504   120951705.683       -2526.852          37.000  
 16  5 20 10 29 19.0000000  0 11G 1G 3G 6G11G17G 8G28G22G19G 7G30
  21674408.840   113899791.432       -2222.144          50.000  
  21520180.831   113089311.411        1578.165          49.000  
  23518368.480   123589868.031        3138.348          35.000  
  22504528.244   118262110.390       -2375.167          49.000  
  22289258.781   117130834.317        1841.197          48.000  
  24871730.779   130701825.4012      -1922.843          41.000  
  20675162.396   108648715.532        1619.149          48.000  
  22169098.536   116499393.250        -290.601          49.000  
  23705562.445   124573554.260        2630.847          44.000  
  24284660.048                       -3016.797          34.000  
  23016826.484   120954232.497       -2526.928          37.000  
 16  5 20 10 29 20.0000000  0 11G 1G 3G 6G11G17G 8G28G22G19G 7G30
  21674831.798   113902013.954       -2223.459          50.000  
  21519880.374   113087733.506        1577.314          49.000  
  23517771.229   123586729.263        3138.245          35.000  
  22504980.537   118264485.392       -2376.563          50.000  
  22288908.450   117128992.638        1841.334          48.000  
  24872099.990                       -1916.290          32.000  
  20674854.120   108647096.212        1618.675          48.000  
  22169153.469   116499683.965        -291.411          49.000  
  23705061.850   124570923.164        2631.793          42.000  
  24285235.382                       -3020.618          33.000  
  23017307.657   120956759.479       -2526.911          38.000  
 16  5 20 10 29 21.0000000  0 11G 1G 3G 6G11G17G 8G28G22G19G 7G30
  21675254.983   113904237.254       -2222.005          50.000  
  21519580.317   113086156.210        1577.572          49.000  
  23517173.785                        3139.013          35.000  
  22505432.933   118266861.240       -2376.259          50.000  
  22288558.137   117127151.104        1841.982          48.000  
  24872469.429                       -1920.598          30.000  
  20674546.124   108645477.389        1618.641          48.000  
  22169209.240   116499975.775        -291.409          50.000  
  23704560.593   124568291.888        2633.368          42.000  
  24285809.948   127622792.3473      -3017.318          32.000  
  23017788.445   120959285.800       -2525.739          39.000  
 16  5 20 10 29 22.0000000  0 11G 1G 3G 6G11G17G 8G28G22G19G 7G30
  21675678.116   113906461.730       -2225.339          50.000  
  21519280.522   113084579.725        1576.122          49.000  
  23516576.255   123580441.7983       3137.814          35.000  
  22505885.034   118269238.113       -2377.375          49.000  
  22288207.597   117125309.921        1841.200          48.000  
  24872825.413   130707578.7953      -1924.156          42.000  
  20674238.512   108643859.244        1618.016          48.000  
  22169264.906   116500268.926        -294.148          50.000  
  23704060.417   124565660.881        2630.237          43.000  
  24286383.606                       -3023.730          31.000  
  23018269.041   120961811.516       -2525.564          38.000  
 16  5 20 10 29 23.0000000  0 11G 1G 3G 6G11G17G 8G28G22G19G 7G30
  21676101.598   113908687.182       -2225.728          50.000  
  21518980.483   113083003.871        1575.730          50.000  
  23515979.458   123577306.0862       3141.466          35.000  
  22506337.413   118271616.059       -2378.885          48.000  
  22287856.813   117123468.767        1841.144          47.000  
  24873195.358   130709523.2473      -1926.126          37.000  
  20673930.672   108642241.595        1617.702          47.000  
  22169321.201   116500563.190        -294.431          50.000  
  23703559.212   124563029.221        2631.586          42.000  
  24286957.579   127628822.7722      -3017.356          35.000  
  23018749.324   120964336.230       -2523.099          37.000  
 16  5 20 10 29 24.0000000  0 11G 1G 3G 6G11G17G 8G28G22G19G 7G30
  21676525.656   113910914.819       -2229.441          52.000  
  21518680.671   113081428.651        1575.459          49.000  
  23515379.589   123574163.7022       3143.820          34.000  
  22506790.403   118273996.091       -2380.546          48.000  
  22287506.640   117121628.436        1838.997          48.000  
  24873560.033   130711439.2952      -1923.736          36.000  
  20673622.885   108640624.902        1615.761          47.000  
  22169377.251   116500859.414        -298.042          49.000  
  23703058.583   124560397.778        2630.591          41.000  
  24287533.314   127631848.1363      -3013.052          35.000  
  23019229.205   120966858.914       -2520.788          37.000  
 16  5 20 10 29 25.0000000  0 11G 1G 3G 6G11G17G 8G28G22G19G 7G30
  21676950.115   113913145.505       -2232.142          50.000  
  21518380.824   113079852.539        1575.906          49.000  
  23514784.502   123571018.6322       3147.102          34.000  
  22507243.463   118276379.062       -2384.288          49.000  
  22287156.815   117119790.401        1837.297          47.000  
  24873927.203   130713365.6082      -1926.685          43.000  
  20673315.221   108639009.607        1614.480          48.000  
  22169433.859   116501157.189        -298.525          50.000  
  23702557.657   124557767.756        2629.553          39.000  
  24288106.571   127634858.1392      -3007.484          32.000  
  23019708.649   120969377.731       -2516.686          40.000  
 16  5 20 10 29 26.0000000  0 11G 1G 3G 6G11G17G 8G28G22G19G 7G30
  21677375.394   113915379.134       -2234.282          50.000  
  21518081.256   113078276.761        1575.402          50.000  
  23514184.912   123567870.7022       3150.157          33.000  
  22507697.309   118278764.919       -2385.596          51.000  
  22286807.025   117117953.443        1837.841          47.000  
  24874295.734   130715293.2252      -1928.432          47.000  
  20673007.957   108637395.329        1614.562          46.000  
  22169491.044   116501457.281        -300.721          50.000  
  23702057.534   124555137.734        2631.458          40.000  
  24288675.518   127637850.7453      -3002.249          37.000  
  23020187.204   120971893.073       -2513.644          40.000  
 16  5 20 10 29 27.0000000  0 10G 1G 3G 6G11G17G 8G28G22G19G30
  21677800.516   113917614.128       -2236.433          50.000  
  21517781.775   113076703.265        1571.298          49.000  
  23513583.630   123564719.6362       3153.051          33.000  
  22508152.114   118281152.894       -2389.550          49.000  
  22286456.869   117116113.934        1841.377          48.000  
  24874662.799   130717224.0582      -1933.998          45.000  
  20672700.764   108635780.282        1615.001          48.000  
  22169548.821   116501760.150        -305.593          51.000  
  23701556.067   124552504.019        2635.516          42.000  
  23020665.689   120974406.131       -2511.501          39.000  
 16  5 20 10 29 28.0000000  0 10G 1G 3G 6G11G17G 8G28G22G19G30
  21678226.441   113919852.547       -2239.990          51.000  
  21517482.853   113075134.447        1565.978          49.000  
  23512986.675                        3159.814          33.000  
  22508607.128   118283545.755       -2395.817          50.000  
  22286106.504   117114270.828        1845.545          48.000  
  24875030.283   130719161.9092      -1944.586          38.000  
  20672393.291   108634164.457        1617.093          48.000  
  22169607.437   116502068.718        -312.542          49.000  
  23701053.448   124549864.521        2642.749          42.000  
  23021143.424   120976915.737       -2507.732          35.000  
 16  5 20 10 29 29.0000000  0 11G 1G 3G 6G11G17G 8G28G22G19G 7G30
  21678653.204   113922095.568       -2246.981          51.000  
  21517185.676   113073571.990        1559.417          48.000  
  23512382.357   123558402.8913       3168.815          38.000  
  22509063.765   118285945.346       -2404.253          50.000  
  22285754.707   117112422.431        1849.715          49.000  
  24875402.845   130721109.2612      -1952.157          40.000  
  20672085.521   108632547.272        1617.528          48.000  
  22169667.570   116502385.063        -320.724          47.000  
  23700549.573   124547216.582        2651.965          43.000  
  24290400.071                       -2993.310          33.000  
  23021620.199   120979420.486       -2500.194          39.000  
 16  5 20 10 29 30.0000000  0 10G 1G 3G11G17G 8G28G22G19G 7G30
  21679081.502   113924346.001       -2254.035          49.000  
  21516889.127   113072013.771        1557.579          48.000  
  22509522.095   118288354.087       -2413.217          44.000  
  22285403.051   117110572.501        1849.390          50.000  
  24875775.739   130723065.2412      -1959.105          37.000  
  20671777.909   108630930.513        1616.383          49.000  
  22169729.571   116502709.538        -326.706          49.000  
  23700044.703   124544563.549        2654.639          45.000  
  24290972.176                       -2970.922          33.000  
  23022095.089   120981917.011       -2491.359          42.000  
 16  5 20 10 29 31.0000000  0  8G 1G 3G11G17G 8G28G22G19
  21679511.371   113926604.255       -2261.802          48.000  
  21516593.067   113070456.892        1557.366          47.000  
  22509982.153   118290770.956       -2420.509          42.000  
  22285051.429   117108725.075        1845.163          51.000  
  24876148.703   130725042.7853      -1963.721          35.000  
  20671470.576   108629315.984        1613.372          50.000  
  22169792.531   116503040.176        -332.868          46.000  
  23699539.572   124541910.017        2652.563          46.000  
 16  5 20 10 29 32.0000000  0 11G 1G 3G30G11G17G 8G28G22G19G 7G 6
  21679942.513   113928869.073       -2267.678          47.000  
  21516296.884   113068898.752        1558.768          46.000  
  23023039.966                       -2478.516          46.000  
  22510443.222   118293193.961       -2425.142          43.000  
  22284700.854   117106882.677        1839.865          51.000  
  24876525.592                       -1948.389          32.000  
  20671164.324   108627704.570        1609.883          49.000  
  22169856.277   116503374.282        -335.148          45.000  
  23699034.999   124539259.607        2648.334          45.000  
  24292095.237   127655821.7282      -2972.384          39.000  
  23510564.411   123548849.4423       3186.217          44.000  
 16  5 20 10 29 33.0000000  0  8G 1G 3G30G17G 8G28G19G 6
  21680374.266   113931138.045       -2270.656          46.000  
  21515999.864   113067338.782        1560.903          47.000  
  23023515.222   120989388.5183      -2476.056          47.000  
  22284351.256   117105045.492        1834.753          49.000  
  24876895.415                       -1945.687          30.000  
  20670857.933   108626096.122        1606.699          48.000  
  23698531.647   124536614.042        2639.764          41.000  
  23509959.865   123545662.8532       3186.328          47.000  
 16  5 20 10 29 34.0000000  0 10G 1G 3G30G17G 8G28G22G19G 7G11
  21680806.631   113933409.362       -2272.034          46.000  
  21515702.791   113065776.464        1562.737          46.000  
  23023983.028   120991863.9512      -2474.707          47.000  
  22284002.217   117103213.023        1831.403          49.000  
  24877271.240                       -1963.530          29.000  
  20670552.153   108624490.209        1605.178          48.000  
  22169984.012                        -336.804          45.000  
  23698029.622   124533972.792        2640.149          41.000  
  24293221.160   127661738.4543      -2963.123          46.000  
  22511369.061                       -2426.953          39.000  
 16  5 20 10 29 35.0000000  0 11G 1G 3G30G 6G17G 8G28G22G19G 7G11
  21681239.082   113935682.883       -2274.728          46.000  
  21515405.143   113064214.204        1562.037          47.000  
  23024454.027   120994338.0202      -2472.418          48.000  
  23508741.718                        3186.914          46.000  
  22283653.998   117101382.782        1829.994          48.000  
  24877643.331   130732897.9612      -1960.007          33.000  
  20670246.827   108622885.981        1604.167          47.000  
  22170046.955   116504388.2803       -337.787          47.000  
  23697527.457   124531333.945        2638.739          40.000  
  24293788.624   127664700.2362      -2960.314          48.000  
  22511829.101   118300460.0873      -2431.232          40.000  
 16  5 20 10 29 36.0000000  0 10G 1G 3G30G 6G17G28G22G19G 7G11
  21681672.388   113937958.843       -2276.858          46.000  
  21515107.966   113062652.773        1561.085          47.000  
  23024924.275   120996809.2242      -2470.946          49.000  
  23508139.319   123536105.0953       3189.108          47.000  
  22283305.936   117099552.703        1829.362          48.000  
  20669941.727   108621282.268        1604.060          46.000  
  22170112.045   116504727.3132       -339.763          47.000  
  23697024.961   124528706.4103       2640.509          43.000  
  24294348.688   127667658.7722      -2957.763          47.000  
  22512291.288   118302892.2392      -2433.392          41.000  
 16  5 20 10 29 37.0000000  0 10G 1G 3G30G 6G17G28G22G19G 7G11
  21682105.834   113940235.912       -2277.728          46.000  
  21514810.666   113061092.416        1560.040          47.000  
  23025394.244   120999280.0582      -2470.582          48.000  
  23507533.622   123532915.2332       3190.041          46.000  
  22282957.891   117097722.902        1829.347          48.000  
  20669636.802   108619679.301        1602.445          48.000  
  22170177.954   116505067.7712       -341.232          46.000  
  23696520.946   124526057.3263       2640.045          43.000  
  24294913.500   127670616.7972      -2957.737          48.000  
  22512755.813   118305325.5162      -2433.929          41.000  
 16  5 20 10 29 38.0000000  0 10G 1G 3G30G 6G17G28G22G19G 7G11
  21682539.228   113942513.923       -2278.758          47.000  
  21514514.048   113059532.930        1558.616          47.000  
  23025864.092   121001750.7002      -2471.031          49.000  
  23506925.552   123529725.2932       3189.297          48.000  
  22282609.742   117095893.421        1829.114          48.000  
  20669331.912   108618077.061        1601.270          48.000  
  22170241.822   116505409.4252       -342.991          46.000  
  23696017.385   124523417.7252       2640.082          42.000  
  24295476.479   127673574.2872      -2958.190          48.000  
  22513218.191   118307759.6662      -2435.415          41.000  
 16  5 20 10 29 39.0000000  0 11G 1G 3G30G 6G17G 8G28G22G19G 7G11
  21682972.586   113944791.488       -2277.571          46.000  
  21514217.743   113057973.718        1558.628          47.000  
  23026334.811   121004222.0882      -2472.010          48.000  
  23506318.389   123526536.1832       3188.551          47.000  
  22282262.483   117094063.884        1829.899          45.000  
  24879136.285                       -1958.611          32.000  
  20669027.440   108616475.097        1601.687          48.000  
  22170307.487   116505750.9612       -341.910          47.000  
  23695518.361   124520789.4323       2639.343          41.000  
  24296039.981   127676532.1792      -2958.823          48.000  
  22513683.204   118310193.1242      -2433.071          41.000  
 16  5 20 10 29 40.0000000  0 10G 1G 3G30G 6G17G28G22G19G 7G11
  21683405.928   113947068.168       -2276.369          46.000  
  21513920.932   113056414.786        1558.735          47.000  
  23026805.531   121006694.6902      -2473.347          48.000  
  23505712.517   123523348.3332       3187.247          48.000  
  22281913.304   117092234.159        1830.040          47.000  
  20668722.568   108614873.317        1601.555          48.000  
  22170373.152   116506092.1782       -341.030          47.000  
  23695014.887   124518150.0512       2637.988          43.000  
  24296603.710   127679491.0592      -2959.689          48.000  
  22514145.286   118312625.5722      -2432.391          41.000  
 16  5 20 10 29 41.0000000  0 10G 1G 3G30G 6G17G28G22G19G 7G11
  21683839.129   113949344.274       -2275.233          46.000  
  21513624.191   113054856.381        1558.445          47.000  
  23027276.006   121009168.6172      -2474.577          49.000  
  23505106.558   123520161.8602       3185.765          48.000  
  22281565.573   117090404.391        1829.606          48.000  
  20668418.044   108613271.906        1601.503          48.000  
  22170437.247   116506433.3462       -340.761          47.000  
  23694512.443   124515511.0432       2638.885          46.000  
  24297165.555   127682450.9442      -2959.982          47.000  
  22514607.455   118315057.1162      -2430.565          41.000  
 16  5 20 10 29 42.0000000  0 11G 1G 3G30G 6G17G 8G28G22G19G 7G11
  21684272.087   113951619.778       -2275.535          46.000  
  21513327.921   113053298.274        1557.739          47.000  
  23027747.145   121011643.4222      -2475.364          49.000  
  23504499.256   123516976.3072       3184.985          47.000  
  22281216.883   117088574.339        1829.951          48.000  
  24880262.016                       -1962.097          29.000  
  20668113.241   108611670.684        1601.013          48.000  
  22170501.900   116506774.3512       -341.068          46.000  
  23694011.692   124512872.0912       2638.666          46.000  
  24297729.162   127685411.5552      -2961.240          47.000  
  22515069.956   118317487.8302      -2430.808          41.000  
 16  5 20 10 29 43.0000000  0 10G 1G 3G30G 6G17G28G22G19G 7G11
  21684704.957   113953895.514       -2276.771          46.000  
  21513031.826   113051740.862        1556.763          47.000  
  23028218.091   121014118.4682      -2474.297          49.000  
  23503892.739   123513791.0372       3186.319          47.000  
  22280868.612   117086744.375        1829.821          48.000  
  20667808.438   108610069.937        1600.296          48.000  
  22170566.920   116507115.9642       -342.524          46.000  
  23693509.440   124510233.1612       2639.429          46.000  
  24298292.385   127688372.1412      -2960.012          47.000  
  22515532.439   118319918.7232      -2431.687          42.000  
 16  5 20 10 29 44.0000000  0 10G 1G 3G30G 6G17G28G22G19G 7G11
  21685138.612   113956173.835       -2280.522          46.000  
  21512735.487   113050184.277        1555.908          47.000  
  23028688.654   121016590.5152      -2470.271          49.000  
  23503286.675   123510602.9872       3190.213          46.000  
  22280520.218   117084914.690        1828.992          48.000  
  20667504.124   108608469.837        1599.240          48.000  
  22170632.497   116507460.0592       -346.517          46.000  
  23693005.041   124507593.4742       2640.131          45.000  
  24298855.277   127691329.2522      -2955.084          48.000  
  22515995.585   118322352.3762      -2436.044          42.000  
 16  5 20 10 29 45.0000000  0 11G 1G 3G30G 6G17G 8G28G22G19G 7G11
  21685572.704   113958455.347       -2282.607          46.000  
  21512439.531   113048628.790        1555.449          48.000  
  23029158.344   121019058.8982      -2467.772          49.000  
  23502679.739   123507411.5052       3192.547          46.000  
  22280172.173   117083085.363        1828.830          48.000  
  24881375.287                       -1962.634          31.000  
  20667199.722   108606870.474        1598.904          48.000  
  22170698.372   116507807.1042       -348.229          46.000  
  23692503.382   124504952.8372       2641.016          45.000  
  24299417.296   127694282.5232      -2951.942          47.000  
  22516459.586   118324789.4942      -2438.589          42.000  
 16  5 20 10 29 46.0000000  0 11G 1G 3G30G 6G17G 8G28G22G19G 7G11
  21686007.267   113960739.044       -2284.409          46.000  
  21512143.558   113047074.152        1554.574          47.000  
  23029627.650   121021525.0122      -2465.016          49.000  
  23502071.756   123504218.1722       3194.326          43.000  
  22279823.867   117081256.471        1829.008          49.000  
  24881749.594   130754476.1133      -1966.164          31.000  
  20666894.919   108605271.811        1598.664          48.000  
  22170764.805   116508156.2862       -349.730          46.000  
  23692002.020   124502311.8072       2642.175          47.000  
  24299978.652   127697233.2202      -2949.182          47.000  
  22516923.797   118327228.9142      -2440.315          42.000  
 16  5 20 10 29 47.0000000  0 11G 1G 3G30G 6G17G 8G28G22G19G 7G11
  21686442.109   113963024.757       -2286.876          46.000  
  21511847.742   113045520.129        1554.081          47.000  
  23030096.467   121023988.7732      -2462.583          48.000  
  23501463.738   123501022.4342       3196.750          48.000  
  22279476.084   117079427.932        1828.306          46.000  
  24882126.467                       -1958.936          30.000  
  20666591.128   108603673.768        1597.458          48.000  
  22170831.500   116508507.3922       -352.389          45.000  
  23691498.773   124499670.3022       2640.302          45.000  
  24300539.694   127700181.0262      -2945.787          47.000  
  22517388.409   118329670.4032      -2442.506          42.000  
 16  5 20 10 29 48.0000000  0 11G 1G 3G30G 6G17G 8G28G22G19G 7G11
  21686877.352   113965312.365       -2287.985          46.000  
  21511552.240   113043966.777        1553.308          47.000  
  23030564.901   121026450.6942      -2461.462          49.000  
  23500856.139   123497825.3622       3197.282          48.000  
  22279128.389   117077599.899        1827.607          48.000  
  24882495.259   130758395.0012      -1969.621          30.000  
  20666286.919   108602076.411        1597.239          48.000  
  22170898.683   116508860.2262       -352.685          46.000  
  23690995.666   124497028.7482       2638.794          44.000  
  24301100.160   127703126.6972      -2945.148          47.000  
  22517853.440   118332113.8632      -2444.187          41.000  
 16  5 20 10 29 49.0000000  0 10G 1G 3G30G 6G17G28G22G19G 7G11
  21687313.136   113967601.410       -2289.313          46.000  
  21511256.546   113042414.313        1552.499          47.000  
  23031033.143   121028911.9932      -2460.323          48.000  
  23500246.970   123494627.8742       3198.406          48.000  
  22278780.641   117075772.674        1826.766          48.000  
  20665983.232   108600480.099        1596.246          48.000  
  22170966.233   116509214.5952       -355.032          45.000  
  23690492.698   124494378.5463       2639.594          42.000  
  24301660.382   127706071.2742      -2943.480          49.000  
  22518318.855   118334558.6162      -2444.938          42.000  
 16  5 20 10 29 50.0000000  0 11G 1G 3G30G 6G17G 8G28G22G19G 7G11
  21687748.973   113969891.433       -2290.452          46.000  
  21510961.271   113040862.421        1551.658          47.000  
  23031501.611   121031372.2012      -2459.618          49.000  
  23499638.515   123491429.4212       3199.410          46.000  
  22278433.661   117073945.337        1826.917          49.000  
  24883253.751                       -1965.000          31.000  
  20665679.564   108598884.114        1595.850          48.000  
  22171033.852   116509570.0832       -356.332          46.000  
  23689990.185   124491737.8432       2641.272          46.000  
  24302220.621   127709014.4362      -2942.477          49.000  
  22518784.374   118337004.3822      -2445.831          41.000  
 16  5 20 10 29 51.0000000  0 10G 1G 3G30G 6G17G28G22G19G 7G11
  21688185.071   113972182.411       -2291.525          46.000  
  21510666.048   113039311.393        1550.799          47.000  
  23031969.644   121033831.7072      -2459.513          49.000  
  23499029.450   123488230.3662       3199.201          48.000  
  22278085.319   117072118.115        1827.025          47.000  
  20665376.262   108597288.666        1594.935          48.000  
  22171101.926   116509926.8332       -357.575          46.000  
  23689488.037   124489095.9882       2641.278          47.000  
  24302780.529   127711956.6552      -2941.561          47.000  
  22519250.190   118339451.1212      -2447.534          41.000  
 16  5 20 10 29 52.0000000  0 10G 1G 3G30G 6G17G28G22G19G 7G11
  21688621.100   113974474.077       -2291.527          46.000  
  21510371.226   113037761.112        1550.024          48.000  
  23032437.432   121036290.9282      -2459.524          49.000  
  23498420.560   123485031.0502       3199.301          46.000  
  22277737.519   117070290.955        1827.126          48.000  
  20665072.680   108595693.673        1594.630          48.000  
  22171170.121   116510284.5572       -357.802          46.000  
  23688985.261   124486453.9662       2641.949          45.000  
  24303340.314   127714898.4622      -2942.494          44.000  
  22519715.657   118341898.4662      -2447.620          41.000  
 16  5 20 10 29 53.0000000  0 11G 1G 3G30G 6G17G 8G28G22G19G 7G11
  21689057.059   113976765.455       -2291.207          46.000  
  21510075.916   113036211.566        1548.928          47.000  
  23032905.865   121038751.3452      -2461.246          48.000  
  23497812.298   123481833.0422       3196.997          47.000  
  22277389.405   117068463.861        1826.951          48.000  
  24884379.708                       -1948.530          32.000  
  20664769.168   108594099.231        1594.052          48.000  
  22171238.352   116510642.5212       -357.981          46.000  
  23688482.660   124483812.4422       2638.843          44.000  
  24303900.362   127717841.2112      -2943.517          45.000  
  22520181.142   118344345.3532      -2446.605          41.000  
 16  5 20 10 29 54.0000000  0 11G 1G 3G30G 6G17G 8G28G22G19G 7G11
  21689493.052   113979056.546       -2291.421          46.000  
  21509781.077   113034662.882        1547.249          46.000  
  23033374.316   121041213.4752      -2463.100          48.000  
  23497203.756   123478636.6232       3195.598          46.000  
  22277042.285   117066636.956        1826.012          49.000  
  24884751.939                       -1959.276          32.000  
  20664465.814   108592505.433        1592.891          47.000  
  22171306.128   116511000.7262       -358.544          46.000  
  23687982.432   124481187.4013       2641.791          41.000  
  24304460.584   127720785.3292      -2944.812          47.000  
  22520646.696   118346791.7352      -2447.112          42.000  
 16  5 20 10 29 55.0000000  0 11G 1G 3G30G 6G17G 8G28G22G19G 7G11
  21689928.959   113981347.400       -2290.669          46.000  
  21509486.745   113033115.003        1547.079          46.000  
  23033843.273   121043676.988       -2464.717          49.000  
  23496595.337   123475441.1721       3194.690          47.000  
  22276694.554   117064810.224        1827.267          47.000  
  24885126.107                       -1971.353          29.000  
  20664162.651   108590912.183        1592.777          48.000  
  22171374.533   116511358.7791       -358.616          46.000  
  23687477.074   124478531.3643       2640.588          46.000  
  24305020.823   127723730.807       -2946.451          40.000  
  22521111.745   118349237.2171      -2446.210          42.000  
 16  5 20 10 29 56.0000000  0 11G 1G 3G30G 6G17G 8G28G22G19G 7G11
  21690364.900   113983638.328       -2290.814          46.000  
  21509192.499   113031568.162        1546.788          47.000  
  23034312.265   121046141.972       -2465.553          48.000  
  23495987.424   123472247.761        3192.746          44.000  
  22276346.615   117062983.805        1826.935          49.000  
  24885498.651                       -1967.725          28.000  
  20663859.925   108589319.811        1592.285          48.000  
  22171442.903   116511717.870        -358.957          46.000  
  23686973.722   124475891.3792       2640.826          44.000  
  24305581.446   127726677.324       -2946.231          46.000  
  22521577.124   118351683.055       -2445.662          42.000  
 16  5 20 10 29 57.0000000  0 11G 1G 3G30G 6G17G 8G28G22G19G 7G11
  21690800.929   113985929.047       -2290.773          46.000  
  21508898.568   113030022.101        1545.793          47.000  
  23034781.449   121048608.409       -2467.181          49.000  
  23495379.859   123469055.767        3191.667          48.000  
  22275999.373   117061157.692        1826.613          48.000  
  24885868.264   130776120.3463      -1972.097          28.000  
  20663556.815   108587728.089        1591.541          48.000  
  22171511.203   116512077.234        -359.292          46.000  
  23686471.697   124473252.0782       2641.522          39.000  
  24306142.627   127729625.173       -2948.346          48.000  
  22522042.644   118354128.460       -2445.235          42.000  
 16  5 20 10 29 58.0000000  0 10G 1G 3G30G 6G17G28G22G19G 7G11
  21691236.695   113988219.292       -2290.157          46.000  
  21508604.566   113028476.600        1545.613          47.000  
  23035250.982   121051076.080       -2467.992          49.000  
  23494772.452   123465865.040        3190.682          45.000  
  22275652.288   117059331.570        1826.176          47.000  
  20663253.687   108586136.775        1591.038          47.000  
  22171579.643   116512436.682        -359.603          46.000  
  23685971.364   124470613.2642       2637.665          44.000  
  24306703.774   127732573.976       -2949.297          48.000  
  22522507.954   118356573.228       -2444.237          42.000  
 16  5 20 10 29 59.0000000  0 11G 1G 3G30G 6G17G 8G28G22G19G 7G11
  21691672.201   113990508.814       -2288.722          46.000  
  21508310.513   113026931.439        1546.608          46.000  
  23035720.638   121053544.681       -2468.605          49.000  
  23494165.551   123462675.310        3189.560          48.000  
  22275304.278   117057505.127        1827.009          47.000  
  24886619.217                       -1967.856          25.000  
  20662951.083   108584545.596        1591.673          47.000  
  22171647.926   116512795.878        -358.825          46.000  
  23685468.275   124467975.6013       2639.441          46.000  
  24307264.973   127735523.446       -2949.194          46.000  
  22522972.967   118359017.059       -2442.828          41.000  
 16  5 20 10 30  0.0000000  0 10G 1G 3G30G 6G17G28G22G19G 7G11
  21692107.793   113992797.706       -2288.055          46.000  
  21508016.267   113025386.703        1544.829          47.000  
  23036190.851   121056014.333       -2469.374          50.000  
  23493559.017   123459486.707        3187.908          47.000  
  22274956.792   117055678.492        1826.304          48.000  
  20662648.374   108582954.688        1590.922          48.000  
  22171716.522   116513154.928        -358.146          46.000  
  23684965.883   124465336.7952       2639.087          46.000  
  24307826.347   127738473.801       -2950.087          48.000  
  22523438.016   118361460.083       -2442.637          41.000  
 16  5 20 10 30  1.0000000  0 10G 1G 3G30G 6G17G28G22G19G 7G11
  21692543.298   113995086.248       -2288.220          46.000  
  21507722.493   113023842.263        1544.454          47.000  
  23036660.733   121058484.387       -2469.511          48.000  
  23492952.552   123456298.474        3187.433          47.000  
  22274609.166   117053851.561        1826.885          48.000  
  20662345.769   108581363.880        1590.844          48.000  
  22171784.386   116513514.163        -359.949          42.000  
  23684464.346   124462697.8572       2638.525          42.000  
  24308387.930   127741424.212       -2950.007          48.000  
  22523902.837   118363902.566       -2442.218          42.000  
 16  5 20 10 30  2.0000000  0 11G 1G 3G30G 6G17G 8G28G22G19G 7G11
  21692978.995   113997374.864       -2288.715          46.000  
  21507428.858   113022298.313        1543.522          47.000  
  23037130.860   121060954.530       -2470.143          48.000  
  23492346.296   123453110.403        3187.928          48.000  
  22274262.186   117052024.582        1826.799          48.000  
  24887744.512                       -1973.000          31.000  
  20662043.008   108579773.381        1590.128          48.000  
  22171852.966   116513873.694        -359.627          45.000  
  23683960.140                        2638.465          38.000  
  24308949.495   127744374.532       -2949.747          48.000  
  22524367.414   118366345.010       -2441.875          42.000  
 16  5 20 10 30  3.0000000  0 11G 1G 3G30G 6G17G 8G28G22G19G 7G11
  21693414.709   113999664.098       -2289.392          47.000  
  21507135.275   113020754.734        1543.499          46.000  
  23037600.899   121063424.301       -2469.749          49.000  
  23491739.500   123449922.188        3188.021          46.000  
  22273914.333   117050197.911        1825.538          47.000  
  24888116.498   130787934.6213      -1968.990          30.000  
  20661740.526   108578183.435        1589.685          48.000  
  22171921.528   116514234.015        -360.614          46.000  
  23683462.355   124457433.8133       2636.760          37.000  
  24309510.397   127747323.946       -2948.479          48.000  
  22524832.515   118368787.964       -2442.533          42.000  
 16  5 20 10 30  4.0000000  0 11G 1G 3G30G 6G17G 8G28G22G19G 7G11
  21693850.494   114001954.038       -2290.115          46.000  
  21506841.501   113019211.747        1542.786          48.000  
  23038071.007   121065893.654       -2469.275          48.000  
  23491132.895   123446733.784        3188.648          46.000  
  22273566.620   117048371.489        1826.453          48.000  
  24888492.847                       -1969.549          31.000  
  20661438.131   108576594.036        1589.387          48.000  
  22171990.264   116514595.226        -360.993          45.000  
  23682957.363   124454780.0423       2639.670          41.000  
  24310071.439   127750272.743       -2948.312          49.000  
  22525297.267   118371231.461       -2443.443          41.000  
 16  5 20 10 30  5.0000000  0 10G 1G 3G30G 6G17G28G22G19G 7G11
  21694286.365   114004244.594       -2291.133          47.000  
  21506548.180   113017669.397        1541.971          47.000  
  23038540.698   121068362.532       -2468.869          49.000  
  23490525.924   123443544.971        3188.583          48.000  
  22273219.239   117046544.979        1826.726          48.000  
  20661135.719   108575005.029        1588.654          48.000  
  22172059.402   116514957.356        -362.559          45.000  
  23682462.265   124452141.0432       2637.917          35.000  
  24310632.516   127753220.754       -2947.620          49.000  
  22525762.385   118373675.633       -2444.012          39.000  
 16  5 20 10 30  6.0000000  0 10G 1G 3G30G 6G17G 8G28G22G 7G11
  21694722.289   114006535.928       -2291.759          46.000  
  21506254.493   113016127.817        1541.472          47.000  
  23039010.388   121070830.748       -2467.481          49.000  
  23489918.378   123440355.548        3190.392          48.000  
  22272871.578   117044718.439        1827.103          48.000  
  24889245.021                       -1953.711          31.000  
  20660833.464   108573416.422        1588.500          48.000  
  22172128.644   116515320.547        -363.329          46.000  
  24311193.558   127756167.891       -2946.322          49.000  
  22526227.538   118376120.523       -2445.709          41.000  
 16  5 20 10 30  7.0000000  0 10G 1G 3G30G 6G17G 8G28G22G 7G11
  21695158.545   114008828.077       -2292.653          46.000  
  21505961.329   113014586.940        1540.543          48.000  
  23039479.973   121073298.473       -2467.340          48.000  
  23489311.529   123437165.809        3189.202          46.000  
  22272524.284   117042892.041        1827.195          48.000  
  24889622.818   130795850.3662      -1970.633          31.000  
  20660531.121   108571828.298        1587.811          48.000  
  22172197.869   116515684.820        -364.462          46.000  
  24311754.146   127759114.233       -2946.251          48.000  
  22526692.952   118378566.229       -2446.062          41.000  
 16  5 20 10 30  8.0000000  0 10G 1G 3G30G 6G17G28G22G19G 7G11
  21695594.818   114011121.002       -2293.484          47.000  
  21505668.079   113013046.620        1539.816          47.000  
  23039949.384   121075765.670       -2466.893          48.000  
  23488704.994   123433975.710        3189.898          47.000  
  22272176.885   117041065.941        1825.113          48.000  
  20660229.006   108570240.731        1587.032          48.000  
  22172267.199   116516050.061        -366.034          46.000  
  23680947.691   124444219.1883       2642.480          43.000  
  24312314.892   127762059.809       -2946.231          48.000  
  22527158.646   118381012.595       -2446.729          41.000  
 16  5 20 10 30  9.0000000  0 10G 1G 3G30G 6G17G28G22G19G 7G11
  21696031.387   114013414.758       -2293.957          46.000  
  21505374.985   113011506.988        1540.099          47.000  
  23040419.091   121078232.726       -2466.314          49.000  
  23488098.076   123430785.647        3189.348          47.000  
  22271829.102   117039240.295        1825.303          48.000  
  20659927.117   108568653.916        1586.880          48.000  
  22172336.860   116516416.294        -366.860          46.000  
  23680446.992   124441580.3602       2638.476          45.000  
  24312874.921   127765004.771       -2944.702          47.000  
  22527624.148   118383459.685       -2447.033          41.000  
 16  5 20 10 30 10.0000000  0 11G 1G 3G30G 6G17G 8G28G22G19G 7G11
  21696467.817   114015709.303       -2294.813          46.000  
  21505082.275   113009967.973        1538.741          47.000  
  23040888.589   121080699.331       -2465.835          48.000  
  23487490.930   123427595.395        3190.076          47.000  
  22271481.703   117037414.956        1825.806          49.000  
  24890740.819   130801725.3422      -1969.432          30.000  
  20659625.438   108567067.767        1585.649          48.000  
  22172406.382   116516783.404        -367.817          46.000  
  23679944.600   124438941.6472       2637.365          46.000  
  24313435.126   127767948.920       -2944.124          48.000  
  22528089.860   118385907.477       -2448.102          41.000  
 16  5 20 10 30 11.0000000  0 11G 1G 3G30G 6G17G 8G28G22G19G 7G11
  21696904.613   114018004.436       -2296.193          46.000  
  21504789.355   113008429.426        1537.866          46.000  
  23041357.477   121083165.410       -2466.343          48.000  
  23486883.226   123424404.651        3190.265          47.000  
  22271134.339   117035589.635        1825.161          47.000  
  24891116.889                       -1981.636          29.000  
  20659323.619   108565481.907        1585.361          48.000  
  22172476.514   116517151.336        -368.825          46.000  
  23679441.982   124436302.6212       2637.576          44.000  
  24313995.313   127770892.246       -2943.390          49.000  
  22528555.816   118388355.776       -2449.203          41.000  
 16  5 20 10 30 12.0000000  0 11G 1G 3G30G 6G17G 8G28G22G19G 7G11
  21697341.340   114020300.041       -2295.712          46.000  
  21504496.698   113006891.515        1537.972          47.000  
  23041826.766   121085631.444       -2466.122          49.000  
  23486276.220   123421214.126        3189.595          48.000  
  22270786.818   117033764.592        1825.018          48.000  
  24891492.190   130805674.0473      -1971.111          30.000  
  20659022.026   108563896.598        1585.080          48.000  
  22172546.786   116517520.041        -368.946          46.000  
  23678939.206   124433663.8102       2638.603          46.000  
  24314555.116   127773835.278       -2943.502          47.000  
  22529021.632   118390804.433       -2448.627          41.000  
 16  5 20 10 30 13.0000000  0 11G 1G 3G30G 6G17G 8G28G22G19G 7G11
  21697778.206   114022594.847       -2293.719          46.000  
  21504204.215   113005354.264        1537.441          47.000  
  23042296.403   121088099.080       -2468.325          48.000  
  23485669.319   123418025.006        3189.048          44.000  
  22270440.030   117031939.215        1826.044          48.000  
  24891871.366                       -1951.660          33.000  
  20658720.330   108562311.597        1585.096          48.000  
  22172616.866   116517888.598        -367.738          46.000  
  23678441.369   124431048.4233       2638.777          36.000  
  24315115.686   127776779.737       -2946.056          48.000  
  22529487.361   118393252.137       -2447.235          41.000  
 16  5 20 10 30 14.0000000  0 11G 1G 3G30G 6G17G 8G28G22G19G 7G11
  21698214.863   114024888.598       -2293.241          47.000  
  21503911.662   113003817.227        1537.589          47.000  
  23042766.181   121090567.985       -2469.142          48.000  
  23485062.645   123414837.151        3187.970          48.000  
  22270092.282   117030113.414        1825.857          48.000  
  24892242.864   130809618.6342      -1969.737          33.000  
  20658418.546   108560726.633        1585.051          47.000  
  22172686.755   116518256.688        -367.630          45.000  
  23677937.354   124428399.6243       2639.409          46.000  
  24315676.240   127779725.146       -2945.474          49.000  
  22529952.793   118395698.486       -2445.476          41.000  
