     2.10           OBSERVATION DATA    G (GPS)             RINEX VERSION / TYPE
RTKCONV 2.4.3                           20160720 043102 UTC PGM / RUN BY / DATE 
log: C:\Users\ÎéÏþÛÂ\Documents\Visual Studio 2013\Projects  COMMENT             
format: RINEX                                               COMMENT             
                                                            MARKER NAME         
                                                            MARKER NUMBER       
                                                            OBSERVER / AGENCY   
                                                            REC # / TYPE / VERS 
                                                            ANT # / TYPE        
 -2743147.0714  4692344.2697  3326185.3411                  APPROX POSITION XYZ 
        0.0000        0.0000        0.0000                  ANTENNA: DELTA H/E/N
     1     1                                                WAVELENGTH FACT L1/2
     4    C1    L1    D1    S1                              # / TYPES OF OBSERV 
  2016     5    20    10    18   53.9990000     GPS         TIME OF FIRST OBS   
  2016     5    20    10    34   27.0000000     GPS         TIME OF LAST OBS    
                                                            END OF HEADER       
 16  5 20 10 18 53.9990000  0 10G 1G 8G17G22G28G19G 3G11G 7G30
  21140846.672   111095896.442       -1646.539          49.000  
  24367714.691   128053244.9652      -1460.540          40.000  
  22233588.712   116838292.821        2305.582          49.000  
  21877664.003   114967921.101         484.102          49.000  
  20607541.825   108293367.928        2320.239          49.000  
  23745360.947   124782724.100        3114.027          41.000  
  21452491.245   112733655.406        2361.288          49.000  
  21947944.528   115337220.783       -1881.370          48.000  
  23650009.851   124281648.327       -2586.890          42.000  
  22451480.211   117983304.015       -1914.628          46.000  
 80  1 11 10 22 32.0000000  0  8G 1G 3G 7G11G17G19G22G28
  21480450.769   112880529.2843      -1625.249          48.000  
  21626988.676   113650590.7503       2325.543          48.000  
  24027184.023   126263704.4253      -2495.625          43.000  
  22296683.657   117169860.9983      -1830.891          47.000  
  22408178.804   117755774.6833       2377.611          47.000  
  23886467.124   125524229.7493       3183.362          45.000  
  22130185.458   116294910.0693        441.804          50.000  
  20783141.324   109216144.0783       2313.574          49.000  
 80  1 11 10 22 33.0000000  0  8G 1G 3G 7G11G17G19G22G28
  21480759.952   112882155.1732      -1626.880          48.000  
  21626546.225   113648265.9872       2323.658          48.000  
  24027658.407   126266200.7402      -2496.985          43.000  
  22297031.684   117171692.5142      -1832.249          47.000  
  22407727.070   117753397.7872       2376.188          48.000  
  23885861.009   125521047.0372       3182.074          45.000  
  22130101.487   116294469.0912        439.968          50.000  
  20782701.404   109213831.1712       2311.963          49.000  
 80  1 11 10 22 34.0000000  0  9G 1G 3G 7G11G17G19G22G28G30
  21481069.676   112883782.4572      -1627.994          48.000  
  21626104.526   113645942.8902       2322.222          48.000  
  24028133.820   126268698.1242      -2498.030          43.000  
  22297380.409   117173525.3052      -1833.479          47.000  
  22407274.848   117751022.0422       2375.078          48.000  
  23885255.975   125517865.5092       3180.896          45.000  
  22130017.726   116294029.8042        438.395          50.000  
  20782261.362   109211519.8132       2310.425          49.000  
  22802782.724   119829430.4143      -1889.048          45.000  
 16  5 20 10 22 39.0000000  0  9G 1G 3G 7G11G17G19G22G28G30
  21482622.553   112891944.3092      -1635.058          48.000  
  21623899.516   113634357.1282       2313.932          48.000  
  24030514.641   126281205.6592      -2503.240          42.000  
  22299128.676   117182712.7522      -1839.810          48.000  
  22405018.238   117739165.5602       2369.231          47.000  
  23882232.812   125501980.2102       3175.104          44.000  
  22129606.477   116291863.3872        429.782          50.000  
  20780067.120   109199990.7042       2302.747          49.000  
  22804584.005   119838896.7842      -1895.657          45.000  
 16  5 20 10 22 40.0000000  0  9G 1G 3G 7G11G17G19G22G28G30
  21482933.917   112893580.1782      -1636.034          48.000  
  21623459.439   113632044.3242       2312.412          48.000  
  24030990.962   126283709.6912      -2504.057          42.000  
  22299478.972   117184553.3582      -1840.910          48.000  
  22404567.412   117736797.0942       2368.271          47.000  
  23881628.511   125498806.0382       3173.944          44.000  
  22129524.845   116291434.5042        428.394          51.000  
  20779629.189   109197688.8242       2301.544          49.000  
  22804945.155   119840793.4562      -1896.911          46.000  
 16  5 20 10 22 41.0000000  0  9G 1G 3G 7G11G17G19G22G28G30
  21483245.509   112895217.4582      -1638.108          48.000  
  21623019.362   113629733.1932       2310.094          48.000  
  24031467.789   126286214.8152      -2505.991          42.000  
  22299829.425   117186395.2252      -1842.694          48.000  
  22404116.812   117734429.8092       2366.517          47.000  
  23881024.384   125495633.0362       3172.180          44.000  
  22129443.736   116291007.3242        426.027          51.000  
  20779191.485   109195388.4932       2299.359          49.000  
  22805306.636   119842691.4822      -1898.948          46.000  
 16  5 20 10 22 42.0000000  0  9G 1G 3G 7G11G17G19G22G28G30
  21483557.571   112896856.5972      -1640.085          48.000  
  21622580.035   113627424.2152       2307.682          48.000  
  24031944.669   126288721.4702      -2507.741          42.000  
  22300180.384   117188238.8392      -1844.697          48.000  
  22403666.893   117732064.1822       2364.291          48.000  
  23880420.711   125492461.7102       3170.215          44.000  
  22129363.047   116290582.3162        423.725          51.000  
  20778754.026   109193090.1862       2297.058          49.000  
  22805668.379   119844591.3552      -1900.981          46.000  
 16  5 20 10 22 43.0000000  0  9G 1G 3G 7G11G17G19G22G28G30
  21483869.720   112898497.0352      -1640.737          48.000  
  21622141.040   113625116.8012       2306.850          48.000  
  24032421.967   126291229.0652      -2507.633          42.000  
  22300531.028   117190083.6122      -1845.124          48.000  
  22403217.288   117729699.5962       2364.443          47.000  
  23879817.335   125489291.4472       3170.013          44.000  
  22129282.619   116290158.8992        422.923          51.000  
  20778317.037   109190793.3092       2296.405          49.000  
  22806030.210   119846492.4732      -1901.382          46.000  
 16  5 20 10 22 44.0000000  0  9G 1G 3G 7G11G17G19G22G28G30
  21484182.236   112900137.9312      -1641.160          48.000  
  21621702.377   113622810.1302       2306.256          48.000  
  24032899.457   126293736.8432      -2507.907          42.000  
  22300882.074   117191928.7112      -1845.304          48.000  
  22402767.736   117727335.2692       2364.114          47.000  
  23879213.889   125486121.4532       3169.824          44.000  
  22129202.330   116289736.2492        422.234          51.000  
  20777880.189   109188497.0522       2295.874          49.000  
  22806391.813   119848394.0192      -1901.841          45.000  
 16  5 20 10 22 45.0000000  0  9G 1G 3G 7G11G17G19G22G28G30
  21484494.700   112901779.7422      -1642.345          48.000  
  21621264.184   113620504.6662       2304.529          49.000  
  24033377.192   126296245.2202      -2509.051          43.000  
  22301233.504   117193774.6052      -1846.514          48.000  
  22402318.218   117724971.6282       2363.042          47.000  
  23878610.600   125482952.1772       3168.713          45.000  
  22129121.972   116289314.8252        420.514          51.000  
  20777443.322   109186201.8522       2294.482          49.000  
  22806753.696   119850296.4522      -1903.047          45.000  
 16  5 20 10 22 46.0000000  0  9G 1G 3G 7G11G17G19G22G28G30
  21484807.390   112903422.5492      -1643.496          48.000  
  21620826.428   113618200.4772       2303.352          49.000  
  24033854.944   126298754.2732      -2509.584          43.000  
  22301585.074   117195621.3602      -1847.359          48.000  
  22401868.544   117722608.7652       2362.343          48.000  
  23878007.730   125479783.6792       3167.834          44.000  
  22129042.120   116288894.6922        419.261          51.000  
  20777006.753   109183907.8032       2293.237          49.000  
  22807115.858   119852199.8422      -1904.106          45.000  
 16  5 20 10 22 47.0000000  0  9G 1G 3G 7G11G17G19G22G28G30
  21485120.395   112905066.8942      -1645.112          48.000  
  21620388.916   113615898.1162       2301.436          49.000  
  24034332.871   126301264.5412      -2510.883          43.000  
  22301936.696   117197469.5202      -1848.771          48.000  
  22401419.445   117720247.2212       2360.872          48.000  
  23877405.069   125476616.5112       3166.534          44.000  
  22128962.372   116288476.4042        417.355          51.000  
  20776570.619   109181615.4432       2291.449          49.000  
  22807478.386   119854104.7502      -1905.638          45.000  
 16  5 20 10 22 48.0000000  0  9G 1G 3G 7G11G17G19G22G28G30
  21485433.452   112906712.4492      -1645.985          48.000  
  21619951.649   113613597.2392       2300.277          49.000  
  24034811.094   126303775.6832      -2511.205          43.000  
  22302288.422   117199318.7622      -1849.560          48.000  
  22400970.974   117717886.6742       2360.140          48.000  
  23876802.548   125473450.3522       3165.778          44.000  
  22128882.677   116288059.6272        416.225          51.000  
  20776134.451   109179324.4422       2290.497          49.000  
  22807841.263   119856010.8152      -1906.529          45.000  
 16  5 20 10 22 49.0000000  0 10G 1G 3G 7G11G17G19G22G28G30G 8
  21485746.840   112908358.204       -1645.953          48.000  
  21619514.241   113611296.851        2299.880          50.000  
  24035289.439   126306286.710       -2511.156          44.000  
  22302640.323   117201167.5721      -1849.628          48.000  
  22400522.312   117715526.093        2360.296          48.000  
  23876200.097   125470283.6671       3165.918          44.000  
  22128803.505   116287643.352         415.770          51.000  
  20775698.667   109177033.2771       2290.155          49.000  
  22808204.036   119857917.041       -1906.419          45.000  
  24703183.488   129816103.2953      -1410.215          38.000  
 16  5 20 10 22 50.0000000  0 10G 1G 3G 7G11G17G19G22G28G30G 8
  21486059.723   112910004.304       -1646.927          48.000  
  21619077.009   113608997.085        2299.025          50.000  
  24035767.680   126308797.756       -2511.727          44.000  
  22302992.172   117203017.098       -1850.182          48.000  
  22400073.597   117713165.640        2359.872          48.000  
  23875597.454   125467117.635        3165.460          44.000  
  22128724.299   116287227.731         414.750          50.000  
  20775262.673   109174743.115        2289.343          49.000  
  22808567.087   119859823.585       -1907.207          45.000  
  24703451.262   129817513.3882      -1410.569          38.000  
 16  5 20 10 22 51.0000000  0 10G 1G 3G 7G11G17G19G22G28G30G 8
  21486373.163   112911651.943       -1648.898          48.000  
  21618640.003   113606699.140        2296.591          50.000  
  24036245.938   126311310.007       -2513.420          44.000  
  22303344.649   117204868.029       -1852.102          48.000  
  22399624.917   117710806.509        2358.031          48.000  
  23874995.072   125463952.928        3163.489          44.000  
  22128645.633   116286813.944         412.361          50.000  
  20774827.081   109172454.646        2287.091          49.000  
  22808930.174   119861731.623       -1909.252          45.000  
  24703718.826   129818924.8232      -1412.644          38.000  
 16  5 20 10 22 52.0000000  0 10G 1G 3G 7G11G17G19G22G28G30G 8
  21486686.796   112913301.060       -1649.886          48.000  
  21618203.084   113604402.962        2295.264          50.000  
  24036724.563   126313823.418       -2513.965          44.000  
  22303697.056   117206720.324       -1852.956          48.000  
  22399176.411   117708448.650        2357.149          48.000  
  23874393.179   125460789.510        3162.769          44.000  
  22128566.985   116286401.950         411.134          50.000  
  20774391.768   109170167.805        2286.078          49.000  
  22809293.069   119863641.118       -1910.069          45.000  
  24703987.053   129820337.5402      -1413.671          38.000  
 16  5 20 10 22 53.0000000  0 10G 1G 3G 7G11G17G19G22G28G30G 8
  21487000.708   112914950.965       -1650.190          48.000  
  21617766.183   113602107.859        2294.525          50.000  
  24037203.117   126316337.296       -2513.972          44.000  
  22304049.463   117208573.267       -1853.179          48.000  
  22398727.679   117706091.340        2357.141          48.000  
  23873791.304   125457626.660        3162.714          44.000  
  22128488.913   116285991.044         410.467          51.000  
  20773956.699   109167881.899        2285.675          49.000  
  22809656.190   119865551.363       -1910.541          45.000  
  24704255.193   129821750.8352      -1413.512          37.000  
 16  5 20 10 22 54.0000000  0 10G 1G 3G 7G11G17G19G22G28G30G 8
  21487314.760   112916601.572       -1651.022          48.000  
  21617329.055   113599813.729        2293.552          50.000  
  24037681.428   126318851.553       -2514.489          44.000  
  22304402.080   117210426.794       -1853.918          48.000  
  22398278.859   117703734.510        2356.653          48.000  
  23873189.446   125454464.304        3162.170          44.000  
  22128410.875   116285581.139         409.467          51.000  
  20773521.717   109165596.857        2284.552          49.000  
  22810019.888   119867462.280       -1911.252          45.000  
  24704523.455   129823164.6272      -1413.843          37.000  
 16  5 20 10 22 55.0000000  0 10G 1G 3G 7G11G17G19G22G28G30G 8
  21487628.707   112918252.966       -1651.713          48.000  
  21616892.468   113597520.665        2292.638          50.000  
  24038159.913   126321366.251       -2514.595          44.000  
  22304754.766   117212280.944       -1854.330          48.000  
  22397830.371   117701378.244        2356.328          48.000  
  23872587.849   125451302.515        3161.798          43.000  
  22128333.292   116285172.308         408.577          51.000  
  20773087.294   109163312.720        2283.990          49.000  
  22810384.109   119869373.922       -1911.666          45.000  
  24704791.438   129824579.0092      -1414.274          37.000  
 16  5 20 10 22 56.0000000  0 10G 1G 3G 7G11G17G19G22G28G30G 8
  21487943.125   112919905.122       -1652.407          48.000  
  21616456.108   113595228.647        2291.894          50.000  
  24038638.398   126323881.415       -2515.118          44.000  
  22305107.819   117214135.763       -1855.052          48.000  
  22397382.180   117699022.545        2355.562          49.000  
  23871986.149   125448141.308        3161.200          43.000  
  22128255.848   116284764.575         407.344          51.000  
  20772652.976   109161029.538        2282.910          49.000  
  22810748.487   119871286.321       -1912.716          45.000  
  24705059.456   129825993.9522      -1415.039          37.000  
 16  5 20 10 22 57.0000000  0 10G 1G 3G 7G11G17G19G22G28G30G 8
  21488257.578   112921557.870       -1653.387          48.000  
  21616020.149   113592937.514        2290.488          50.000  
  24039117.075   126326396.842       -2515.704          44.000  
  22305461.116   117215991.031       -1855.575          48.000  
  22396933.709   117696667.199        2355.063          48.000  
  23871384.587   125444980.469        3160.504          43.000  
  22128178.631   116284357.717         406.309          51.000  
  20772218.622   109158747.065        2282.117          49.000  
  22811112.708   119873199.261       -1913.355          45.000  
  24705327.683   129827409.2672      -1415.486          36.000  
 16  5 20 10 22 58.0000000  0 10G 1G 3G 7G11G17G19G22G28G30G 8
  21488572.292   112923211.184       -1654.208          48.000  
  21615584.383   113590647.227        2289.324          50.000  
  24039595.577   126328912.511       -2516.290          44.000  
  22305814.448   117217846.746       -1856.498          48.000  
  22396485.361   117694312.198        2354.295          48.000  
  23870782.851   125441819.985        3159.845          43.000  
  22128101.466   116283951.735         404.908          51.000  
  20771784.321   109156465.329        2280.841          49.000  
  22811476.702   119875112.739       -1914.454          45.000  
  24705595.771   129828824.9612      -1416.373          36.000  
 16  5 20 10 22 59.0000000  0 10G 1G 3G 7G11G17G19G22G28G30G 8
  21488887.077   112924865.458       -1654.520          48.000  
  21615148.982   113588358.173        2288.634          50.000  
  24040074.359   126331428.811       -2516.587          44.000  
  22306167.780   117219703.283       -1856.750          48.000  
  22396037.239   117691957.928        2354.322          48.000  
  23870181.482   125438660.253        3159.521          43.000  
  22128024.510   116283547.005         404.355          51.000  
  20771350.317   109154184.694        2280.255          49.000  
  22811840.888   119877027.130       -1914.716          45.000  
  24705863.911   129830241.4002      -1416.282          35.000  
 16  5 20 10 23  0.0000000  0 10G 1G 3G 7G11G17G19G22G28G30G 8
  21489201.791   112926520.363       -1655.610          48.000  
  21614713.739   113586070.050        2287.262          50.000  
  24040552.966   126333945.422       -2517.173          43.000  
  22306521.409   117221560.330       -1857.666          48.000  
  22395589.397   117689604.090        2353.247          48.000  
  23869580.113   125435500.960        3158.704          43.000  
  22127947.590   116283143.222         402.955          51.000  
  20770916.557   109151904.850        2279.108          49.000  
  22812205.074   119878942.122       -1915.562          45.000  
  24706131.964   129831658.3012      -1417.648          35.000  
 16  5 20 10 23  1.0000000  0 10G 1G 3G 7G11G17G19G22G28G30G 8
  21489516.541   112928176.049       -1656.067          48.000  
  21614278.496   113583782.983        2286.597          50.000  
  24041031.329   126336462.466       -2517.084          43.000  
  22306874.950   117223418.008       -1857.851          48.000  
  22395141.380   117687250.789        2353.193          48.000  
  23868978.761   125432342.228        3158.405          43.000  
  22127871.140   116282740.511         402.335          51.000  
  20770482.657   109149625.922        2278.625          49.000  
  22812569.085   119880857.867       -1915.965          45.000  
  24706400.331   129833075.7192      -1417.315          35.000  
 16  5 20 10 23  2.0000000  0 10G 1G 3G 7G11G17G19G22G28G30G 8
  21489831.605   112929832.045       -1656.090          47.000  
  21613843.409   113581496.522        2286.163          50.000  
  24041509.587   126338979.526       -2517.154          43.000  
  22307228.753   117225275.883       -1857.938          48.000  
  22394693.590   117684897.598        2353.027          48.000  
  23868377.880   125429183.607        3158.411          43.000  
  22127794.726   116282338.432         401.741          51.000  
  20770049.176   109147347.470        2278.156          49.000  
  22812933.516   119882773.891       -1916.337          45.000  
  24706669.343   129834493.3042      -1417.751          35.000  
 16  5 20 10 23  3.0000000  0 10G 1G 3G 7G11G17G19G22G28G30G 8
  21490146.790   112931488.670       -1657.026          47.000  
  21613408.428   113579210.969        2285.188          50.000  
  24041987.897   126341496.872       -2517.573          42.000  
  22307582.626   117227134.252       -1858.700          48.000  
  22394246.062   117682544.790        2352.699          48.000  
  23867776.702   125426025.396        3158.002          43.000  
  22127718.486   116281937.270         400.757          51.000  
  20769615.504   109145069.788        2277.319          49.000  
  22813298.365   119884690.488       -1916.897          45.000  
  24706938.531   129835911.2762      -1417.980          35.000  
 16  5 20 10 23  4.0000000  0 10G 1G 3G 7G11G17G19G22G28G30G 8
  21490462.098   112933146.198       -1658.125          47.000  
  21612973.376   113576926.606        2283.602          49.000  
  24042466.522   126344014.811       -2518.308          42.000  
  22307936.604   117228993.402       -1859.761          48.000  
  22393798.429   117680192.688        2351.594          48.000  
  23867175.787   125422867.893        3156.946          43.000  
  22127642.752   116281537.327         399.167          51.000  
  20769182.302   109142793.172        2275.958          49.000  
  22813663.563   119886607.951       -1917.944          45.000  
  24707207.979   129837329.9912      -1419.457          36.000  
 16  5 20 10 23  5.0000000  0 10G 1G 3G 7G11G17G19G22G28G30G 8
  21490777.372   112934804.386       -1658.688          47.000  
  21612538.307   113574643.168        2283.089          49.000  
  24042945.077   126346533.084       -2518.508          42.000  
  22308290.634   117230853.068       -1859.938          48.000  
  22393351.005   117677841.020        2351.261          48.000  
  23866574.958   125419710.834        3156.842          43.000  
  22127567.000   116281138.332         398.467          51.000  
  20768749.292   109140517.368        2275.366          49.000  
  22814028.831   119888526.048       -1918.399          45.000  
  24707477.672   129838749.1312      -1419.496          36.000  
 16  5 20 10 23  6.0000000  0 10G 1G 3G 7G11G17G19G22G28G30G 8
  21491092.854   112936463.119       -1659.111          47.000  
  21612103.588   113572360.578        2282.211          49.000  
  24043424.015   126349051.580       -2518.850          41.000  
  22308644.525   117232713.159       -1860.522          48.000  
  22392903.843   117675489.674        2351.068          48.000  
  23865974.060   125416554.127        3156.415          43.000  
  22127491.336   116280740.200         397.590          51.000  
  20768316.562   109138242.260        2274.548          49.000  
  22814393.733   119890444.658       -1919.059          45.000  
  24707747.540   129840168.6262      -1419.958          36.000  
 16  5 20 10 23  7.0000000  0 10G 1G 3G 7G11G17G19G22G28G30G 8
  21491408.703   112938122.580       -1659.728          47.000  
  21611669.269   113570079.008        2281.031          49.000  
  24043903.024   126351570.461       -2519.168          41.000  
  22308998.520   117234573.831       -1860.880          48.000  
  22392456.489   117673138.866        2350.633          48.000  
  23865373.389   125413397.940        3155.823          43.000  
  22127415.620   116280343.095         396.587          51.000  
  20767883.674   109135968.027        2273.828          48.000  
  22814758.844   119892363.953       -1919.482          45.000  
  24708017.757   129841588.636       -1420.255          36.000  
 16  5 20 10 23  8.0000000  0 10G 1G 3G 7G11G17G19G22G28G30G 8
  21491724.953   112939782.768       -1660.853          47.000  
  21611234.741   113567798.439        2279.852          49.000  
  24044381.875   126354089.757       -2519.563          41.000  
  22309352.340   117236435.123       -1861.799          48.000  
  22392009.136   117670788.561        2349.949          48.000  
  23864772.839   125410242.275        3155.139          43.000  
  22127340.305   116279947.021         395.355          51.000  
  20767450.856   109133694.676        2272.736          48.000  
  22815124.146   119894283.945       -1920.577          45.000  
  24708288.095   129843009.199       -1420.712          36.000  
 16  5 20 10 23  9.0000000  0 10G 1G 3G 7G11G17G19G22G28G30G 8
  21492040.802   112941443.574       -1661.154          47.000  
  21610800.545   113565518.777        2279.206          49.000  
  24044860.849   126356609.357       -2519.642          41.000  
  22309706.807   117238296.892       -1861.986          48.000  
  22391561.764   117668438.659        2349.734          48.000  
  23864172.412   125407087.030        3154.986          43.000  
  22127264.989   116279551.867         394.686          51.000  
  20767018.719   109131422.102        2272.168          48.000  
  22815489.903   119896204.520       -1920.886          46.000  
  24708558.504   129844430.174       -1421.070          36.000  
 16  5 20 10 23 10.0000000  0 10G 1G 3G 7G11G17G19G22G28G30G 8
  21492357.105   112943104.984       -1661.537          47.000  
  21610366.785   113563240.016        2278.411          49.000  
  24045340.259   126359129.242       -2520.123          41.000  
  22310060.959   117240159.155       -1862.393          48.000  
  22391114.393   117666089.156        2349.413          48.000  
  23863572.090   125403932.176        3154.865          43.000  
  22127189.866   116279157.640         393.847          51.000  
  20766586.460   109129150.291        2271.582          48.000  
  22815855.799   119898125.668       -1921.382          46.000  
  24708829.157   129845851.551       -1421.247          36.000  
 16  5 20 10 23 11.0000000  0 10G 1G 3G 7G11G17G19G22G28G30G 8
  21492673.338   112944766.879       -1662.123          47.000  
  21609933.217   113560962.004        2277.634          49.000  
  24045819.895   126361649.263       -2520.147          41.000  
  22310415.111   117242021.755       -1862.881          48.000  
  22390667.057   117663739.884        2349.288          48.000  
  23862971.733   125400777.607        3154.388          43.000  
  22127114.778   116278764.177         393.047          51.000  
  20766154.270   109126879.107        2270.844          49.000  
  22816221.940   119900047.252       -1921.908          46.000  
  24709099.810   129847273.241       -1421.922          37.000  
 16  5 20 10 23 12.0000000  0 10G 1G 3G 7G11G17G19G22G28G30G 8
  21492990.042   112946429.330       -1662.764          47.000  
  21609499.753   113558684.862        2276.495          49.000  
  24046299.741   126364169.536       -2520.530          41.000  
  22310769.333   117243884.798       -1863.410          48.000  
  22390219.930   117661390.981        2348.584          48.000  
  23862371.410   125397623.388        3153.979          43.000  
  22127039.602   116278371.598         392.091          51.000  
  20765722.447   109124608.644        2269.977          49.000  
  22816588.377   119901969.355       -1922.587          46.000  
  24709370.480   129848695.276       -1422.353          37.000  
 16  5 20 10 23 13.0000000  0 10G 1G 3G 7G11G17G19G22G28G30G 8
  21493306.624   112948092.432       -1663.463          47.000  
  21609066.779   113556408.638        2275.694          49.000  
  24046779.657   126366690.140       -2520.925          41.000  
  22311124.113   117245748.352       -1863.896          48.000  
  22389772.646   117659042.496        2348.107          48.000  
  23861771.070   125394469.608        3153.338          43.000  
  22126964.828   116277979.962         391.080          51.000  
  20765290.502   109122338.966        2269.116          49.000  
  22816954.360   119903892.071       -1923.090          46.000  
  24709641.569   129850117.763       -1422.902          37.000  
 16  5 20 10 23 14.0000000  0 10G 1G 3G 7G11G17G19G22G28G30G 8
  21493623.101   112949756.357       -1664.358          47.000  
  21608633.769   113554133.518        2274.526          49.000  
  24047259.608   126369211.207       -2521.268          42.000  
  22311478.562   117247612.603       -1864.614          48.000  
  22389325.606   117656694.595        2347.555          48.000  
  23861171.149   125391316.434        3152.881          43.000  
  22126890.002   116277589.453         389.901          51.000  
  20764858.923   109120070.272        2268.091          49.000  
  22817320.274   119905815.576       -1923.845          46.000  
  24709912.693   129851540.868       -1423.350          37.000  
 16  5 20 10 23 15.0000000  0 10G 1G 3G 7G11G17G19G22G28G30G 8
  21493939.717   112951420.830       -1664.698          47.000  
  21608200.969   113551859.228        2273.808          49.000  
  24047739.611   126371732.533       -2521.589          42.000  
  22311833.447   117249477.270       -1864.923          48.000  
  22388878.410   117654347.020        2347.338          48.000  
  23860571.246   125388163.602        3152.740          42.000  
  22126815.646   116277199.794         389.208          50.000  
  20764427.536   109117802.267        2267.590          49.000  
  22817686.048   119907739.591       -1924.409          46.000  
  24710183.992   129852964.309       -1423.796          38.000  
 16  5 20 10 23 16.0000000  0 10G 1G 3G 7G11G17G19G22G28G30G 8
  21494256.334   112953085.690       -1665.103          47.000  
  21607768.500   113549585.618        2273.149          49.000  
  24048219.702   126374253.913       -2521.570          42.000  
  22312188.280   117251342.192       -1865.090          48.000  
  22388431.701   117651999.615        2347.219          48.000  
  23859971.045   125385010.958        3152.130          42.000  
  22126741.204   116276810.830         388.498          50.000  
  20763996.097   109115534.810        2267.041          49.000  
  22818052.031   119909663.957       -1924.704          46.000  
  24710455.430   129854387.944       -1423.796          38.000  
 16  5 20 10 23 17.0000000  0 10G 1G 3G 7G11G17G19G22G28G30G 8
  21494573.195   112954751.091       -1665.764          47.000  
  21607336.083   113547312.821        2272.217          49.000  
  24048700.019   126376775.499       -2521.699          43.000  
  22312543.043   117253207.524       -1865.533          48.000  
  22387985.115   117649652.524        2346.912          48.000  
  23859371.351   125381858.625        3152.155          42.000  
  22126667.093   116276422.712         387.582          50.000  
  20763564.833   109113268.036        2266.425          49.000  
  22818418.573   119911588.815       -1925.197          47.000  
  24710726.728   129855811.896       -1424.126          38.000  
 16  5 20 10 23 18.0000000  0 10G 1G 3G 7G11G17G19G22G28G30G 8
  21494890.388   112956416.905       -1666.191          47.000  
  21606903.807   113545040.752        2271.448          49.000  
  24049180.354   126379297.201       -2521.904          43.000  
  22312897.806   117255073.154       -1865.977          47.000  
  22387538.442   117647305.651        2346.535          48.000  
  23858771.570   125378706.524        3152.045          43.000  
  22126593.191   116276035.330         386.691          50.000  
  20763133.516   109111001.847        2265.698          49.000  
  22818785.272   119913514.077       -1925.673          47.000  
  24710998.149   129857236.111       -1424.542          38.000  
 16  5 20 10 23 19.0000000  0 10G 1G 3G 7G11G17G19G22G28G30G 8
  21495207.476   112958083.256       -1666.218          47.000  
  21606471.652   113542769.519        2270.986          49.000  
  24049660.741   126381819.150       -2521.793          43.000  
  22313252.900   117256939.186       -1866.003          47.000  
  22387092.275   117644959.095        2346.632          48.000  
  23858172.050   125375554.796        3151.587          43.000  
  22126519.411   116275648.776         386.456          50.000  
  20762702.216   109108736.355        2265.247          49.000  
  22819152.267   119915439.864       -1926.006          47.000  
  24711269.744   129858660.693       -1424.879          38.000  
 16  5 20 10 23 20.0000000  0 10G 1G 3G 7G11G17G19G22G28G30G 8
  21495525.087   112959750.201       -1666.984          47.000  
  21606039.532   113540499.189        2269.892          49.000  
  24050141.180   126384341.453       -2522.687          43.000  
  22313607.960   117258805.669       -1866.448          47.000  
  22386646.108   117642612.954        2345.985          48.000  
  23857572.722   125372403.502        3150.891          43.000  
  22126445.894   116275263.121         385.407          50.000  
  20762271.283   109106471.644        2264.362          49.000  
  22819519.001   119917366.288       -1926.948          47.000  
  24711541.322   129860085.618       -1425.145          37.000  
 16  5 20 10 23 21.0000000  0 10G 1G 3G 7G11G17G19G22G28G30G 8
  21495842.542   112961417.806       -1668.036          47.000  
  21605607.639   113538229.774        2268.880          49.000  
  24050621.637   126386864.011       -2522.754          44.000  
  22313963.281   117260672.694       -1867.342          47.000  
  22386200.325   117640267.222        2345.415          48.000  
  23856973.552   125369252.599        3150.525          43.000  
  22126373.056   116274878.444         384.210          50.000  
  20761840.228   109104207.707        2263.544          49.000  
  22819885.560   119919293.255       -1927.352          47.000  
  24711812.970   129861511.000       -1425.614          36.000  
 16  5 20 10 23 22.0000000  0 10G 1G 3G 7G11G17G19G22G28G30G 8
  21496159.856   112963085.135       -1666.926          48.000  
  21605175.904   113535961.154        2267.448          48.000  
  24051102.233   126389387.861       -2525.813          45.000  
  22314318.585   117262539.205       -1865.776          47.000  
  22385754.070   117637921.699        2345.014          48.000  
  23856374.451   125366102.306        3149.316          45.000  
  22126300.376   116274493.997         384.381          51.000  
  20761409.225   109101944.338        2262.671          48.000  
  22820252.573   119921221.745       -1930.569          47.000  
  24712085.385   129862935.958       -1425.676          40.000  
 16  5 20 10 23 23.0000000  0 10G 1G 3G 7G11G17G19G22G28G30G 8
  21496476.805   112964750.780       -1664.841          49.000  
  21604744.569   113533693.277        2266.996          49.000  
  24051583.807   126391915.117       -2529.386          43.000  
  22314672.877   117264403.520       -1863.057          46.000  
  22385307.240   117635576.178        2345.356          48.000  
  23855775.036   125362953.042        3148.779          45.000  
  22126227.051   116274108.732         385.903          49.000  
  20760978.693   109099681.222        2262.738          49.000  
  22820619.604   119923153.768       -1934.518          46.000  
  24712356.317   129864359.580       -1422.558          40.000  
 16  5 20 10 23 24.0000000  0 10G 1G 3G 7G11G17G19G22G28G30G 8
  21496793.788   112966414.511       -1662.538          49.000  
  21604313.287   113531426.111        2267.252          49.000  
  24052066.183   126394446.107       -2532.237          39.000  
  22315027.238   117266265.475       -1860.005          45.000  
  22384860.811   117633230.611        2345.792          48.000  
  23855176.127   125359804.855        3147.485          44.000  
  22126153.236   116273722.382         386.674          48.000  
  20760547.515   109097418.332        2263.092          49.000  
  22820987.140   119925089.393       -1937.689          45.000  
  24712625.748   129865781.639       -1421.329          43.000  
 16  5 20 10 23 25.0000000  0 10G 1G 3G 7G11G17G19G22G28G30G 8
  21497109.916   112968076.655       -1661.188          48.000  
  21603882.040   113529159.480        2266.540          48.000  
  24052547.530   126396979.638       -2535.760          32.000  
  22315381.129   117268125.404       -1859.068          47.000  
  22384414.504   117630885.021        2345.890          48.000  
  23854576.991   125356657.601        3146.735          44.000  
  22126080.853   116273335.395         387.684          43.000  
  20760117.053   109095155.713        2262.433          48.000  
  22821355.759   119927028.075       -1940.351          46.000  
  24712895.843   129867202.412       -1419.028          37.000  
 16  5 20 10 23 26.0000000  0 10G 1G 3G 7G11G17G19G22G28G30G 8
  21497425.678   112969737.500       -1659.548          48.000  
  21603450.897   113526893.386        2264.981          48.000  
  24053026.905   126399515.707       -2537.419          42.000  
  22315734.792   117269983.577       -1857.507          47.000  
  22383968.232   117628539.586        2345.561          49.000  
  23853978.100   125353511.391        3144.684          36.000  
  22126006.742   116272947.493         388.081          49.000  
  20759686.626   109092893.397        2262.585          49.000  
  22821725.127   119928969.370       -1942.708          46.000  
  24713166.321   129868621.418       -1415.819          35.000  
 16  5 20 10 23 27.0000000  0 10G 1G 3G 7G11G17G19G22G28G30G 8
  21497741.544   112971397.405       -1659.497          49.000  
  21603019.720   113524627.971        2266.331          45.000  
  24053508.252   126402054.362       -2538.038          39.000  
  22316088.072   117271840.409       -1856.370          47.000  
  22383521.978   117626194.316        2346.260          49.000  
  23853383.780                        3148.917          23.000  
  22125932.386   116272559.367         387.993          48.000  
  20759256.269   109090631.622        2261.810          49.000  
  22822094.932   119930913.401       -1944.548          46.000  
  24713437.323   129870040.018       -1417.975          42.000  
 16  5 20 10 23 28.0000000  0  9G 1G 3G 7G11G17G22G28G30G 8
  21498057.358   112973056.362       -1658.457          49.000  
  21602588.874   113522363.339        2265.008          47.000  
  24053994.206   126404594.717       -2540.876          38.000  
  22316441.282   117273696.018       -1854.574          47.000  
  22383076.003   117623848.914        2346.152          48.000  
  22125858.554   116272170.956         388.533          49.000  
  20758825.737   109088370.053        2261.505          49.000  
  22822465.104   119932859.223       -1946.556          46.000  
  24713708.639   129871457.888       -1416.046          39.000  
 16  5 20 10 23 29.0000000  0 10G 1G 3G 7G11G17G19G22G28G30G 8
  21498372.875   112974714.484       -1657.445          48.000  
  21602158.342   113520099.268        2263.129          49.000  
  24054479.077   126407136.368       -2542.624          40.000  
  22316794.404   117275550.599       -1854.100          47.000  
  22382629.487   117621503.395        2346.226          48.000  
  23852196.659                        3143.953          31.000  
  22125785.002   116271782.353         388.536          47.000  
  20758395.642   109086108.693        2261.133          49.000  
  22822836.200   119934806.806       -1948.968          46.000  
  24713974.179   129872874.485       -1415.765          42.000  
 16  5 20 10 23 30.0000000  0 10G 1G 3G 7G11G17G19G22G28G30G 8
  21498688.358   112976371.988       -1657.108          49.000  
  21601727.252   113517835.908        2263.274          49.000  
  24054962.396   126409680.241       -2545.426          42.000  
  22317147.091   117277404.185       -1853.464          47.000  
  22382182.866   117619158.047        2345.201          48.000  
  23851590.160                        3140.164          31.000  
  22125711.589   116271393.723         388.435          48.000  
  20757965.232   109083847.817        2260.425          49.000  
  22823207.000   119936756.501       -1950.395          46.000  
  24714245.513   129874290.977       -1416.944          41.000  
 16  5 20 10 23 31.0000000  0  9G 1G 3G 7G11G17G22G28G30G 8
  21499003.858   112978029.149       -1656.685          49.000  
  21601296.232   113515573.676        2261.243          48.000  
  24055446.116   126412226.124       -2547.409          40.000  
  22317499.585   117279257.138       -1852.439          47.000  
  22381736.733   117616813.058        2344.990          48.000  
  22125637.547   116271005.339         388.690          49.000  
  20757535.294   109081587.690        2260.059          49.000  
  22823578.323   119938708.432       -1952.766          45.000  
  24714513.740   129875706.911       -1415.829          43.000  
 16  5 20 10 23 32.0000000  0  9G 1G 3G 7G11G17G22G28G30G 8
  21499319.201   112979685.881       -1657.021          49.000  
  21600865.578   113513312.344        2260.294          49.000  
  24055930.656   126414773.917       -2549.707          46.000  
  22317852.045   117281109.351       -1852.020          47.000  
  22381290.462   117614468.403        2344.270          48.000  
  22125563.838   116270617.099         387.869          49.000  
  20757105.373   109079328.234        2258.734          49.000  
  22823950.030   119940662.572       -1955.303          45.000  
  24714782.979   129877122.543       -1415.714          42.000  
 16  5 20 10 23 33.0000000  0  9G 1G 3G 7G11G17G22G28G30G 8
  21499634.334   112981342.027       -1655.658          49.000  
  21600435.953   113511051.821        2260.513          48.000  
  24056416.104   126417323.740       -2549.946          41.000  
  22318204.330   117282960.736       -1850.519          47.000  
  22380844.347   117612123.901        2345.116          48.000  
  22125489.884   116270228.925         388.435          48.000  
  20756675.469   109077069.258        2259.137          49.000  
  22824322.627   119942618.712       -1956.466          46.000  
  24715051.782   129878537.764       -1414.763          43.000  
 16  5 20 10 23 34.0000000  0  9G 1G 3G 7G11G17G22G28G30G 8
  21499949.119   112982997.427       -1654.875          48.000  
  21600005.980   113508791.874        2259.863          48.000  
  24056901.813   126419874.806       -2552.289          40.000  
  22318556.283   117284811.102       -1849.766          47.000  
  22380398.459   117609779.361        2344.583          48.000  
  22125415.929   116269840.556         388.606          48.000  
  20756245.827   109074810.552        2258.685          49.000  
  22824695.224   119944576.556       -1958.506          46.000  
  24715321.423   129879952.268       -1414.216          42.000  
 16  5 20 10 23 35.0000000  0  9G 1G 3G 7G11G17G22G28G30G 8
  21500263.921   112984652.475       -1654.666          49.000  
  21599576.408   113506532.831        2258.585          48.000  
  24057387.802   126422427.815       -2553.700          41.000  
  22318908.603   117286660.808       -1849.374          47.000  
  22379952.379   117607435.119        2344.322          48.000  
  22125341.853   116269452.357         388.292          48.000  
  20755816.133   109072552.510        2257.959          49.000  
  22825067.961   119946536.347       -1960.613          45.000  
  24715590.261   129881366.490       -1415.816          41.000  
 16  5 20 10 23 36.0000000  0 10G 1G 3G 7G11G17G19G22G28G30G 8
  21500579.002   112986307.228       -1654.725          49.000  
  21599146.941   113504274.704        2257.475          49.000  
  24057873.930   126424982.637       -2556.177          43.000  
  22319260.434   117288509.931       -1848.786          47.000  
  22379506.404   117605091.354        2343.577          48.000  
  23847997.788   125322073.5243       3138.275          41.000  
  22125268.161   116269064.380         388.255          47.000  
  20755386.404   109070295.237        2256.787          49.000  
  22825441.116   119948498.277       -1962.934          46.000  
  24715859.396   129882780.171       -1414.557          43.000  
 16  5 20 10 23 37.0000000  0 10G 1G 3G 7G11G17G19G22G28G30G 8
  21500893.769   112987961.464       -1654.290          49.000  
  21598717.386   113502017.222        2257.349          49.000  
  24058360.110   126427539.020       -2556.389          45.000  
  22319612.213   117290358.210       -1847.907          47.000  
  22379060.394   117602747.931        2343.773          48.000  
  23847401.060   125318935.3572       3138.757          43.000  
  22125194.608   116268676.347         388.316          48.000  
  20754957.129   109068038.502        2256.616          49.000  
  22825815.075   119950462.147       -1964.554          46.000  
  24716128.251   129884193.344       -1412.463          42.000  
 16  5 20 10 23 38.0000000  0 10G 1G 3G 7G11G17G19G22G28G30G 8
  21501208.693   112989615.596       -1653.997          49.000  
  21598287.901   113499760.778        2255.734          48.000  
  24058846.780   126430097.178       -2558.677          43.000  
  22319963.922   117292206.197       -1848.016          47.000  
  22378614.348   117600404.983        2342.947          48.000  
  23846803.198   125315798.1252       3137.024          44.000  
  22125120.515   116268288.754         387.280          48.000  
  20754527.888   109065782.572        2255.444          49.000  
  22826189.225   119952427.892       -1965.960          45.000  
  24716397.421   129885606.582       -1412.648          43.000  
 16  5 20 10 23 39.0000000  0 10G 1G 3G 7G11G17G19G22G28G30G 8
  21501523.687   112991270.885       -1656.469          49.000  
  21597858.748   113497505.490        2254.555          49.000  
  24059333.641   126432655.427       -2557.873          42.000  
  22320315.719   117294055.196       -1850.057          47.000  
  22378168.740   117598062.547        2342.400          48.000  
  23846206.942   125312661.2172       3136.951          43.000  
  22125047.119   116267902.553         385.041          49.000  
  20754098.700   109063527.616        2254.419          49.000  
  22826563.392   119954394.012       -1965.518          46.000  
  24716666.416   129887020.696       -1416.191          39.000  
 16  5 20 10 23 40.0000000  0 10G 1G 3G 7G11G17G19G22G28G30G 8
  21501839.152   112992927.812       -1657.529          49.000  
  21597429.752   113495251.003        2254.445          49.000  
  24059820.519   126435212.170       -2556.086          41.000  
  22320668.091   117295905.945       -1850.970          47.000  
  22377723.026   117595720.499        2341.946          48.000  
  23845609.028   125309524.1522       3137.524          43.000  
  22124974.142   116267518.039         384.066          49.000  
  20753669.669   109061273.458        2254.156          49.000  
  22826937.228   119956358.943       -1964.753          46.000  
  24716935.708   129888435.974       -1415.940          41.000  
 16  5 20 10 23 41.0000000  0 10G 1G 3G 7G11G17G19G22G28G30G 8
  21502154.425   112994585.875       -1658.736          49.000  
  21597000.860   113492997.221        2253.382          49.000  
  24060306.700   126437767.861       -2555.605          44.000  
  22321020.271   117297757.829       -1852.597          47.000  
  22377277.452   117593378.758        2341.154          48.000  
  23845012.841   125306387.0792       3136.627          43.000  
  22124901.148   116267134.789         382.846          48.000  
  20753240.882   109059020.031        2252.899          49.000  
  22827310.803   119958323.195       -1964.355          46.000  
  24717205.192   129889852.074       -1415.928          41.000  
 16  5 20 10 23 42.0000000  0 10G 1G 3G 7G11G17G19G22G28G30G 8
  21502470.117   112996245.114       -1660.001          48.000  
  21596572.301   113490744.446        2252.209          49.000  
  24060792.706   126440323.308       -2555.559          43.000  
  22321372.644   117299610.795       -1853.645          47.000  
  22376831.931   117591037.560        2340.838          48.000  
  23844415.921   125303250.3892       3136.255          43.000  
  22124828.503   116266752.845         382.399          47.000  
  20752812.218   109056767.559        2252.020          49.000  
  22827684.621   119960287.641       -1964.663          46.000  
  24717474.937   129891269.776       -1418.455          31.000  
 16  5 20 10 23 43.0000000  0 10G 1G 3G 7G11G17G19G22G28G30G 8
  21502786.088   112997904.875       -1659.617          49.000  
  21596143.758   113488492.559        2251.678          49.000  
  24061278.834   126442879.217       -2555.886          42.000  
  22321725.539   117301464.225       -1853.692          47.000  
  22376386.636   117588696.782        2340.499          48.000  
  23843819.403   125300114.1572       3135.809          44.000  
  22124755.980   116266371.810         381.013          48.000  
  20752383.798   109054515.785        2251.526          49.000  
  22828058.754   119962252.722       -1965.093          46.000  
  24717746.201   129892632.1403      -1417.773          42.000  
 16  5 20 10 23 44.0000000  0 10G 1G 3G 7G11G17G19G22G28G30G 8
  21503101.937   112999565.089       -1660.412          48.000  
  21595715.530   113486241.633        2250.268          49.000  
  24061764.910   126445436.056       -2557.528          44.000  
  22322078.138   117303317.806       -1853.806          47.000  
  22375941.289   117586356.677        2339.728          48.000  
  23843223.356   125296978.7832       3134.918          44.000  
  22124683.317   116265991.497         379.800          48.000  
  20751955.342   109052265.088        2250.122          49.000  
  22828433.096   119964219.084       -1967.068          46.000  
  24718014.829   129894049.7252      -1418.327          42.000  
 16  5 20 10 23 45.0000000  0 10G 1G 3G 7G11G17G19G22G28G30G 8
  21503417.856   113001225.554       -1661.006          49.000  
  21595287.057   113483991.628        2249.298          48.000  
  24062251.701   126447993.703       -2558.917          41.000  
  22322430.999   117305171.466       -1854.344          47.000  
  22375496.064   117584016.925        2339.669          48.000  
  23842626.611   125293843.9712       3133.826          44.000  
  22124610.968   116265611.827         379.104          48.000  
  20751527.079   109050015.084        2249.524          49.000  
  22828807.420   119966186.538       -1968.107          46.000  
  24718283.702   129895467.3372      -1417.240          37.000  
 16  5 20 10 23 46.0000000  0 10G 1G 3G 7G11G17G19G22G28G30G 8
  21503733.931   113002885.879       -1660.179          49.000  
  21594859.021   113481742.094        2249.320          49.000  
  24062738.422   126450551.741       -2558.867          42.000  
  22322783.878   117307024.824       -1853.471          47.000  
  22375050.822   117581677.296        2339.535          48.000  
  23842030.232   125290709.4932       3134.113          44.000  
  22124538.567   116265232.411         379.022          48.000  
  20751099.130   109047765.482        2249.384          49.000  
  22829181.815   119968154.773       -1967.870          45.000  
  24718554.408   129896884.8052      -1416.465          40.000  
 16  5 20 10 23 47.0000000  0 10G 1G 3G 7G11G17G19G22G28G30G 8
  21504049.972   113004546.129       -1660.103          49.000  
  21594431.106   113479493.102        2248.168          48.000  
  24063225.336   126453110.604       -2559.745          40.000  
  22323136.546   117308877.880       -1852.744          46.000  
  22374605.423   117579337.760        2339.604          48.000  
  23841433.731   125287575.3972       3134.113          44.000  
  22124466.882   116264853.247         378.937          48.000  
  20750671.163   109045516.338        2248.914          49.000  
  22829556.523   119970123.959       -1969.130          44.000  
  24718824.502   129898302.0752      -1416.850          42.000  
 16  5 20 10 23 48.0000000  0 10G 1G 3G 7G11G17G19G22G28G30G 8
  21504365.699   113006206.100       -1659.869          49.000  
  21594003.157   113477244.521        2248.129          48.000  
  24063713.349   126455669.919       -2559.650          41.000  
  22323488.919   117310730.463       -1852.445          47.000  
  22374160.146   117576998.253        2339.293          48.000  
  23840837.213   125284441.4962       3133.960          45.000  
  22124394.673   116264474.226         377.784          49.000  
  20750243.371   109043267.491        2248.346          48.000  
  22829931.755   119972093.915       -1970.549          46.000  
  24719093.916   129899718.9072      -1416.815          43.000  
 16  5 20 10 23 49.0000000  0 10G 1G 3G 7G11G17G19G22G28G30G 8
  21504681.705   113007866.066       -1659.764          49.000  
  21593575.522   113474996.429        2248.119          49.000  
  24064201.117   126458229.602       -2559.913          38.000  
  22323841.343   117312582.813       -1851.815          47.000  
  22373715.060   117574658.892        2339.642          48.000  
  23840240.712   125281308.0162       3133.221          44.000  
  22124322.499   116264095.466         378.757          48.000  
  20749815.335   109041019.108        2248.541          48.000  
  22830306.830   119974064.657       -1971.457          46.000  
  24719363.487   129901135.4892      -1415.915          40.000  
 16  5 20 10 23 50.0000000  0 10G 1G 3G 7G11G17G19G22G28G30G 8
  21504997.519   113009525.876       -1660.177          49.000  
  21593147.713   113472748.825        2247.010          49.000  
  24064688.135   126460789.689       -2561.072          43.000  
  22324193.733   117314434.841       -1852.200          47.000  
  22373269.992   117572319.480        2339.052          48.000  
  23839644.421   125278174.6022       3132.855          43.000  
  22124250.395   116263716.950         378.009          48.000  
  20749387.421   109038771.060        2247.516          48.000  
  22830681.993   119976035.944       -1972.090          46.000  
  24719632.726   129902551.7422      -1416.332          42.000  
 16  5 20 10 23 51.0000000  0 10G 1G 3G 7G11G17G19G22G28G30G 8
  21505313.246   113011185.868       -1660.023          49.000  
  21592719.903   113470501.899        2246.442          49.000  
  24065175.921   126463350.331       -2560.565          36.000  
  22324546.192   117316286.874       -1852.638          47.000  
  22372824.803   117569980.386        2338.813          48.000  
  23839048.042   125275041.6572       3132.977          43.000  
  22124178.604   116263338.936         377.836          48.000  
  20748959.803   109036523.677        2246.967          49.000  
  22831057.155   119978008.081       -1972.438          46.000  
  24719902.123   129903967.9282      -1415.428          42.000  
 16  5 20 10 23 52.0000000  0 10G 1G 3G 7G11G17G19G22G28G30G 8
  21505629.008   113012845.803       -1659.810          49.000  
  21592292.635   113468255.610        2246.182          49.000  
  24065663.655   126465911.571       -2561.399          45.000  
  22324898.704   117318138.578       -1851.084          47.000  
  22372379.979   117567641.525        2338.644          48.000  
  23838452.449   125271909.1432       3132.581          44.000  
  22124106.919   116262961.260         377.755          48.000  
  20748532.430   109034276.872        2246.997          49.000  
  22831432.614   119979981.268       -1973.448          45.000  
  24720171.484   129905383.8552      -1415.535          41.000  
 16  5 20 10 23 53.0000000  0 10G 1G 3G 7G11G17G19G22G28G30G 8
  21505944.961   113014505.421       -1659.796          49.000  
  21591865.366   113466009.599        2245.685          48.000  
  24066150.254   126468473.264       -2561.584          44.000  
  22325250.832   117319989.818       -1851.281          46.000  
  22371934.824   117565302.491        2339.146          48.000  
  23837856.367   125268776.8582       3131.775          45.000  
  22124035.059   116262583.629         377.601          48.000  
  20748104.812   109032030.194        2246.155          48.000  
  22831808.020   119981955.107       -1974.520          45.000  
  24720441.003   129906799.4702      -1415.649          41.000  
 16  5 20 10 23 54.0000000  0 10G 1G 3G 7G11G17G19G22G28G30G 8
  21506260.705   113016164.895       -1659.878          49.000  
  21591437.993   113463763.973        2244.880          48.000  
  24066637.691   126471035.017       -2561.931          43.000  
  22325603.100   117321840.809       -1852.241          45.000  
  22371489.547   117562963.489        2338.666          47.000  
  23837260.529   125265644.5992       3131.964          44.000  
  22123963.338   116262206.212         376.601          48.000  
  20747677.334   109029783.814        2245.886          48.000  
  22832183.724   119983929.347       -1974.533          45.000  
  24720710.417   129908214.7402      -1415.708          41.000  
 16  5 20 10 23 55.0000000  0 10G 1G 3G 7G11G17G19G22G28G30G 8
  21506576.973   113017825.848       -1661.801          49.000  
  21591010.742   113461519.255        2243.781          48.000  
  24067124.727   126473596.010       -2560.760          44.000  
  22325955.629   117323693.136       -1852.959          43.000  
  22371044.392   117560624.996        2338.153          48.000  
  23836664.727   125262512.491        3131.933          45.000  
  22123891.670   116261830.319         374.642          48.000  
  20747250.153   109027538.416        2244.940          49.000  
  22832559.549   119985903.157       -1974.020          46.000  
  24720979.778   129909630.5591      -1417.109          41.000  
 16  5 20 10 23 56.0000000  0 10G 1G 3G 7G11G17G19G22G28G30G 8
  21506893.223   113019488.128       -1662.821          49.000  
  21590583.700   113459275.354        2243.454          49.000  
  24067611.675   126476155.850       -2560.217          44.000  
  22326308.507   117325546.848       -1854.299          45.000  
  22370599.463   117558286.838        2338.346          48.000  
  23836069.081   125259380.368        3132.342          45.000  
  22123820.142   116261455.856         373.670          48.000  
  20746823.198   109025293.817        2244.519          49.000  
  22832935.078   119987876.193       -1973.312          45.000  
  24721249.419   129911047.795       -1418.542          42.000  
 16  5 20 10 23 57.0000000  0 10G 1G 3G 7G11G17G19G22G28G30G 8
  21507209.613   113021151.304       -1663.511          49.000  
  21590156.937   113457032.182        2242.857          48.000  
  24068098.606   126478714.979       -2558.557          43.000  
  22326661.456   117327401.361       -1855.257          47.000  
  22370154.657   117555948.928        2337.952          48.000  
  23835472.772   125256248.166        3131.989          43.000  
  22123748.753   116261082.461         373.189          48.000  
  20746396.314   109023049.948        2243.500          49.000  
  22833310.257   119989848.909       -1972.398          45.000  
  24721519.461   129912465.507       -1417.339          42.000  
 16  5 20 10 23 58.0000000  0 10G 1G 3G 7G11G17G19G22G28G30G 8
  21507526.422   113022815.265       -1665.065          49.000  
  21589730.210   113454789.579        2242.037          48.000  
  24068585.432   126481273.366       -2557.517          43.000  
  22327014.334   117329256.613       -1857.146          47.000  
  22369709.956   117553611.208        2337.635          48.000  
  23834876.376   125253115.960        3131.372          44.000  
  22123678.272   116260710.020         372.400          47.000  
  20745969.132   109020806.658        2242.609          49.000  
  22833685.699   119991821.227       -1971.575          45.000  
  24721789.207   129913883.718       -1419.101          43.000  
 16  5 20 10 23 59.0000000  0 10G 1G 3G 7G11G17G19G22G28G30G 8
  21507843.248   113024480.577       -1665.564          49.000  
  21589303.587   113452547.493        2242.391          48.000  
  24069071.665   126483830.110       -2556.070          42.000  
  22327367.422   117331113.170       -1856.695          46.000  
  22369264.976   117551273.728        2337.710          47.000  
  23834280.067   125249983.395        3132.770          44.000  
  22123607.755   116260338.809         371.256          45.000  
  20745542.248   109018564.005        2243.030          49.000  
  22834060.739   119993792.387       -1970.862          45.000  
  24722059.179   129915302.638       -1419.688          40.000  
 16  5 20 10 24  0.0000000  0 10G 1G 3G 7G11G17G19G22G28G30G 8
  21508160.388   113026146.919       -1667.336          49.000  
  21588877.226   113450306.364        2241.218          49.000  
  24069558.247   126486386.251       -2556.666          43.000  
  22327721.033   117332970.768       -1858.305          46.000  
  22368820.536   117548936.460        2337.092          47.000  
  23833684.003   125246850.842        3132.147          43.000  
  22123537.187   116259969.111         368.875          48.000  
  20745115.625   109016322.101        2241.174          49.000  
  22834436.058   119995763.146       -1970.913          46.000  
  24722328.994   129916722.406       -1419.743          41.000  
 16  5 20 10 24  1.0000000  0 10G 1G 3G 7G11G17G19G22G28G30G 8
  21508477.511   113027814.104       -1667.203          49.000  
  21588450.882   113448065.955        2241.944          44.000  
  24070044.113   126488941.648       -2555.353          43.000  
  22328074.696   117334829.131       -1858.179          46.000  
  22368375.974   117546599.429        2337.083          49.000  
  23833087.833   125243718.201        3132.520          43.000  
  22123467.019   116259600.332         368.666          48.000  
  20744689.037   109014080.856        2241.663          49.000  
  22834810.871   119997733.620       -1969.919          45.000  
  24722599.333   129918142.725       -1420.490          41.000  
 16  5 20 10 24  2.0000000  0 10G 1G 3G 7G11G17G19G22G28G30G 8
  21508794.983   113029481.870       -1668.475          49.000  
  21588024.748   113445826.309        2238.843          49.000  
  24070530.695   126491496.891       -2555.633          43.000  
  22328428.430   117336687.983       -1859.163          46.000  
  22367931.308   117544262.398        2336.820          48.000  
  23832491.751   125240585.409        3133.630          45.000  
  22123397.096   116259232.464         367.194          48.000  
  20744262.902   109011840.117        2240.198          49.000  
  22835185.807   119999704.171       -1971.210          45.000  
  24722869.829   129919563.471       -1421.171          42.000  
 16  5 20 10 24  3.0000000  0 10G 1G 3G 7G11G17G19G22G28G30G 8
  21509112.525   113031150.038       -1668.296          49.000  
  21587598.613   113443587.606        2238.080          48.000  
  24071016.875   126494052.653       -2556.233          43.000  
  22328781.954   117338547.096       -1858.946          46.000  
  22367486.624   117541925.705        2336.278          47.000  
  23831895.512   125237453.067        3133.423          44.000  
  22123327.208   116258865.409         367.057          48.000  
  20743836.733   109009600.144        2239.606          49.000  
  22835560.637   120001675.506       -1971.674          44.000  
  24723140.255   129920984.457       -1419.957          40.000  
 16  5 20 10 24  4.0000000  0 10G 1G 3G 7G11G17G19G22G28G30G 8
  21509430.049   113032818.108       -1667.540          49.000  
  21587172.549   113441349.663        2237.710          48.000  
  24071503.562   126496609.225       -2556.919          44.000  
  22329135.827   117340405.994       -1858.406          45.000  
  22367041.626   117539588.849        2337.538          48.000  
  23831299.500   125234320.760        3132.288          45.000  
  22123257.268   116258498.809         366.919          48.000  
  20743410.634   109007360.501        2240.106          48.000  
  22835935.782   120003647.757       -1972.402          44.000  
  24723406.912   129922379.5103      -1421.162          33.000  
 16  5 20 10 24  5.0000000  0 10G 1G 3G 7G11G17G19G22G28G30G 8
  21509747.311   113034485.466       -1667.550          49.000  
  21586746.886   113439112.145        2236.554          48.000  
  24071990.336   126499166.751       -2558.917          39.000  
  22329489.228   117342263.990       -1858.310          47.000  
  22366596.890   117537251.617        2336.664          47.000  
  23830703.750   125231188.434        3131.946          45.000  
  22123187.589   116258132.090         365.653          47.000  
  20742984.604   109005120.884        2238.922          49.000  
  22836311.503   120005621.106       -1975.533          44.000  
  24723682.049   129923799.9182      -1421.875          40.000  
 16  5 20 10 24  6.0000000  0 10G 1G 3G 7G11G17G19G22G28G30G 8
  21510064.486   113036152.540       -1667.098          49.000  
  21586321.257   113436875.464        2235.952          48.000  
  24072477.057   126501725.142       -2560.114          40.000  
  22329842.735   117344121.454       -1857.345          47.000  
  22366152.136   117534914.310        2337.440          48.000  
  23830107.720   125228056.299        3132.513          44.000  
  22123117.841   116257765.583         366.194          48.000  
  20742558.348   109002881.724        2238.757          49.000  
  22836687.276   120007595.684       -1975.468          45.000  
  24723950.521   129925220.0642      -1420.149          43.000  
 16  5 20 10 24  7.0000000  0 10G 1G 3G 7G11G17G19G22G28G30G 8
  21510381.627   113037819.241       -1666.590          49.000  
  21585895.891   113434639.279        2236.020          48.000  
  24072964.407   126504284.802       -2561.931          36.000  
  22330196.224   117345978.241       -1856.417          46.000  
  22365707.347   117532577.427        2336.593          48.000  
  23829511.621   125224924.980        3130.865          44.000  
  22123048.424   116257399.076         366.746          48.000  
  20742132.074   109000643.168        2238.165          48.000  
  22837063.206   120009571.865       -1977.786          44.000  
  24724220.214   129926653.5933      -1420.227          38.000  
 16  5 20 10 24  8.0000000  0 10G 1G 3G 7G11G17G19G22G28G30G 8
  21510698.505   113039485.339       -1665.573          48.000  
  21585470.245   113432403.253        2235.667          48.000  
  24073451.425   126506845.551       -2560.992          38.000  
  22330549.434   117347834.049       -1855.428          46.000  
  22365262.402   117530240.938        2336.481          48.000  
  23828915.992   125221794.566        3130.194          45.000  
  22122978.570   116257032.196         367.249          48.000  
  20741706.027   108998405.136        2237.811          48.000  
  22837439.659   120011549.438       -1979.008          45.000  
  24724493.607                       -1415.869          34.000  
 16  5 20 10 24  9.0000000  0 10G 1G 3G 7G11G17G19G22G28G30G 8
  21511015.349   113041150.731       -1665.177          49.000  
  21585044.704   113430167.619        2235.227          49.000  
  24073939.159   126509407.647       -2563.112          41.000  
  22330902.522   117349688.755       -1854.109          47.000  
  22364818.119   117527904.652        2336.583          49.000  
  23828320.800   125218664.888        3130.023          45.000  
  22122908.455   116256665.036         367.014          48.000  
  20741280.556   108996167.554        2237.323          49.000  
  22837816.462   120013528.738       -1980.294          45.000  
  24724759.321   129929487.1562      -1417.032          39.000  
 16  5 20 10 24 10.0000000  0 10G 1G 3G 7G11G17G19G22G28G30G 8
  21511332.035   113042815.302       -1664.049          49.000  
  21584619.250   113427932.425        2234.734          48.000  
  24074427.119   126511971.225       -2564.895          41.000  
  22331255.121   117351542.383       -1852.599          46.000  
  22364373.645   117525568.352        2336.105          48.000  
  23827725.155   125215535.709        3129.102          45.000  
  22122838.532   116256297.579         367.077          47.000  
  20740854.631   108993930.255        2237.109          48.000  
  22838193.596   120015509.651       -1981.964          45.000  
  24725031.405   129930916.1873      -1414.376          39.000  
 16  5 20 10 24 11.0000000  0 10G 1G 3G 7G11G17G19G22G28G30G 8
  21511648.774   113044479.422       -1663.859          48.000  
  21584194.215   113425697.979        2234.224          48.000  
  24074915.219   126514536.020       -2566.605          40.000  
  22331607.685   117353395.367       -1852.765          46.000  
  22363928.751   117523231.951        2336.272          47.000  
  23827129.928   125212406.865        3128.320          45.000  
  22122768.592   116255930.250         367.406          48.000  
  20740428.915   108991693.285        2236.786          48.000  
  22838570.521   120017492.144       -1983.662          44.000  
  24725299.807   129932332.6962      -1415.702          42.000  
 16  5 20 10 24 12.0000000  0 10G 1G 3G 7G11G17G19G22G28G30G 8
  21511965.356   113046143.204       -1663.185          49.000  
  21583769.093   113423464.443        2233.569          48.000  
  24075403.721   126517102.299       -2566.920          40.000  
  22331960.144   117355247.745       -1851.669          46.000  
  22363484.137   117520895.737        2336.367          48.000  
  23826534.526   125209278.533        3127.966          45.000  
  22122698.459   116255563.167         367.404          48.000  
  20740003.339   108989456.940        2236.249          48.000  
  22838948.074   120019476.342       -1985.551          45.000  
  24725569.570   129933748.8642      -1415.379          42.000  
 16  5 20 10 24 13.0000000  0 10G 1G 3G 7G11G17G19G22G28G30G 8
  21512281.990   113047806.452       -1662.960          49.000  
  21583344.268   113421231.619        2232.559          48.000  
  24075892.519   126519670.077       -2569.223          37.000  
  22332312.360   117357099.338       -1851.213          47.000  
  22363039.802   117518559.471        2336.258          48.000  
  23825939.142   125206150.561        3127.783          45.000  
  22122628.624   116255196.123         367.015          48.000  
  20739577.885   108987220.957        2235.736          49.000  
  22839326.150   120021462.090       -1986.609          45.000  
  24725837.081   129935164.4682      -1414.329          40.000  
 16  5 20 10 24 14.0000000  0 10G 1G 3G 7G11G17G19G22G28G30G 8
  21512598.485   113049469.384       -1663.547          48.000  
  21582919.320   113418999.501        2231.796          48.000  
  24076381.020   126522238.623       -2568.729          41.000  
  22332664.836   117358950.464       -1851.333          47.000  
  22362595.136   117516222.931        2336.519          48.000  
  23825343.688   125203022.625        3128.167          45.000  
  22122559.015   116254829.360         366.085          49.000  
  20739152.432   108984985.176        2235.419          48.000  
  22839704.279   120023448.826       -1986.275          44.000  
  24726108.712   129936580.0742      -1415.680          42.000  
 16  5 20 10 24 15.0000000  0 10G 1G 3G 7G11G17G19G22G28G30G 8
  21512915.346   113051133.840       -1664.986          49.000  
  21582494.791   113416768.314        2230.758          49.000  
  24076869.364   126524805.668       -2565.537          42.000  
  22333017.418   117360803.303       -1854.018          47.000  
  22362150.696   117513886.367        2336.500          48.000  
  23824748.584   125199894.085        3128.497          44.000  
  22122489.650   116254464.335         364.277          49.000  
  20738727.554   108982749.994        2234.912          49.000  
  22840082.111   120025434.282       -1984.502          43.000  
  24726377.829   129937992.3833      -1416.928          42.000  
 16  5 20 10 24 16.0000000  0 10G 1G 3G 7G11G17G19G22G28G30G 8
  21513232.539   113052800.333       -1667.670          49.000  
  21582070.524   113414537.899        2230.172          48.000  
  24077357.709   126527370.853       -2564.435          43.000  
  22333370.192   117362658.174       -1855.517          47.000  
  22361705.733   117511550.386        2336.036          48.000  
  23824153.566   125196765.385        3129.022          45.000  
  22122420.774   116254101.238         361.845          48.000  
  20738302.135   108980515.760        2233.844          49.000  
  22840459.611   120027418.240       -1983.712          45.000  
  24726647.208   129939410.8002      -1419.254          40.000  
 16  5 20 10 24 17.0000000  0 10G 1G 3G 7G11G17G19G22G28G30G 8
  21513549.958   113054468.811       -1668.755          49.000  
  21581646.047   113412308.627        2229.266          48.000  
  24077845.495   126529934.622       -2563.687          42.000  
  22333723.628   117364515.204       -1857.713          47.000  
  22361261.486   117509215.070        2335.460          47.000  
  23823558.636   125193636.803        3128.851          44.000  
  22122351.654   116253740.149         360.785          48.000  
  20737877.048   108978282.624        2233.209          49.000  
  22840837.095   120029401.166       -1983.052          45.000  
  24726916.500   129940830.7652      -1420.046          42.000  
 16  5 20 10 24 18.0000000  0 10G 1G 3G 7G11G17G19G22G28G30G 8
  21513867.325   113056137.782       -1669.326          48.000  
  21581221.763   113410079.678        2228.774          49.000  
  24078333.368   126532497.670       -2562.518          42.000  
  22334077.030   117366372.613       -1857.749          46.000  
  22360817.220   117506879.853        2334.969          48.000  
  23822962.432   125190508.279        3128.015          44.000  
  22122283.249   116253379.702         360.086          48.000  
  20737452.187   108976049.918        2232.239          49.000  
  22841214.107   120031383.716       -1982.938          45.000  
  24727188.199   129942250.9422      -1419.514          42.000  
 16  5 20 10 24 19.0000000  0 10G 1G 3G 7G11G17G19G22G28G30G 8
  21514184.849   113057807.495       -1670.498          49.000  
  21580797.984   113407851.379        2227.640          49.000  
  24078820.787   126535060.528       -2562.877          43.000  
  22334430.519   117368230.528       -1858.091          46.000  
  22360372.973   117504545.187        2334.462          48.000  
  23822367.606   125187380.129        3127.649          45.000  
  22122214.757   116253020.087         358.925          48.000  
  20737027.466   108973818.017        2231.293          49.000  
  22841591.450   120033366.450       -1982.868          44.000  
  24727458.573   129943671.4982      -1420.896          43.000  
 16  5 20 10 24 20.0000000  0 10G 1G 3G 7G11G17G19G22G28G30G 8
  21514502.810   113059477.847       -1670.345          49.000  
  21580374.241   113405623.584        2227.253          48.000  
  24079308.120   126537622.706       -2562.167          43.000  
  22334784.200   117370089.020       -1858.161          46.000  
  22359929.057   117502210.854        2333.813          49.000  
  23821771.856   125184252.191        3127.625          42.000  
  22122146.422   116252661.304         358.195          48.000  
  20736602.833   108971586.760        2230.872          49.000  
  22841968.532   120035349.129       -1982.859          45.000  
  24727728.284   129945092.1832      -1422.391          38.000  
 16  5 20 10 24 21.0000000  0 10G 1G 3G 7G11G17G19G22G28G30G 8
  21514820.892   113061148.813       -1671.154          49.000  
  21579950.567   113403396.393        2227.123          48.000  
  24079795.993   126540184.593       -2561.584          38.000  
  22335137.969   117371948.074       -1858.552          46.000  
  22359484.826   117499876.624        2333.857          48.000  
  23821176.960   125181124.349        3128.204          45.000  
  22122078.296   116252303.362         357.566          48.000  
  20736178.339   108969356.028        2230.817          48.000  
  22842345.823   120037331.590       -1982.004          44.000  
  24727999.844   129946513.1242      -1422.724          39.000  
 16  5 20 10 24 22.0000000  0 10G 1G 3G 7G11G17G19G22G28G30G 8
  21515138.923   113062820.512       -1672.043          49.000  
  21579526.771   113401169.927        2225.756          49.000  
  24080283.412   126542746.048       -2561.187          43.000  
  22335491.999   117373807.829       -1860.128          46.000  
  22359040.684   117497542.502        2334.012          49.000  
  23820581.123   125177996.474        3127.374          43.000  
  22122010.554   116251946.385         356.379          48.000  
  20735754.141   108967125.867        2229.651          49.000  
  22842723.062   120039313.996       -1982.290          45.000  
  24728270.287   129947934.6272      -1422.510          43.000  
 16  5 20 10 24 23.0000000  0 10G 1G 3G 7G11G17G19G22G28G30G 8
  21515457.476   113064492.823       -1672.705          49.000  
  21579103.219   113398944.145        2225.140          49.000  
  24080770.710   126545307.060       -2560.514          43.000  
  22335845.976   117375668.120       -1860.877          45.000  
  22358596.087   117495208.354        2334.451          48.000  
  23819986.000   125174868.332        3128.576          44.000  
  22121943.022   116251590.354         355.475          48.000  
  20735329.874   108964896.068        2229.462          49.000  
  22843100.405   120041296.129       -1982.697          44.000  
  24728540.644   129949356.7442      -1423.302          44.000  
 16  5 20 10 24 24.0000000  0 10G 1G 3G 7G11G17G19G22G28G30G 8
  21515775.594   113066166.150       -1674.072          48.000  
  21578679.947   113396719.287        2224.978          48.000  
  24081257.885   126547867.320       -2558.705          42.000  
  22336200.128   117377529.498       -1861.810          47.000  
  22358152.101   117492874.140        2334.745          48.000  
  23819390.110   125171739.785        3128.235          44.000  
  22121875.211   116251235.706         353.941          49.000  
  20734905.572   108962666.798        2228.955          48.000  
  22843477.661   120043277.711       -1980.807          45.000  
  24728811.419   129950779.8942      -1422.923          43.000  
 16  5 20 10 24 25.0000000  0 10G 1G 3G 7G11G17G19G22G28G30G 8
  21516094.444   113067840.430       -1674.515          49.000  
  21578256.552   113394495.167        2224.113          49.000  
  24081744.868   126550426.486       -2558.918          43.000  
  22336554.699   117379391.899       -1862.454          49.000  
  22357707.801   117490539.804        2334.890          47.000  
  23818794.988   125168610.821        3129.504          44.000  
  22121807.992   116250882.237         353.204          48.000  
  20734481.584   108960437.916        2228.943          49.000  
  22843854.743   120045258.436       -1979.880          46.000  
  24729082.211   129952203.3521      -1423.979          42.000  
 16  5 20 10 24 26.0000000  0 10G 1G 3G 7G11G17G19G22G28G30G 8
  21516413.033   113069515.286       -1674.905          49.000  
  21577833.314   113392271.595        2223.438          48.000  
  24082231.886   126552984.965       -2557.575          44.000  
  22336909.270   117381254.887       -1862.798          45.000  
  22357263.728   117488205.385        2335.245          48.000  
  23818199.482   125165481.516        3130.084          44.000  
  22121740.949   116250529.675         352.321          49.000  
  20734057.474   108958209.401        2228.607          49.000  
  22844231.424   120047238.718       -1979.793          45.000  
  24729353.353   129953627.717       -1425.240          42.000  
 16  5 20 10 24 27.0000000  0 10G 1G 3G 7G11G17G19G22G28G30G 8
  21516731.935   113071190.885       -1676.228          49.000  
  21577410.182   113390048.626        2222.144          48.000  
  24082718.346   126555542.892       -2557.731          46.000  
  22337263.894   117383118.567       -1863.980          45.000  
  22356819.166   117485871.068        2334.101          48.000  
  23817604.552   125162352.200        3128.662          45.000  
  22121674.167   116250178.032         350.958          47.000  
  20733633.626   108955981.401        2227.594          49.000  
  22844608.383   120049218.695       -1980.289          45.000  
  24729624.267   129955052.522       -1422.496          38.000  
 16  5 20 10 24 28.0000000  0 10G 1G 3G 7G11G17G19G22G28G30G 8
  21517051.117   113072867.085       -1676.698          49.000  
  21576987.241   113387826.365        2221.766          49.000  
  24083204.840   126558100.413       -2557.729          45.000  
  22337618.674   117384982.751       -1863.812          45.000  
  22356375.390   117483536.820        2334.357          48.000  
  23817009.011   125159222.770        3130.090          43.000  
  22121607.559   116249827.263         350.809          49.000  
  20733209.219   108953753.873        2227.246          49.000  
  22844984.784   120051198.540       -1979.635          45.000  
  24729895.740   129956478.051       -1424.197          38.000  
 16  5 20 10 24 29.0000000  0 10G 1G 3G 7G11G17G19G22G28G30G 8
  21517369.968   113074543.880       -1676.129          48.000  
  21576564.684   113385604.844        2221.689          48.000  
  24083691.789   126560657.594       -2556.760          46.000  
  22337973.332   117386847.444       -1863.596          45.000  
  22355931.020   117481202.636        2334.470          48.000  
  23816413.644   125156093.273        3130.273          43.000  
  22121540.655   116249477.418         350.048          49.000  
  20732785.877   108951526.888        2227.203          49.000  
  22845361.552   120053178.358       -1980.016          45.000  
  24730167.388   129957903.785       -1425.745          45.000  
 16  5 20 10 24 30.0000000  0 10G 1G 3G 7G11G17G19G22G28G30G 8
  21517689.219   113076221.452       -1678.151          49.000  
  21576141.952   113383384.032        2220.455          49.000  
  24084178.667   126563214.323       -2557.333          44.000  
  22338328.532   117388712.948       -1866.319          47.000  
  22355487.051   117478868.522        2333.535          48.000  
  23815817.981   125152963.673        3129.199          44.000  
  22121474.327   116249128.700         348.522          49.000  
  20732362.360   108949300.432        2225.800          49.000  
  22845738.337   120055157.947       -1979.757          45.000  
  24730438.913   129959330.399       -1426.322          37.000  
 16  5 20 10 24 31.0000000  0 10G 1G 3G 7G11G17G19G22G28G30G 8
  21518008.698   113077899.647       -1678.361          49.000  
  21575719.674   113381163.895        2221.147          44.000  
  24084664.883   126565770.585       -2556.505          44.000  
  22338683.748   117390578.938       -1866.260          47.000  
  22355042.699   117476534.568        2334.073          48.000  
  23815222.335   125149834.136        3129.443          45.000  
  22121408.208   116248780.740         347.579          48.000  
  20731938.564   108947074.522        2225.708          48.000  
  22846114.930   120057137.330       -1978.802          45.000  
  24730710.247   129960756.948       -1427.731          42.000  
 16  5 20 10 24 32.0000000  0 10G 1G 3G 7G11G17G19G22G28G30G 8
  21518328.194   113079578.367       -1678.732          49.000  
  21575297.362   113378944.304        2219.670          48.000  
  24085151.168   126568326.578       -2555.058          46.000  
  22339038.843   117392445.351       -1866.084          47.000  
  22354598.643   117474200.911        2333.793          48.000  
  23814626.498   125146704.803        3129.242          44.000  
  22121341.862   116248433.556         347.505          48.000  
  20731514.995   108944849.244        2225.330          49.000  
  22846491.803   120059116.954       -1979.338          44.000  
  24730982.016   129962183.943       -1426.558          42.000  
 16  5 20 10 24 33.0000000  0 10G 1G 3G 7G11G17G19G22G28G30G 8
  21518647.533   113081256.940       -1678.428          49.000  
  21574874.647   113376725.046        2218.990          48.000  
  24085637.436   126570882.770       -2556.989          45.000  
  22339393.989   117394311.477       -1865.939          47.000  
  22354154.623   117471867.182        2333.626          48.000  
  23814031.358   125143575.526        3129.602          43.000  
  22121276.110   116248086.562         346.891          49.000  
  20731091.443   108942624.187        2224.847          48.000  
  22846868.727   120061096.961       -1980.571          45.000  
  24731253.559   129963610.574       -1427.140          41.000  
 16  5 20 10 24 34.0000000  0 10G 1G 3G 7G11G17G19G22G28G30G 8
  21518966.418   113082935.355       -1678.786          48.000  
  21574452.876   113374506.454        2218.090          49.000  
  24086124.157   126573439.826       -2558.301          46.000  
  22339748.700   117396177.175       -1865.813          45.000  
  22353710.602   117469533.629        2332.817          49.000  
  23813435.677   125140446.764        3127.759          44.000  
  22121210.270   116247739.827         346.124          49.000  
  20730667.996   108940399.667        2223.639          48.000  
  22847245.722   120063078.158       -1982.366          44.000  
  24731524.858   129965036.974       -1426.019          42.000  
 16  5 20 10 24 35.0000000  0 10G 1G 3G 7G11G17G19G22G28G30G 8
  21519285.914   113084613.362       -1677.653          49.000  
  21574030.633   113372288.451        2217.773          49.000  
  24086610.896   126575997.742       -2558.059          47.000  
  22340103.812   117398042.352       -1865.151          47.000  
  22353266.407   117467199.874        2334.192          48.000  
  23812840.468   125137318.093        3128.784          44.000  
  22121144.256   116247393.215         346.548          49.000  
  20730244.706   108938175.375        2224.158          49.000  
  22847622.943   120065060.349       -1982.166          45.000  
  24731796.296   129966463.156       -1426.204          43.000  
 16  5 20 10 24 36.0000000  0 10G 1G 3G 7G11G17G19G22G28G30G 8
  21519605.445   113086291.173       -1677.554          48.000  
  21573608.599   113370071.204        2216.897          48.000  
  24087098.036   126578556.708       -2559.351          42.000  
  22340458.627   117399907.035       -1863.052          46.000  
  22352822.089   117464866.130        2333.904          48.000  
  23812244.979   125134189.714        3128.796          42.000  
  22121078.102   116247046.886         346.237          48.000  
  20729821.748   108935951.535        2223.761          49.000  
  22848000.112   120067043.676       -1983.267          45.000  
  24732067.821   129967889.293       -1425.177          40.000  
 16  5 20 10 24 37.0000000  0 10G 1G 3G 7G11G17G19G22G28G30G 8
  21519924.784   113087968.719       -1677.250          49.000  
  21573186.967   113367854.663        2216.372          48.000  
  24087585.194   126581116.507       -2559.472          41.000  
  22340813.303   117401771.350       -1863.589          46.000  
  22352378.190   117462532.437        2333.667          48.000  
  23811649.682   125131061.621        3128.192          43.000  
  22121012.018   116246700.833         346.365          48.000  
  20729398.859   108933728.156        2223.474          49.000  
  22848377.613   120069028.339       -1985.444          45.000  
  24732339.015   129969314.764       -1428.157          39.000  
 16  5 20 10 24 38.0000000  0 10G 1G 3G 7G11G17G19G22G28G30G 8
  21520244.001   113089645.908       -1676.920          49.000  
  21572765.143   113365638.701        2215.714          49.000  
  24088072.387   126583677.460       -2560.769          44.000  
  22341167.822   117403635.064       -1863.155          46.000  
  22351934.327   117460198.761        2333.891          48.000  
  23811054.909   125127934.041        3127.228          42.000  
  22120946.370   116246354.930         346.132          47.000  
  20728975.744   108931505.167        2223.126          49.000  
  22848755.480   120071014.172       -1986.027          45.000  
  24732610.314   129970739.959       -1425.245          44.000  
 16  5 20 10 24 39.0000000  0 10G 1G 3G 7G11G17G19G22G28G30G 8
  21520562.939   113091322.789       -1676.453          49.000  
  21572343.511   113363423.358        2215.245          48.000  
  24088559.632   126586239.366       -2561.771          43.000  
  22341522.462   117405498.243       -1862.844          46.000  
  22351489.974   117457865.198        2333.380          48.000  
  23810459.927   125124806.725        3126.550          43.000  
  22120880.531   116246009.140         345.939          48.000  
  20728553.135   108929282.613        2222.290          49.000  
  22849133.696   120073001.288       -1987.649          44.000  
  24732881.211   129972164.918       -1424.407          44.000  
 16  5 20 10 24 40.0000000  0 10G 1G 3G 7G11G17G19G22G28G30G 8
  21520881.754   113092999.408       -1675.831          48.000  
  21571921.914   113361208.682        2214.688          49.000  
  24089047.470   126588802.264       -2563.359          42.000  
  22341877.208   117407360.923       -1862.080          47.000  
  22351046.006   117455531.639        2334.231          48.000  
  23809864.752   125121679.758        3127.655          43.000  
  22120814.778   116245663.565         345.687          48.000  
  20728130.159   108927060.534        2222.308          49.000  
  22849511.982   120074989.513       -1988.524          44.000  
  24733152.195   129973589.533       -1422.171          37.000  
 16  5 20 10 24 41.0000000  0 10G 1G 3G 7G11G17G19G22G28G30G 8
  21521200.884   113094675.922       -1677.336          48.000  
  21571500.910   113358994.457        2213.866          49.000  
  24089535.273   126591365.394       -2562.862          46.000  
  22342231.500   117409223.372       -1863.302          47.000  
  22350601.793   117453198.117        2332.941          48.000  
  23809269.560   125118553.076        3126.025          42.000  
  22120749.165   116245318.251         344.786          48.000  
  20727707.375   108924838.793        2220.837          49.000  
  22849890.320   120076978.386       -1988.274          44.000  
  24733423.197   129975015.6473      -1424.923          39.000  
 16  5 20 10 24 42.0000000  0 10G 1G 3G 7G11G17G19G22G28G30G 8
  21521520.153   113096353.750       -1678.065          48.000  
  21571079.696   113356780.956        2213.539          48.000  
  24090022.902   126593927.353       -2561.201          47.000  
  22342585.983   117411087.075       -1863.836          47.000  
  22350157.895   117450864.997        2333.210          48.000  
  23808674.438   125115426.321        3126.904          42.000  
  22120683.884   116244974.311         343.960          48.000  
  20727284.504   108922617.824        2220.972          49.000  
  22850268.745   120078966.463       -1987.174          45.000  
  24733694.147   129976440.8272      -1426.494          37.000  
 16  5 20 10 24 43.0000000  0 10G 1G 3G 7G11G17G19G22G28G30G 8
  21521839.544   113098032.152       -1678.672          48.000  
  21570658.483   113354567.786        2213.129          48.000  
  24090510.112   126596488.484       -2561.327          44.000  
  22342940.886   117412951.268       -1864.629          47.000  
  22349714.223   117448531.958        2332.912          48.000  
  23808079.612   125112299.453        3127.539          44.000  
  22120618.167   116244631.073         342.650          48.000  
  20726862.121   108920397.297        2220.117          49.000  
  22850647.275   120080954.097       -1987.536          45.000  
  24733965.812   129977866.7523      -1427.002          43.000  
 16  5 20 10 24 44.0000000  0 10G 1G 3G 7G11G17G19G22G28G30G 8
  21522159.005   113099710.992       -1679.397          48.000  
  21570237.514   113352355.031        2212.261          48.000  
  24090997.532   126599048.960       -2560.712          45.000  
  22343295.614   117414815.768       -1864.446          47.000  
  22349270.045   117446198.971        2332.837          48.000  
  23807484.315   125109172.639        3126.776          44.000  
  22120553.618   116244288.453         342.256          48.000  
  20726439.843   108918177.156        2219.727          49.000  
  22851025.474   120082941.427       -1987.741          46.000  
  24734238.820   129979292.2892      -1425.441          41.000  
 16  5 20 10 24 45.0000000  0 10G 1G 3G 7G11G17G19G22G28G30G 8
  21522478.589   113101390.663       -1680.367          48.000  
  21569816.719   113350143.135        2211.122          48.000  
  24091484.567   126601609.287       -2560.471          42.000  
  22343650.604   117416681.075       -1865.826          47.000  
  22348826.268   117443866.394        2332.605          48.000  
  23806889.088   125106046.107        3126.617          45.000  
  22120488.093   116243946.928         340.745          48.000  
  20726017.653   108915957.833        2218.805          49.000  
  22851403.742   120084928.921       -1987.752          45.000  
  24734507.309   129980718.3832      -1425.649          41.000  
 16  5 20 10 24 46.0000000  0 10G 1G 3G 7G11G17G19G22G28G30G 8
  21522798.469   113103070.895       -1680.515          48.000  
  21569395.663   113347931.936        2210.848          48.000  
  24091971.969   126604169.402       -2560.266          47.000  
  22344005.838   117418546.857       -1866.113          47.000  
  22348382.370   117441533.929        2332.210          48.000  
  23806294.542   125102919.477        3126.892          43.000  
  22120423.108   116243606.246         340.486          48.000  
  20725594.939   108913739.041        2218.365          48.000  
  22851781.889   120086916.440       -1987.767          45.000  
  24734778.939   129982144.9522      -1426.141          42.000  
 16  5 20 10 24 47.0000000  0 10G 1G 3G 7G11G17G19G22G28G30G 8
  21523117.982   113104751.500       -1680.403          48.000  
  21568975.130   113345721.555        2210.143          48.000  
  24092459.005   126606729.631       -2560.476          45.000  
  22344360.688   117420412.872       -1866.045          46.000  
  22347937.983   117439201.472        2332.612          48.000  
  23805699.786   125099792.924        3126.727          44.000  
  22120358.839   116243266.370         339.409          48.000  
  20725172.835   108911520.724        2218.353          48.000  
  22852160.174   120088904.339       -1987.961          46.000  
  24735050.290   129983571.8412      -1427.400          42.000  
 16  5 20 10 24 48.0000000  0 10G 1G 3G 7G11G17G19G22G28G30G 8
  21523438.124   113106432.199       -1680.720          48.000  
  21568554.580   113343511.811        2209.889          48.000  
  24092946.110   126609290.410       -2561.153          44.000  
  22344715.922   117422278.894       -1866.056          47.000  
  22347494.171   117436869.082        2331.979          48.000  
  23805105.257   125096666.563        3126.538          44.000  
  22120294.064   116242926.969         338.671          48.000  
  20724750.715   108909302.913        2217.395          49.000  
  22852538.652   120090892.927       -1988.949          46.000  
  24735321.851   129984998.7762      -1426.714          43.000  
 16  5 20 10 24 49.0000000  0 10G 1G 3G 7G11G17G19G22G28G30G 8
  21523757.794   113108112.898       -1680.992          48.000  
  21568134.379   113341302.804        2208.646          48.000  
  24093433.373   126611851.480       -2561.307          45.000  
  22345070.894   117424144.781       -1866.301          47.000  
  22347050.290   117434536.641        2332.311          49.000  
  23804510.292   125093540.274        3126.251          44.000  
  22120229.777   116242588.009         338.014          48.000  
  20724329.013   108907085.473        2216.754          49.000  
  22852917.147   120092882.168       -1989.729          46.000  
  24735592.259   129986426.1772      -1424.666          43.000  
 16  5 20 10 24 50.0000000  0 10G 1G 3G 7G11G17G19G22G28G30G 8
  21524077.779   113109793.540       -1680.281          48.000  
  21567714.212   113339094.346        2208.284          48.000  
  24093920.862   126614413.028       -2562.224          42.000  
  22345425.867   117426010.426       -1865.562          46.000  
  22346607.002   117432204.177        2332.435          49.000  
  23803914.559   125090414.044        3126.471          44.000  
  22120165.456   116242249.386         338.860          48.000  
  20723907.241   108904868.400        2217.004          49.000  
  22853295.957   120094872.040       -1989.978          45.000  
  24735868.165   129987863.9753      -1427.056          36.000  
 16  5 20 10 24 51.0000000  0 10G 1G 3G 7G11G17G19G22G28G30G 8
  21524397.589   113111474.217       -1680.767          48.000  
  21567293.819   113336886.594        2207.379          48.000  
  24094408.404   126616975.120       -2563.082          43.000  
  22345780.944   117427875.932       -1865.726          47.000  
  22346163.034   117429871.767        2332.443          48.000  
  23803319.978   125087288.167        3125.427          42.000  
  22120101.378   116241911.254         337.852          48.000  
  20723485.574   108902651.862        2216.333          49.000  
  22853674.644   120096862.786       -1990.983          45.000  
  24736139.044   129989290.8252      -1429.740          38.000  
 16  5 20 10 24 52.0000000  0 10G 1G 3G 7G11G17G19G22G28G30G 8
  21524717.626   113113154.504       -1680.626          49.000  
  21566873.949   113334679.180        2207.111          48.000  
  24094896.085   126619537.469       -2562.964          43.000  
  22346135.933   117429740.931       -1865.133          46.000  
  22345719.275   117427539.053        2332.583          48.000  
  23802725.152   125084162.059        3125.482          43.000  
  22120036.690   116241573.202         337.411          47.000  
  20723063.401   108900435.371        2215.979          48.000  
  22854053.122   120098853.960       -1991.886          44.000  
  24736406.870   129990695.4683      -1425.057          42.000  
 16  5 20 10 24 53.0000000  0 10G 1G 3G 7G11G17G19G22G28G30G 8
  21525036.983   113114834.828       -1680.270          48.000  
  21566453.940   113332472.311        2206.176          48.000  
  24095384.045   126622100.195       -2562.894          42.000  
  22346490.906   117431605.761       -1864.798          46.000  
  22345276.039   117425206.493        2332.121          49.000  
  23802130.414   125081036.278        3125.482          42.000  
  22119972.317   116241235.456         337.587          47.000  
  20722641.193   108898219.326        2215.820          48.000  
  22854431.983   120100845.759       -1991.762          44.000  
  24736679.303   129992121.7102      -1426.023          41.000  
 16  5 20 10 24 54.0000000  0 10G 1G 3G 7G11G17G19G22G28G30G 8
  21525356.758   113116515.168       -1679.901          48.000  
  21566033.722   113330265.902        2206.656          48.000  
  24095871.447   126624663.307       -2562.807          42.000  
  22346845.599   117433470.413       -1864.072          47.000  
  22344831.634   117422874.059        2332.804          48.000  
  23801535.885   125077910.757        3126.385          44.000  
  22119908.309   116240898.095         337.513          48.000  
  20722219.752   108896003.802        2215.332          48.000  
  22854811.473   120102838.290       -1992.180          44.000  
  24736950.061   129993547.7522      -1426.308          39.000  
 16  5 20 10 24 55.0000000  0 10G 1G 3G 7G11G17G19G22G28G30G 8
  21525676.551   113118195.504       -1680.542          49.000  
  21565613.991   113328059.896        2206.396          49.000  
  24096359.582   126627226.528       -2563.104          42.000  
  22347200.501   117435334.873       -1864.370          46.000  
  22344387.718   117420541.788        2331.968          48.000  
  23800941.566   125074785.579        3124.561          43.000  
  22119844.092   116240560.977         336.962          47.000  
  20721798.400   108893788.694        2214.838          48.000  
  22855190.981   120104831.318       -1993.329          44.000  
  24737222.808   129994973.3932      -1424.983          42.000  
 16  5 20 10 24 56.0000000  0 10G 1G 3G 7G11G17G19G22G28G30G 8
  21525996.413   113119875.774       -1680.549          48.000  
  21565194.523   113325854.442        2205.187          49.000  
  24096847.281   126629790.148       -2563.696          45.000  
  22347555.334   117437199.015       -1863.296          46.000  
  22343943.663   117418209.600        2332.746          48.000  
  23800346.880   125071660.725        3124.908          39.000  
  22119780.137   116240224.125         336.716          49.000  
  20721376.628   108891574.083        2214.728          48.000  
  22855570.558   120106825.077       -1993.969          45.000  
  24737494.804   129996398.9592      -1426.031          39.000  
 16  5 20 10 24 57.0000000  0 10G 1G 3G 7G11G17G19G22G28G30G 8
  21526316.241   113121555.870       -1680.266          48.000  
  21564774.514   113323649.318        2204.578          49.000  
  24097335.084   126632354.199       -2564.261          46.000  
  22347909.818   117439062.864       -1863.828          46.000  
  22343499.502   117415877.605        2331.247          47.000  
  23799752.089   125068536.244        3123.950          43.000  
  22119716.095   116239887.458         336.071          49.000  
  20720955.554   108889359.837        2213.953          48.000  
  22855949.681   120108819.559       -1994.817          44.000  
  24737766.120   129997824.2122      -1426.142          41.000  
 16  5 20 10 24 58.0000000  0 10G 1G 3G 7G11G17G19G22G28G30G 8
  21526635.772   113123236.234       -1681.316          49.000  
  21564354.714   113321444.635        2204.266          49.000  
  24097823.027   126634917.880       -2563.591          45.000  
  22348264.354   117440926.918       -1865.020          47.000  
  22343056.005   117413545.519        2331.557          48.000  
  23799157.403   125065411.638        3123.846          45.000  
  22119651.913   116239551.340         335.048          48.000  
  20720534.253   108887145.966        2213.080          48.000  
  22856329.485   120110814.013       -1994.484          45.000  
  24738036.494   129999249.0432      -1425.385          42.000  
 16  5 20 10 24 59.0000000  0 10G 1G 3G 7G11G17G19G22G28G30G 8
  21526955.861   113124917.576       -1681.612          48.000  
  21563935.769   113319240.858        2202.949          49.000  
  24098310.988   126637481.100       -2563.802          44.000  
  22348619.675   117442791.849       -1865.840          44.000  
  22342612.316   117411213.664        2331.659          48.000  
  23798562.822   125062287.067        3124.103          43.000  
  22119587.836   116239216.438         334.273          48.000  
  20720113.162   108884932.767        2212.799          49.000  
  22856709.097   120112808.211       -1994.062          45.000  
  24738308.316   130000674.9332      -1425.793          42.000  
 16  5 20 10 25  0.0000000  0 10G 1G 3G 7G11G17G19G22G28G30G 8
  21527275.776   113126599.121       -1681.323          48.000  
  21563516.824   113317037.498        2202.754          49.000  
  24098798.617   126640044.180       -2564.121          46.000  
  22348974.316   117444656.872       -1864.287          44.000  
  22342168.749   117408881.901        2331.845          49.000  
  23797967.857   125059162.605        3124.396          42.000  
  22119524.317   116238881.991         334.096          48.000  
  20719691.914   108882720.054        2212.360          48.000  
  22857088.604   120114802.615       -1994.580          45.000  
  24738579.457   130002100.7442      -1424.809          41.000  
 16  5 20 10 25  1.0000000  0 10G 1G 3G 7G11G17G19G22G28G30G 8
  21527595.586   113128280.490       -1681.350          45.000  
  21563097.513   113314834.780        2201.735          49.000  
  24099286.525   126642608.110       -2564.670          45.000  
  22349329.358   117446522.244       -1860.960          39.000  
  22341724.850   117406550.256        2331.373          48.000  
  23797373.589   125056038.489        3123.425          45.000  
  22119460.851   116238547.779         333.260          47.000  
  20719271.311   108880507.768        2211.414          48.000  
  22857468.199   120116798.165       -1997.019          45.000  
  24738850.267   130003526.386       -1423.391          41.000  
 16  5 20 10 25  3.0000000  0 10G 1G 3G 7G11G17G19G22G28G30G 8
  21528235.451   113131641.967       -1680.728          49.000  
  21562259.292   113310431.180        2198.138          43.000  
  24100262.830   126647739.012       -2565.277          45.000  
  22350038.518   117450249.752       -1863.458          47.000  
  22340837.698   117401886.967        2331.386          48.000  
  23796184.776   125049791.401        3122.644          44.000  
  22119333.743   116237879.605         333.849          49.000  
  20718429.042   108876084.383        2210.901          48.000  
  22858228.226   120120793.009       -1998.273          43.000  
  24739392.655   130006386.0423      -1424.302          38.000  
 16  5 20 10 25  4.0000000  0 10G 1G 3G 7G11G17G19G22G28G30G 8
  21528555.261   113133322.201       -1680.704          49.000  
  21561840.678   113308230.205        2199.928          49.000  
  24100751.418   126650305.951       -2567.776          40.000  
  22350392.984   117452112.588       -1863.258          47.000  
  22340394.009   117399555.222        2331.667          48.000  
  23795590.282   125046668.120        3123.914          45.000  
  22119270.521   116237545.830         333.258          48.000  
  20718008.387   108873873.208        2210.773          49.000  
  22858608.937   120122792.152       -1999.948          45.000  
  24739663.953   130007810.6062      -1425.365          41.000  
 16  5 20 10 25  5.0000000  0 10G 1G 3G 7G11G17G19G22G28G30G 8
  21528874.949   113135003.373       -1682.472          49.000  
  21561422.065   113306030.142        2199.681          48.000  
  24101239.536   126652872.262       -2564.624          44.000  
  22350747.747   117453976.411       -1865.788          46.000  
  22339950.320   117397223.601        2331.073          48.000  
  23794995.962   125043544.800        3124.072          44.000  
  22119207.072   116237213.228         331.431          48.000  
  20717587.994   108871662.628        2209.991          49.000  
  22858989.265   120124790.866       -1997.449          46.000  
  24739935.147   130009235.8312      -1425.445          40.000  
 16  5 20 10 25  6.0000000  0 11G 1G 3G 7G11G17G19G22G28G30G 8G 6
  21529195.492   113136686.263       -1683.666          48.000  
  21561003.382   113303830.936        2198.528          49.000  
  24101727.322   126655436.798       -2563.543          43.000  
  22351102.632   117455842.008       -1866.306          47.000  
  22339506.631   117394892.397        2330.498          47.000  
  23794401.538   125040421.275        3125.024          45.000  
  22119144.059   116236882.383         329.997          49.000  
  20717167.478   108869452.909        2209.369          49.000  
  22859369.383   120126788.408       -1997.569          45.000  
  24740206.620   130010662.3972      -1427.911          39.000  
  23633994.286   124197478.2152       3681.907          43.000  
 16  5 20 10 25  7.0000000  0 11G 1G 3G 7G11G17G19G22G28G30G 8G 6
  21529515.668   113138369.749       -1684.099          48.000  
  21560585.031   113301632.038        2198.812          48.000  
  24102214.933   126658000.487       -2562.357          40.000  
  22351457.622   117457708.112       -1866.493          47.000  
  22339062.976   117392561.186        2330.579          48.000  
  23793807.149   125037297.696        3122.913          42.000  
  22119081.413   116236552.257         329.802          48.000  
  20716747.015   108867243.556        2208.649          48.000  
  22859749.222   120128785.260       -1996.658          46.000  
  24740478.128   130012089.1562      -1427.878          41.000  
  23633293.502   124193795.8482       3681.618          44.000  
 16  5 20 10 25  8.0000000  0 11G 1G 3G 7G11G17G19G22G28G30G 8G 6
  21529836.264   113140053.954       -1684.670          48.000  
  21560166.470   113299433.882        2196.899          49.000  
  24102702.981   126660563.610       -2562.752          42.000  
  22351812.978   117459574.847       -1866.792          47.000  
  22338619.636   117390230.183        2331.544          48.000  
  23793212.899   125034174.017        3122.906          44.000  
  22119018.872   116236223.072         328.152          49.000  
  20716326.692   108865034.796        2208.411          48.000  
  22860129.427   120130781.930       -1996.890          45.000  
  24740750.003   130013518.4283      -1427.929          42.000  
  23632592.754   124190113.2992       3683.122          44.000  
 16  5 20 10 25  9.0000000  0 11G 1G 3G 7G11G17G19G22G28G30G 8G 6
  21530156.842   113141738.846       -1685.409          49.000  
  21559748.642   113297236.364        2196.711          49.000  
  24103190.872   126663126.338       -2563.348          39.000  
  22352168.526   117461442.248       -1867.807          47.000  
  22338176.226   117387899.290        2331.341          49.000  
  23792618.423   125031050.216        3124.292          44.000  
  22118956.190   116235894.865         327.547          48.000  
  20715906.403   108862826.564        2207.892          48.000  
  22860509.493   120132778.489       -1996.989          45.000  
  24741019.766   130014936.2702      -1429.057          42.000  
  23631891.988   124186430.6172       3682.648          43.000  
 16  5 20 10 25 10.0000000  0 11G 1G 3G 7G11G17G19G22G28G30G 8G 6
  21530477.559   113143424.878       -1686.997          48.000  
  21559330.308   113295039.620        2196.099          48.000  
  24103678.343   126665687.944       -2561.176          44.000  
  22352524.039   117463310.807       -1870.082          47.000  
  22337732.327   117385568.660        2329.904          48.000  
  23792023.771   125027926.356        3124.323          44.000  
  22118894.015   116235567.940         326.215          48.000  
  20715485.975   108860618.975        2207.062          48.000  
  22860888.843   120134774.287       -1995.329          45.000  
  24741290.977   130016360.8912      -1429.549          40.000  
  23631191.187   124182747.2842       3683.999          45.000  
 16  5 20 10 25 11.0000000  0 11G 1G 3G 7G11G17G19G22G28G30G 8G 6
  21530798.678   113145112.170       -1688.270          49.000  
  21558912.532   113292843.555        2195.676          49.000  
  24104165.553   126668248.406       -2560.412          45.000  
  22352879.867   117465180.625       -1870.566          46.000  
  22337289.005   117383238.260        2329.471          48.000  
  23791429.365   125024802.366        3123.816          44.000  
  22118831.910   116235242.394         324.816          48.000  
  20715066.489   108858412.068        2206.293          48.000  
  22861268.665   120136769.190       -1994.721          46.000  
  24741565.050   130017790.4502      -1428.744          37.000  
  23630490.055   124179063.0982       3684.880          43.000  
 16  5 20 10 25 12.0000000  0 11G 1G 3G 7G11G17G19G22G28G30G 8G 6
  21531119.972   113146800.680       -1688.965          49.000  
  21558494.826   113290648.177        2195.002          49.000  
  24104652.572   126670807.564       -2559.088          43.000  
  22353235.938   117467051.617       -1871.351          47.000  
  22336845.909   117380908.161        2329.619          48.000  
  23790834.940   125021678.317        3123.352          44.000  
  22118769.944   116234918.124         323.844          48.000  
  20714646.655   108856205.898        2205.505          48.000  
  22861648.015   120138763.278       -1994.039          45.000  
  24741835.319   130019220.7782      -1430.625          38.000  
  23629788.591   124175378.1942       3684.674          44.000  
 16  5 20 10 25 13.0000000  0 11G 1G 3G 7G11G17G19G22G28G30G 8G 6
  21531441.596   113148490.269       -1689.974          48.000  
  21558077.365   113288453.382        2194.280          49.000  
  24105139.241   126673365.544       -2557.866          44.000  
  22353592.481   117468923.665       -1871.926          48.000  
  22336402.202   117378578.212        2330.166          48.000  
  23790240.377   125018554.053        3124.469          45.000  
  22118708.519   116234595.031         322.690          47.000  
  20714226.366   108854000.243        2205.377          48.000  
  22862027.417   120140756.506       -1993.140          46.000  
  24742109.322   130020661.8353      -1431.974          40.000  
  23629087.459   124171692.4222       3686.146          45.000  
 16  5 20 10 25 14.0000000  0 11G 1G 3G 7G11G17G19G22G28G30G 8G 6
  21531763.326   113150180.719       -1690.382          49.000  
  21557659.519   113286259.172        2194.247          48.000  
  24105625.892   126675922.673       -2556.522          44.000  
  22353948.466   117470796.584       -1872.247          46.000  
  22335958.966   117376248.557        2329.488          48.000  
  23789645.778   125015429.804        3124.432          45.000  
  22118647.234   116234273.000         321.835          48.000  
  20713806.758   108851795.239        2204.596          48.000  
  22862406.768   120142749.247       -1992.206          45.000  
  24742380.708                       -1432.207          36.000  
  23628386.082   124168006.3102       3686.680          44.000  
 16  5 20 10 25 15.0000000  0 11G 1G 3G 7G11G17G19G22G28G30G 8G 6
  21532085.143   113151871.881       -1691.110          49.000  
  21557242.564   113284065.336        2193.453          48.000  
  24106112.230   126678479.103       -2555.240          44.000  
  22354304.869   117472670.062       -1874.574          46.000  
  22335515.696   117373919.353        2329.316          48.000  
  23789051.336   125012305.842        3126.031          45.000  
  22118586.141   116233951.617         320.909          48.000  
  20713387.517   108849590.855        2204.059          49.000  
  22862785.839   120144741.758       -1992.668          46.000  
  24742654.013   130023523.5572      -1433.203          41.000  
  23627684.514   124164320.1252       3686.170          45.000  
 16  5 20 10 25 16.0000000  0 11G 1G 3G 7G11G17G19G22G28G30G 8G 6
  21532406.943   113153563.909       -1692.517          49.000  
  21556824.997   113281872.224        2192.245          48.000  
  24106598.637   126681034.984       -2555.164          43.000  
  22354661.900   117474544.325       -1875.326          46.000  
  22335072.635   117371590.541        2327.676          48.000  
  23788456.703   125009182.251        3124.542          43.000  
  22118525.571   116233631.305         319.348          49.000  
  20712968.677   108847387.256        2203.027          49.000  
  22863164.892   120146734.167       -1992.640          44.000  
  24742926.795   130024955.5492      -1432.594          41.000  
  23626982.875   124160633.8662       3686.854          44.000  
 16  5 20 10 25 18.0000000  0 11G 1G 3G 7G11G17G19G22G28G30G 8G 6
  21533051.833   113156951.126       -1694.763          49.000  
  21555990.598   113277488.176        2190.939          48.000  
  24107571.016   126686143.697       -2554.208          42.000  
  22355376.033   117478295.974       -1877.062          47.000  
  22334186.304   117366933.030        2328.266          48.000  
  23787268.099   125002933.969        3123.950          42.000  
  22118404.205   116232994.447         316.776          49.000  
  20712129.827   108842981.720        2202.051          49.000  
  22863922.947   120150716.550       -1991.236          45.000  
  24743472.847   130027822.1832      -1433.361          40.000  
  23625579.599   124153259.0942       3687.193          44.000  
 16  5 20 10 25 19.0000000  0 10G 1G 3G 7G11G17G19G22G28G30G 6
  21533374.103   113158645.562       -1694.666          49.000  
  21555573.380   113275297.005        2190.597          49.000  
  24108057.022   126688697.133       -2553.202          43.000  
  22355732.873   117480172.563       -1876.706          46.000  
  22333743.557   117364604.345        2328.226          49.000  
  23786673.378   124999809.677        3123.626          42.000  
  22118343.792   116232677.226         317.078          48.000  
  20711711.039   108840779.604        2201.581          49.000  
  22864301.739   120152707.364       -1991.369          45.000  
  23624878.047   124149570.8471       3686.997          45.000  
 16  5 20 10 25 20.0000000  0 11G 1G 3G 7G11G17G19G22G28G30G 6G 8
  21533696.287   113160339.999       -1694.161          49.000  
  21555156.809   113273106.294        2190.446          49.000  
  24108542.993   126691250.809       -2554.002          44.000  
  22356089.730   117482048.998       -1875.913          46.000  
  22333300.129   117362275.634        2329.343          48.000  
  23786078.325   124996685.417        3124.426          42.000  
  22118283.240   116232360.379         316.865          48.000  
  20711291.938   108838577.825        2201.959          49.000  
  22864680.758   120154698.613       -1991.578          45.000  
  23624175.955   124145883.572        3687.203          43.000  
  24744018.010   130030696.8233      -1433.432          37.000  
 16  5 20 10 25 21.0000000  0 11G 1G 3G 7G11G17G19G22G28G30G 6G 8
  21534018.697   113162033.248       -1692.206          49.000  
  21554740.133   113270915.804        2190.602          49.000  
  24109029.034   126693805.718       -2555.304          45.000  
  22356446.709   117483923.954       -1873.836          46.000  
  22332857.190   117359946.557        2329.376          49.000  
  23785484.215   124993561.425        3123.382          43.000  
  22118223.351   116232042.943         317.637          48.000  
  20710873.028   108836376.090        2201.685          48.000  
  22865059.829   120156691.368       -1993.636          45.000  
  23623474.614   124142197.794        3684.901          44.000  
  24744289.518   130032129.3772      -1429.494          37.000  
 16  5 20 10 25 22.0000000  0 11G 1G 3G 7G11G17G19G22G28G30G 6G 8
  21534340.845   113163726.155       -1693.393          49.000  
  21554323.282   113268726.188        2189.203          49.000  
  24109515.406   126696362.151       -2555.967          43.000  
  22356803.356   117485798.353       -1874.916          46.000  
  22332414.112   117357617.521        2328.932          49.000  
  23784888.692   124990437.821        3123.676          43.000  
  22118162.746   116231725.693         316.796          48.000  
  20710454.030   108834174.781        2201.331          48.000  
  22865439.354   120158685.735       -1994.334          45.000  
  23622773.673   124138513.581        3684.368          45.000  
  24744564.201   130033561.9042      -1433.086          43.000  
 16  5 20 10 25 23.0000000  0 11G 1G 3G 7G11G17G19G22G28G30G 6G 8
  21534663.116   113165419.607       -1693.632          49.000  
  21553906.658   113266537.479        2187.887          49.000  
  24110001.622   126698918.418       -2557.135          44.000  
  22357159.951   117487673.303       -1875.527          46.000  
  22331971.243   117355288.391        2329.338          49.000  
  23784293.831   124987313.958        3123.468          43.000  
  22118102.456   116231409.476         315.656          48.000  
  20710035.400   108831973.970        2200.488          48.000  
  22865819.001   120160680.162       -1995.025          44.000  
  23622072.785   124134829.383        3683.928          44.000  
  24744836.582   130034994.9452      -1432.800          39.000  
 16  5 20 10 25 24.0000000  0 11G 1G 3G 7G11G17G19G22G28G30G 6G 8
  21534985.579   113167113.219       -1694.021          49.000  
  21553490.243   113264349.613        2187.660          49.000  
  24110488.169   126701475.064       -2556.593          45.000  
  22357516.913   117489548.298       -1875.049          46.000  
  22331527.292   117352958.961        2329.313          49.000  
  23783700.087   124984189.850        3124.176          43.000  
  22118042.619   116231093.948         315.532          48.000  
  20709616.594   108829773.427        2200.189          48.000  
  22866198.508   120162674.975       -1994.988          44.000  
  23621371.950   124131145.501        3683.535          43.000  
  24745108.264   130036428.3002      -1433.552          37.000  
 16  5 20 10 25 25.0000000  0 10G 1G 3G 7G11G17G19G22G28G30G 6
  21535307.937   113168807.045       -1694.534          49.000  
  21553074.317   113262162.468        2186.089          49.000  
  24110974.908   126704031.862       -2556.670          44.000  
  22357873.805   117491423.390       -1875.662          46.000  
  22331083.864   117350629.674        2328.288          49.000  
  23783106.239   124981065.941        3123.499          45.000  
  22117982.433   116230779.027         314.004          48.000  
  20709197.911   108827573.428        2199.152          48.000  
  22866577.911   120164670.344       -1995.628          45.000  
  23620670.678   124127462.115        3683.127          43.000  
 16  5 20 10 25 26.0000000  0 11G 1G 3G 7G11G17G19G22G28G30G 6G 8
  21535630.172   113170501.844       -1695.490          49.000  
  21552658.322   113259975.814        2186.227          49.000  
  24111461.158   126706587.747       -2554.972          45.000  
  22358230.644   117493299.383       -1877.028          46.000  
  22330640.873   117348300.749        2328.848          48.000  
  23782512.146   124977942.168        3123.273          45.000  
  22117922.946   116230465.112         313.036          48.000  
  20708779.490   108825374.140        2198.792          49.000  
  22866957.767   120166665.182       -1994.441          46.000  
  23619969.964   124123778.354        3683.965          44.000  
  24745653.845   130039311.4653      -1432.569          36.000  
 16  5 20 10 25 27.0000000  0 11G 1G 3G 7G11G17G19G22G28G30G 6G 8
  21535953.036   113172197.693       -1695.613          49.000  
  21552242.221   113257789.968        2186.398          49.000  
  24111947.618   126709142.806       -2554.162          46.000  
  22358587.816   117495176.403       -1876.886          47.000  
  22330197.707   117345972.059        2329.279          49.000  
  23781917.775   124974818.288        3123.895          44.000  
  22117862.917   116230152.493         312.900          46.000  
  20708361.051   108823175.509        2198.810          48.000  
  22867337.571   120168659.481       -1993.532          46.000  
  23619268.710   124120094.070        3684.962          44.000  
  24745930.553   130040746.1212      -1433.831          31.000  
 16  5 20 10 25 28.0000000  0 11G 1G 3G 7G11G17G19G22G28G30G 6G 8
  21536275.778   113173893.731       -1696.296          50.000  
  21551826.679   113255605.066        2184.279          49.000  
  24112433.920   126711698.104       -2557.076          44.000  
  22358944.742   117497053.668       -1876.749          46.000  
  22329754.332   117343643.023        2328.778          48.000  
  23781323.368   124971694.079        3122.925          44.000  
  22117803.673   116229840.580         312.165          47.000  
  20707942.543   108820977.174        2198.053          48.000  
  22867717.253   120170654.136       -1996.773          43.000  
  23618567.543   124116409.976        3683.407          44.000  
  24746205.202   130042185.8483      -1435.512          33.000  
 16  5 20 10 25 29.0000000  0 11G 1G 3G 7G11G17G19G22G28G30G 6G 8
  21536598.380   113175588.623       -1694.495          49.000  
  21551410.648   113253420.486        2184.552          49.000  
  24112920.240   126714255.020       -2556.881          44.000  
  22359301.826   117498929.337       -1874.566          47.000  
  22329311.411   117341313.623        2329.681          49.000  
  23780728.420   124968569.958        3123.828          41.000  
  22117744.186   116229528.198         312.363          48.000  
  20707524.191   108818778.865        2198.096          48.000  
  22868096.917   120172650.435       -1995.761          44.000  
  23617866.812   124112727.683        3682.177          45.000  
  24746473.552   130043595.9192      -1433.936          41.000  
 16  5 20 10 25 30.0000000  0 11G 1G 3G 7G11G17G19G22G28G30G 6G 8
  21536920.825   113177283.982       -1696.140          49.000  
  21550995.054   113251236.278        2183.806          49.000  
  24113406.526   126716811.590       -2556.129          44.000  
  22359659.084   117500805.380       -1876.737          47.000  
  22328868.158   117338984.878        2328.033          48.000  
  23780134.240   124965446.601        3123.114          44.000  
  22117684.768   116229216.286         311.549          49.000  
  20707106.171   108816581.372        2196.533          49.000  
  22868477.018   120174647.167       -1996.689          41.000  
  23617166.290   124109045.799        3681.507          44.000  
  24746746.979   130045029.8592      -1434.231          42.000  
 16  5 20 10 25 31.0000000  0 11G 1G 3G 7G11G17G19G22G28G30G 6G 8
  21537243.619   113178980.725       -1697.843          49.000  
  21550579.809   113249051.902        2184.326          49.000  
  24113892.933   126719366.314       -2553.970          44.000  
  22360016.081   117502682.473       -1877.634          46.000  
  22328425.550   117336657.505        2326.317          48.000  
  23779540.514   124962324.395        3121.576          45.000  
  22117625.908   116228905.175         310.582          48.000  
  20706688.465   108814385.048        2195.453          49.000  
  22868856.665   120176642.854       -1995.267          43.000  
  23616465.367   124105363.461        3682.628          44.000  
  24747020.529   130046463.8652      -1433.467          41.000  
 16  5 20 10 25 32.0000000  0 11G 1G 3G 7G11G17G19G22G28G30G 6G 8
  21537567.251   113180679.509       -1699.612          48.000  
  21550163.656   113246866.790        2185.264          48.000  
  24114378.415   126721917.749       -2550.412          40.000  
  22360373.601   117504561.246       -1879.243          47.000  
  22327982.664   117334332.321        2324.416          48.000  
  23778946.107   124959203.972        3120.312          43.000  
  22117566.542   116228594.918         309.938          47.000  
  20706270.742   108812190.297        2194.208          49.000  
  22869235.893   120178636.639       -1993.301          43.000  
  23615764.235   124101679.990        3684.243          41.000  
  24747291.810   130047895.3073      -1434.530          41.000  
 16  5 20 10 25 33.0000000  0 11G 1G 3G 7G11G17G19G22G28G30G 6G 8
  21537890.796   113182380.341       -1702.611          49.000  
  21549747.224   113244681.469        2184.365          48.000  
  24114863.305   126724466.019       -2547.161          43.000  
  22360731.627   117506442.045       -1882.722          47.000  
  22327540.214   117332008.327        2323.659          47.000  
  23778352.573   124956084.134        3120.398          44.000  
  22117508.363   116228286.055         306.592          49.000  
  20705853.071   108809996.592        2192.737          48.000  
  22869614.859   120180628.126       -1990.705          44.000  
  23615062.841   124097994.766        3686.346          43.000  
  24747566.180   130049329.4732      -1434.153          40.000  
 16  5 20 10 25 34.0000000  0 11G 1G 3G 7G11G17G19G22G28G30G 6G 8
  21538214.689   113184084.350       -1705.070          49.000  
  21549331.979   113242498.275        2182.494          48.000  
  24115347.775   126727011.444       -2544.217          41.000  
  22361090.089   117508326.584       -1886.050          47.000  
  22327097.955   117329683.559        2326.034          47.000  
  23777758.620   124952961.954        3124.615          44.000  
  22117450.114   116227980.822         303.416          48.000  
  20705435.644   108807803.357        2193.683          48.000  
  22869993.424   120182616.459       -1986.573          43.000  
  23614360.714   124094305.963        3690.884          45.000  
  24747836.344   130050767.4162      -1440.403          38.000  
 16  5 20 10 25 35.0000000  0 11G 1G 3G 7G11G17G19G22G28G30G 6G 8
  21538539.455   113185791.122       -1707.954          49.000  
  21548917.134   113240317.931        2178.735          48.000  
  24115831.635   126729554.336       -2542.834          42.000  
  22361449.442   117510214.873       -1889.910          47.000  
  22326654.790   117327356.381        2328.763          48.000  
  23777163.794   124949835.686        3127.478          45.000  
  22117392.913   116227679.777         298.579          48.000  
  20705018.235   108805609.682        2193.811          48.000  
  22870371.187   120184601.193       -1984.182          43.000  
  23613658.133   124090612.588        3695.317          44.000  
  24748113.890   130052209.8522      -1444.021          41.000  
 16  5 20 10 25 36.0000000  0 11G 1G 3G 7G11G17G19G22G28G30G 6G 8
  21538864.919   113187499.941       -1709.901          49.000  
  21548502.954   113238141.178        2175.073          48.000  
  24116315.233   126732096.460       -2541.447          44.000  
  22361809.370   117512106.229       -1892.682          47.000  
  22326211.380   117325026.135        2332.465          48.000  
  23776568.026   124946704.946        3134.064          44.000  
  22117335.868   116227382.812         294.888          49.000  
  20704600.739   108803415.277        2195.032          48.000  
  22870748.286   120186583.901       -1980.148          44.000  
  23612954.732   124086916.052        3698.604          44.000  
  24748389.167   130053657.2522      -1450.922          37.000  
 16  5 20 10 25 37.0000000  0 11G 1G 3G 7G11G17G19G22G28G30G 6G 8
  21539190.784   113189211.989       -1714.186          48.000  
  21548089.698   113235968.263        2171.265          49.000  
  24116798.830   126734636.598       -2537.851          43.000  
  22362169.979   117514001.972       -1898.362          46.000  
  22325767.690   117322692.987        2334.238          48.000  
  23775971.334   124943569.403        3137.714          43.000  
  22117280.621   116227090.936         288.860          48.000  
  20704183.068   108801220.349        2194.904          48.000  
  22871125.106   120188563.258       -1977.015          45.000  
  23612250.512   124083214.838        3704.079          43.000  
  24748665.613   130055110.3862      -1455.493          42.000  
 16  5 20 10 25 39.0000000  0 11G 1G 3G 7G11G17G19G22G28G30G 6G 8
  21539845.150   113192651.192       -1727.333          48.000  
  21547264.547   113231631.833        2166.139          48.000  
  24117762.484   126739702.015       -2524.657          42.000  
  22362895.419   117517812.244       -1913.561          46.000  
  22324878.811   117318021.961        2333.549          48.000  
  23774775.470   124937285.833        3142.743          43.000  
  22117173.127   116226524.605         277.048          47.000  
  20703348.005   108796831.452        2191.797          48.000  
  22871875.430   120192504.763       -1964.111          45.000  
  23610837.986   124075792.933        3718.067          43.000  
  24749221.699   130058035.5052      -1468.632          39.000  
 16  5 20 10 25 40.0000000  0 11G 1G 3G 7G11G17G19G22G28G30G 6G 8
  21540174.575   113194382.703       -1734.198          48.000  
  21546852.093   113229465.756        2167.568          48.000  
  24118242.295   126742221.930       -2514.499          43.000  
  22363260.233   117519730.049       -1920.330          44.000  
  22324435.419   117315690.912        2328.629          49.000  
  23774177.748   124934144.237        3140.369          40.000  
  22117120.899   116226250.768         273.042          47.000  
  20702931.346   108794641.506        2188.849          49.000  
  22872248.394   120194464.564       -1955.723          45.000  
  23610129.804   124072071.922        3723.875          43.000  
  24749500.903   130059506.0562      -1470.176          42.000  
 16  5 20 10 25 41.0000000  0 11G 1G 3G 7G11G17G19G22G28G30G 6G 8
  21540504.734   113196118.474       -1736.752          48.000  
  21546439.570   113227296.217        2171.403          49.000  
  24118720.082   126744733.044       -2508.444          40.000  
  22363625.746   117521651.414       -1921.239          44.000  
  22323992.898   117313364.791        2323.402          48.000  
  23773580.968   124931006.447        3136.249          40.000  
  22117069.089   116225977.543         273.528          47.000  
  20702515.124   108792454.203        2186.035          49.000  
  22872620.258   120196418.506       -1953.075          43.000  
  23609420.819   124068347.071        3725.210          41.000  
  24749780.839   130060975.1772      -1466.724          39.000  
 16  5 20 10 25 42.0000000  0 10G 1G 3G 7G11G17G19G22G28G30G 6
  21540835.659   113197856.324       -1739.802          48.000  
  21546026.297   113225123.859        2172.675          48.000  
  24119196.962   126747238.752       -2503.584          44.000  
  22363991.642   117523574.024       -1923.917          46.000  
  22323550.692   117311042.432        2320.560          48.000  
  23772984.223   124927872.248        3133.704          45.000  
  22117016.913   116225703.898         272.545          46.000  
  20702099.320   108790268.891        2184.167          49.000  
  22872991.913   120198369.471       -1949.909          43.000  
  23608711.869   124064620.926        3728.014          35.000  
 16  5 20 10 25 43.0000000  0 10G 1G 3G 8G11G17G19G22G28G30G 6
  21541166.917   113199596.748       -1741.075          48.000  
  21545612.482   113222950.929        2172.463          48.000  
  24750339.613   130063912.2993      -1468.265          39.000  
  22364357.870   117525499.006       -1925.497          48.000  
  22323109.202   117308722.312        2319.607          48.000  
  23772388.298   124924739.703        3131.635          46.000  
  22116964.405   116225431.584         271.791          47.000  
  20701683.551   108788085.213        2183.075          49.000  
  22873362.398   120200317.927       -1948.238          44.000  
  23608003.076   124060893.084        3728.750          43.000  
 16  5 20 10 25 44.0000000  0 11G 1G 3G 8G11G17G19G22G28G30G 6G 7
  21541498.227   113201338.684       -1742.749          48.000  
  21545199.174   113220779.052        2170.657          48.000  
  24750621.730   130065380.3832      -1467.092          37.000  
  22364724.429   117527425.255       -1926.642          46.000  
  22322667.677   117306403.467        2318.576          47.000  
  23771791.989   124921608.154        3133.209          40.000  
  22116913.520   116225160.749         269.463          48.000  
  20701268.358   108785902.955        2181.482          49.000  
  22873733.163   120202266.855       -1950.194          45.000  
  23607293.987   124057165.974        3725.890          43.000  
  24120145.887   126752221.9693      -2503.330          43.000  
 16  5 20 10 25 45.0000000  0 11G 1G 3G 8G11G17G19G22G28G30G 6G 7
  21541830.112   113203081.156       -1743.051          48.000  
  21544786.319   113218608.667        2169.250          48.000  
  24750897.775   130066848.9272      -1469.578          41.000  
  22365091.075   117529351.866       -1926.743          47.000  
  22322227.163   117304085.539        2317.825          49.000  
  23771196.396   124918478.107        3128.888          44.000  
  22116861.937   116224890.862         269.688          47.000  
  20700853.601   108783722.038        2179.913          49.000  
  22874104.417   120204217.840       -1952.175          45.000  
  23606584.496   124053440.954        3724.062          42.000  
  24120623.936   126754725.5902      -2504.618          42.000  
 16  5 20 10 25 46.0000000  0 11G 1G 3G 8G11G17G19G22G28G30G 7G 6
  21542161.667   113204823.670       -1742.753          48.000  
  21544373.534   113216439.715        2168.102          48.000  
  24751176.752   130068317.6002      -1468.300          40.000  
  22365457.792   117531278.251       -1926.379          47.000  
  22321786.022   117301768.238        2316.781          48.000  
  23770601.204   124915348.892        3128.308          40.000  
  22116810.965   116224621.729         268.792          47.000  
  20700438.391   108781542.115        2179.333          49.000  
  22874475.862   120206171.214       -1954.355          45.000  
  24121103.328   126757231.3982      -2505.500          42.000  
  23605875.860   124049718.206        3721.235          42.000  
 16  5 20 10 25 47.0000000  0 10G 1G 3G11G17G19G22G28G30G 7G 6
  21542492.976   113206565.585       -1741.396          48.000  
  21543960.924   113214271.541        2168.258          47.000  
  22365824.177   117533203.832       -1925.083          47.000  
  22321344.758   117299450.897        2317.607          45.000  
  23770005.314   124912220.217        3127.411          43.000  
  22116759.714   116224352.630         268.951          47.000  
  20700023.774   108779362.649        2179.352          48.000  
  22874848.092   120208126.392       -1956.418          45.000  
  24121579.195   126759738.9872      -2508.264          43.000  
  23605167.555   124045997.246        3720.082          43.000  
 16  5 20 10 25 49.0000000  0 11G 1G 3G11G17G19G22G28G30G 7G 6G 8
  21543155.579   113210047.186       -1741.219          48.000  
  21543135.773   113209936.268        2167.343          48.000  
  22366556.300   117537052.076       -1925.077          47.000  
  22320462.580   117294815.193        2317.969          49.000  
  23768815.750   124905962.913        3128.857          44.000  
  22116657.054   116223813.746         268.832          47.000  
  20699194.068   108775003.832        2179.236          49.000  
  22875592.955   120212039.783       -1957.049          45.000  
  24122533.548   126764756.4202      -2508.188          42.000  
  23603751.872   124038558.375        3719.725          42.000  
  24752016.997   130072720.4132      -1468.210          40.000  
 16  5 20 10 25 50.0000000  0 10G 1G 3G11G17G19G22G28G30G 8G 6
  21543486.888   113211789.003       -1743.696          48.000  
  21542723.354   113207769.428        2166.313          48.000  
  22366922.912   117538977.096       -1927.130          46.000  
  22320022.328   117292497.343        2317.236          48.000  
  23768220.627   124902833.841        3129.492          45.000  
  22116606.170   116223545.625         267.058          47.000  
  20698779.782   108772825.021        2178.302          49.000  
  22875964.906   120213995.566       -1954.344          44.000  
  24752295.398   130074188.2132      -1467.624          37.000  
  23603043.375   124034838.129        3721.769          42.000  
 16  5 20 10 25 51.0000000  0 11G 1G 3G11G17G19G22G28G30G 8G 6G 7
  21543819.001   113213533.973       -1746.456          48.000  
  21542311.337   113205603.316        2165.862          48.000  
  22367290.047   117540905.612       -1929.978          46.000  
  22319581.326   117290179.830        2317.489          48.000  
  23767624.755   124899703.865        3130.560          43.000  
  22116555.704   116223280.376         263.892          47.000  
  20698365.165   108770646.990        2177.698          49.000  
  22876336.334   120215947.551       -1950.341          45.000  
  24752574.637   130075658.4332      -1471.510          39.000  
  23602335.001   124031114.223        3725.786          42.000  
  24123487.953   126769766.9592      -2500.940          42.000  
 16  5 20 10 25 52.0000000  0 11G 1G 3G11G17G19G22G28G30G 8G 6G 7
  21544151.445   113215282.050       -1749.784          48.000  
  21541899.163   113203438.052        2164.758          48.000  
  22367657.601   117542837.511       -1933.726          47.000  
  22319140.098   117287862.711        2317.032          49.000  
  23767029.074   124896572.912        3131.042          44.000  
  22116506.040   116223017.891         261.170          47.000  
  20697951.106   108768469.839        2176.642          49.000  
  22876707.221   120217896.026       -1946.966          45.000  
  24752854.992   130077130.8532      -1473.388          40.000  
  23601626.295   124027386.939        3728.093          45.000  
  24123963.593   126772266.1502      -2497.635          42.000  
 16  5 20 10 25 53.0000000  0 11G 1G 3G11G17G19G22G28G30G 8G 6G 7
  21544484.570   113217032.844       -1752.086          48.000  
  21541487.634   113201273.642        2163.682          48.000  
  22368025.818   117544772.335       -1935.747          47.000  
  22318698.991   117285546.028        2316.126          48.000  
  23766432.434   124893441.269        3131.372          44.000  
  22116456.115   116222757.956         258.740          46.000  
  20697536.786   108766293.496        2175.592          50.000  
  22877077.480   120219841.652       -1945.655          45.000  
  24753135.504   130078605.3372      -1475.048          40.000  
  23600916.717   124023656.851        3730.708          42.000  
  24124438.361   126774762.0112      -2495.249          43.000  
 16  5 20 10 25 54.0000000  0 11G 1G 3G11G17G19G22G28G30G 8G 6G 7
  21544818.305   113218784.256       -1750.914          48.000  
  21541075.862   113199110.049        2163.566          48.000  
  22368393.896   117546707.742       -1934.912          47.000  
  22318257.832   117283229.471        2316.759          48.000  
  23765836.317   124890309.672        3131.781          44.000  
  22116406.522   116222498.980         259.023          47.000  
  20697122.535   108764117.733        2176.013          49.000  
  22877447.599   120221787.292       -1945.592          44.000  
  24753416.261   130080080.3582      -1474.759          40.000  
  23600206.860   124019926.907        3728.631          41.000  
  24124913.339   126777257.7902      -2495.826          41.000  
 16  5 20 10 25 55.0000000  0 11G 1G 3G11G17G19G22G28G30G 8G 6G 7
  21545151.535   113220535.286       -1751.443          48.000  
  21540663.897   113196946.602        2163.613          48.000  
  22368762.235   117548642.475       -1934.477          46.000  
  22317817.005   117280912.905        2316.793          49.000  
  23765240.322   124887178.302        3130.700          42.000  
  22116357.260   116222239.874         258.976          47.000  
  20696708.913   108761942.201        2174.963          49.000  
  22877817.928   120223733.581       -1946.618          45.000  
  24753697.000   130081554.7042      -1474.268          40.000  
  23599496.933   124016197.681        3728.482          37.000  
  24125388.124   126779753.7762      -2496.139          42.000  
 16  5 20 10 25 56.0000000  0 11G 1G 3G11G17G19G22G28G30G 8G 6G 7
  21545484.781   113222286.524       -1751.938          48.000  
  21540252.054   113194783.120        2163.401          48.000  
  22369130.295   117550577.254       -1935.459          46.000  
  22317376.439   117278596.535        2316.044          47.000  
  23764644.397   124884047.132        3131.232          42.000  
  22116308.120   116221980.999         258.511          47.000  
  20696294.889   108759766.991        2174.969          49.000  
  22878188.343   120225679.386       -1945.030          44.000  
  24753977.529   130083028.5592      -1474.196          40.000  
  23598787.005   124012468.191        3731.076          43.000  
  24125862.892   126782248.7852      -2494.081          43.000  
 16  5 20 10 25 57.0000000  0 10G 1G 3G11G17G22G28G30G 8G 6G 7
  21545818.098   113224039.653       -1753.765          48.000  
  21539840.543   113192620.203        2162.661          48.000  
  22369499.332   117552513.952       -1937.463          47.000  
  22316935.943   117276280.802        2315.161          48.000  
  22116259.242   116221723.860         256.147          47.000  
  20695881.231   108757592.658        2173.907          49.000  
  22878558.044   120227623.572       -1943.727          45.000  
  24754258.181   130084503.5652      -1476.664          38.000  
  23598077.340   124008737.355        3731.073          42.000  
  24126337.189   126784741.6602      -2492.617          42.000  
 16  5 20 10 25 58.0000000  0 11G 1G 3G19G11G17G22G28G30G 8G 6G 7
  21546152.095   113225794.059       -1754.994          48.000  
  21539429.120   113190458.194        2161.423          48.000  
  23763454.851   124877797.6763       3131.812          44.000  
  22369868.107   117554451.869       -1938.486          46.000  
  22316495.761   117273965.439        2312.726          45.000  
  22116210.748   116221468.127         255.059          47.000  
  20695467.679   108755419.047        2173.169          49.000  
  22878927.622   120229566.923       -1943.079          44.000  
  24754539.112   130085979.3962      -1475.702          39.000  
  23597366.767   124005005.718        3732.833          42.000  
  24126811.085   126787233.3862      -2490.923          43.000  
 16  5 20 10 25 59.0000000  0 11G 1G 3G19G11G17G22G28G30G 8G 6G 7
  21546486.424   113227549.302       -1755.640          48.000  
  21539017.783   113188296.624        2161.143          48.000  
  23762856.273   124874665.7332       3132.697          47.000  
  22370236.604   117556390.719       -1938.388          46.000  
  22316054.166   117271649.566        2315.864          47.000  
  22116162.480   116221213.506         254.109          47.000  
  20695054.021   108753245.630        2173.199          49.000  
  22879297.462   120231509.167       -1942.484          44.000  
  24754819.939   130087455.8982      -1474.618          38.000  
  23596656.700   124001272.984        3732.250          43.000  
  24127285.085   126789723.7182      -2490.655          39.000  
 16  5 20 10 26  0.0000000  0 11G 1G 3G19G11G17G22G28G30G 8G 6G 7
  21546820.351   113229304.150       -1753.706          48.000  
  21538606.778   113186135.801        2160.948          48.000  
  23762258.167   124871534.2512       3129.321          38.000  
  22370605.693   117558328.965       -1936.877          46.000  
  22315613.129   117269333.760        2316.640          48.000  
  22116113.829   116220959.008         255.209          46.000  
  20694640.346   108751072.583        2173.602          49.000  
  22879667.127   120233452.613       -1944.107          45.000  
  24755100.852   130088932.1472      -1476.068          41.000  
  23595946.878   123997541.461        3730.716          44.000  
  24127759.155   126792215.2222      -2491.981          41.000  
 16  5 20 10 26  1.0000000  0 11G 1G 3G19G11G17G22G28G30G 8G 6G 7
  21547153.790   113231057.997       -1754.065          48.000  
  21538195.546   113183975.365        2159.833          48.000  
  23761665.139   124868402.6472       3129.822          42.000  
  22370974.172   117560265.954       -1936.944          47.000  
  22315173.140   117267017.666        2315.548          48.000  
  22116065.318   116220704.123         254.531          47.000  
  20694227.143   108748899.585        2172.748          49.000  
  22880037.281   120235397.643       -1945.920          45.000  
  24755381.609   130090407.0211      -1476.253          40.000  
  23595236.985   123993811.522        3729.141          42.000  
  24128233.435   126794707.9822      -2494.213          42.000  
 16  5 20 10 26  2.0000000  0 10G 1G 3G11G17G22G28G30G 8G 6G 7
  21547487.822   113232812.179       -1753.975          48.000  
  21537784.838   113181816.085        2159.144          48.000  
  22371342.947   117562203.072       -1936.958          48.000  
  22314732.714   117264702.029        2315.346          48.000  
  22116016.911   116220450.075         253.765          47.000  
  20693813.625   108746727.518        2171.899          49.000  
  22880407.749   120237344.006       -1946.561          44.000  
  24755662.243   130091882.602       -1475.011          40.000  
  23594527.215   123990082.891        3729.030          42.000  
  24128708.168   126797201.9072      -2494.630          43.000  
 16  5 20 10 26  3.0000000  0 11G 1G 3G19G11G17G22G28G30G 8G 6G 7
  21547821.435   113234566.481       -1754.796          48.000  
  21537374.042   113179657.381        2158.383          48.000  
  23760471.125   124862117.6923       3130.579          40.000  
  22371711.601   117564140.135       -1937.035          47.000  
  22314291.467   117262386.478        2314.981          47.000  
  22115968.574   116220196.440         253.279          47.000  
  20693400.648   108744555.911        2171.094          50.000  
  22880778.340   120239290.943       -1947.096          45.000  
  24755942.703   130093358.183       -1475.875          40.000  
  23593818.300   123986354.873        3727.465          43.000  
  24129183.058   126799696.1682      -2494.730          42.000  
 16  5 20 10 26  4.0000000  0 11G 1G 3G19G11G17G22G28G30G 8G 6G 7
  21548155.380   113236320.998       -1754.446          49.000  
  21536963.125   113177499.456        2157.716          48.000  
  23759876.038   124858987.3662       3129.846          44.000  
  22372079.923   117566077.327       -1937.136          47.000  
  22313851.059   117260071.129        2315.507          48.000  
  22115920.376   116219943.451         252.818          46.000  
  20692987.148   108742384.792        2171.320          49.000  
  22881149.035   120241238.493       -1947.836          45.000  
  24756223.826   130094833.867       -1474.891          41.000  
  23593109.106   123982627.499        3727.271          43.000  
  24129657.739   126802190.6372      -2494.112          43.000  
 16  5 20 10 26  5.0000000  0 10G 1G 3G11G17G22G28G30G 8G 6G 7
  21548489.098   113238075.713       -1755.231          48.000  
  21536552.748   113175342.080        2156.541          48.000  
  22372448.454   117568014.547       -1937.983          47.000  
  22313409.987   117257755.645        2314.963          49.000  
  22115872.615   116219691.021         251.746          47.000  
  20692574.293   108740214.065        2170.111          49.000  
  22881519.747   120243186.197       -1948.276          44.000  
  24756504.687   130096309.625       -1476.286          36.000  
  23592399.755   123978900.369        3726.685          42.000  
  24130132.437   126804685.1672      -2494.567          42.000  
 16  5 20 10 26  6.0000000  0 11G 1G 3G11G17G22G28G30G 8G 6G 7G19
  21548822.973   113239830.454       -1754.745          48.000  
  21536142.005   113173185.043        2156.691          48.000  
  22372817.473   117569951.654       -1936.990          46.000  
  22312969.770   117255440.121        2315.329          49.000  
  22115824.330   116219438.923         251.795          48.000  
  20692161.124   108738043.548        2170.532          49.000  
  22881890.198   120245133.892       -1947.506          44.000  
  24756785.461   130097785.158       -1476.160          39.000  
  23591690.002   123975173.315        3726.762          41.000  
  24130607.083   126807179.3912      -2493.087          41.000  
  23758685.724                        3131.445          41.000  
 16  5 20 10 26  7.0000000  0 11G 1G 3G11G17G22G28G30G 8G 6G 7G19
  21549157.249   113241585.635       -1755.383          48.000  
  21535731.837   113171028.677        2156.101          48.000  
  22373186.039   117571889.111       -1937.980          46.000  
  22312528.960   117253124.832        2315.050          48.000  
  22115776.813   116219187.511         250.861          47.000  
  20691748.112   108735873.679        2169.385          49.000  
  22882260.910   120247081.952       -1947.824          45.000  
  24757066.061   130099260.868       -1473.448          36.000  
  23590980.738   123971446.685        3726.174          43.000  
  24131081.467   126809673.1481      -2493.827          40.000  
  23758089.275   124849601.3493       3130.334          42.000  
 16  5 20 10 26  8.0000000  0 11G 1G 3G11G17G22G28G30G19G 8G 6G 7
  21549491.282   113243340.894       -1755.464          48.000  
  21535321.391   113168872.611        2154.819          45.000  
  22373554.710   117573826.385       -1937.173          47.000  
  22312088.918   117250809.633        2315.298          49.000  
  22115729.122   116218936.363         250.868          47.000  
  20691335.275   108733704.107        2169.336          49.000  
  22882631.884   120249030.067       -1947.903          45.000  
  23757497.364   124846471.3582       3130.438          42.000  
  24757346.992   130100736.338       -1475.539          41.000  
  23590271.352   123967720.229        3726.512          41.000  
  24131556.235   126812167.065       -2493.990          43.000  
 16  5 20 10 26  9.0000000  0 11G 1G 3G11G17G22G28G30G19G 8G 6G 7
  21549825.209   113245096.424       -1756.038          48.000  
  21534911.415   113166716.837        2155.233          48.000  
  22373923.451   117575763.842       -1937.926          47.000  
  22311648.335   117248494.571        2314.872          48.000  
  22115681.326   116218685.754         250.312          47.000  
  20690922.595   108731534.970        2168.671          49.000  
  22883002.265   120250978.274       -1948.213          45.000  
  23756899.938   124843341.4072       3129.401          41.000  
  24757628.115   130102211.835       -1475.085          41.000  
  23589562.279   123963993.970        3726.492          42.000  
  24132030.811   126814660.710       -2493.949          43.000  
 16  5 20 10 26 10.0000000  0 10G 1G 3G11G17G22G28G30G19G 6G 7
  21550159.293   113246852.371       -1756.335          48.000  
  21534501.440   113164561.780        2154.984          49.000  
  22374292.122   117577701.595       -1938.143          47.000  
  22311207.839   117246179.592        2314.599          49.000  
  22115633.652   116218435.809         251.307          49.000  
  20690509.828   108729366.333        2168.622          49.000  
  22883373.117   120252926.499       -1947.579          45.000  
  23756303.682   124840211.5802       3129.474          39.000  
  23588853.364   123960267.833        3726.068          42.000  
  24132505.265   126817154.112       -2493.325          42.000  
 16  5 20 10 26 11.0000000  0 11G 1G 3G 8G11G17G22G28G30G19G 6G 7
  21550493.570   113248608.560       -1756.434          48.000  
  21534091.342   113162407.239        2153.862          49.000  
  24758189.646   130105163.9903      -1477.005          39.000  
  22374660.722   117579639.484       -1937.997          47.000  
  22310767.134   117243864.585        2314.998          49.000  
  22115586.222   116218186.553         248.115          47.000  
  20690097.025   108727198.037        2167.914          49.000  
  22883743.882   120254874.820       -1948.451          44.000  
  23755708.385   124837081.6932       3126.849          42.000  
  23588144.257   123956541.805        3725.458          44.000  
  24132979.737   126819647.281       -2492.688          41.000  
 16  5 20 10 26 12.0000000  0 11G 1G 3G 8G11G17G22G28G30G19G 6G 7
  21550827.672   113250365.185       -1756.732          48.000  
  21533681.663   113160253.373        2153.464          48.000  
  24758470.332   130106639.8392      -1473.330          38.000  
  22375029.411   117581577.717       -1937.551          47.000  
  22310326.289   117241549.657        2315.458          49.000  
  22115539.159   116217937.912         248.977          47.000  
  20689684.589   108725030.196        2167.914          49.000  
  22884114.751   120256823.157       -1947.789          45.000  
  23755112.774   124833959.3103       3128.491          43.000  
  23587435.499   123952815.875        3725.563          43.000  
  24133454.069   126822140.269       -2491.335          41.000  
 16  5 20 10 26 13.0000000  0 11G 1G 3G 8G11G17G22G28G30G19G 6G 7
  21551161.878   113252122.247       -1757.247          48.000  
  21533271.863   113158100.067        2152.703          48.000  
  24758751.525   130108116.0972      -1477.013          40.000  
  22375398.483   117583516.294       -1938.708          47.000  
  22309886.334   117239234.704        2315.140          48.000  
  22115492.148   116217690.129         247.482          47.000  
  20689271.927   108722862.711        2167.352          49.000  
  22884485.377   120258771.349       -1947.906          44.000  
  23754517.163   124830829.3712       3130.896          34.000  
  23586726.636   123949089.768        3726.597          43.000  
  24133928.278   126824632.869       -2492.318          41.000  
 16  5 20 10 26 14.0000000  0 11G 1G 3G 8G11G17G22G28G30G19G 6G 7
  21551496.521   113253879.585       -1757.950          48.000  
  21532862.254   113155947.135        2152.222          48.000  
  24759032.264   130109592.3032      -1477.065          38.000  
  22375767.171   117585455.116       -1938.854          45.000  
  22309446.153   117236919.447        2315.447          48.000  
  22115444.823   116217442.875         246.807          47.000  
  20688859.752   108720695.385        2166.956          49.000  
  22884855.862   120260719.070       -1947.965          44.000  
  23753922.792   124827705.8423       3129.529          42.000  
  23586017.774   123945363.334        3726.213          43.000  
  24134402.453   126827124.671       -2491.167          42.000  
 16  5 20 10 26 15.0000000  0 11G 1G 3G 8G11G17G22G28G30G19G 6G 7
  21551831.216   113255637.685       -1758.308          48.000  
  21532452.645   113153795.163        2151.672          49.000  
  24759312.881   130111069.2012      -1476.731          41.000  
  22376136.452   117587394.625       -1938.564          45.000  
  22309005.535   117234604.416        2315.306          48.000  
  22115397.742   116217196.734         245.986          47.000  
  20688447.543   108718528.715        2166.547          49.000  
  22885226.452   120262666.833       -1947.505          45.000  
  23753329.030   124824576.6272       3130.115          29.000  
  23585308.649   123941636.902        3726.540          43.000  
  24134876.750   126829616.388       -2491.858          42.000  
 16  5 20 10 26 16.0000000  0 10G 1G 3G 8G11G17G22G28G30G 6G 7
  21552165.859   113257396.500       -1759.424          48.000  
  21532043.489   113151643.934        2150.768          49.000  
  24759594.248   130112546.6512      -1478.878          41.000  
  22376505.751   117589334.804       -1940.203          47.000  
  22308564.986   117232289.465        2314.858          48.000  
  22115351.237   116216951.593         244.511          47.000  
  20688035.544   108716362.541        2165.826          49.000  
  22885597.339   120264614.385       -1947.580          45.000  
  23584599.298   123937910.264        3726.504          41.000  
  24135350.995   126832107.599       -2491.824          43.000  
 16  5 20 10 26 17.0000000  0 11G 1G 3G 8G11G17G22G28G30G19G 6G 7
  21552500.624   113259155.765       -1759.556          48.000  
  21531634.072   113149493.168        2150.284          49.000  
  24759875.494   130114024.2442      -1477.709          41.000  
  22376875.120   117591275.417       -1941.158          47.000  
  22308123.862   117229974.433        2315.037          48.000  
  22115304.820   116216707.155         243.800          48.000  
  20687623.265   108714196.701        2165.369          49.000  
  22885967.738   120266561.506       -1946.896          44.000  
  23752135.156   124818312.3103       3130.444          44.000  
  23583889.720   123934183.311        3726.913          40.000  
  24135824.768   126834598.093       -2490.598          42.000  
 16  5 20 10 26 18.0000000  0 11G 1G 3G 8G11G17G22G28G30G19G 6G 7
  21552835.459   113260915.379       -1759.734          48.000  
  21531224.969   113147342.738        2150.350          49.000  
  24760156.547   130115501.9462      -1477.719          42.000  
  22377244.367   117593216.201       -1940.611          46.000  
  22307684.326   117227659.419        2314.828          49.000  
  22115258.507   116216463.274         243.676          48.000  
  20687211.213   108712031.138        2165.643          49.000  
  22886338.380   120268508.389       -1946.667          44.000  
  23751538.062   124815181.5892       3130.743          45.000  
  23583180.246   123930456.211        3726.300          43.000  
  24136298.646   126837087.986       -2489.790          43.000  
 16  5 20 10 26 19.0000000  0 11G 1G 3G 8G11G17G22G28G30G19G 6G 7
  21553170.887   113262675.670       -1760.616          48.000  
  21530815.744   113145192.906        2149.612          49.000  
  24760437.722   130116979.709       -1477.515          39.000  
  22377613.666   117595157.515       -1941.702          46.000  
  22307244.319   117225344.977        2314.013          48.000  
  22115211.897   116216220.169         243.109          47.000  
  20686799.702   108709866.407        2164.337          49.000  
  22886708.622   120270455.341       -1946.712          45.000  
  23750945.558   124812051.3932       3130.621          44.000  
  23582471.157   123926729.413        3726.606          42.000  
  24136772.350   126839577.522       -2488.802          42.000  
 16  5 20 10 26 20.0000000  0 11G 1G 3G 8G11G17G22G28G30G19G 6G 7
  21553505.739   113264436.527       -1761.118          48.000  
  21530406.397   113143043.630        2148.845          48.000  
  24760719.142   130118457.763       -1477.955          39.000  
  22377983.209   117597099.273       -1942.649          47.000  
  22306802.654   117223030.797        2314.034          47.000  
  22115165.689   116215977.846         241.456          47.000  
  20686387.789   108707702.224        2163.812          49.000  
  22887079.229   120272402.258       -1947.477          45.000  
  23750346.090   124808910.4013       3130.127          44.000  
  23581761.910   123923002.586        3726.579          42.000  
  24137246.053   126842066.678       -2489.256          42.000  
 16  5 20 10 26 21.0000000  0 11G 1G 3G 8G11G17G22G28G30G19G 6G 7
  21553840.713   113266198.328       -1762.310          48.000  
  21529997.800   113140895.404        2147.944          48.000  
  24761000.544   130119936.577       -1479.431          40.000  
  22378353.241   117599041.889       -1943.136          47.000  
  22306362.856   117220717.010        2313.744          48.000  
  22115120.231   116215736.736         240.485          47.000  
  20685976.226   108705538.881        2162.946          49.000  
  22887449.715   120274349.389       -1947.225          45.000  
  23749751.561   124805780.6372       3129.852          45.000  
  23581052.820   123919276.138        3726.208          43.000  
  24137719.565   126844555.803       -2489.156          42.000  
 16  5 20 10 26 22.0000000  0 11G 1G 3G 8G11G17G22G28G30G19G 6G 7
  21554176.264   113267960.845       -1763.097          48.000  
  21529589.204   113138748.115        2146.577          48.000  
  24761282.086   130121416.002       -1478.934          39.000  
  22378722.836   117600985.156       -1943.527          46.000  
  22305922.779   117218403.363        2313.401          49.000  
  22115074.424   116215496.713         239.418          47.000  
  20685564.663   108703376.102        2162.296          49.000  
  22887820.078   120276296.587       -1947.463          44.000  
  23749160.679   124802650.8832       3129.449          42.000  
  23580343.853   123915549.675        3726.789          42.000  
  24138193.112   126847044.780       -2488.804          43.000  
 16  5 20 10 26 23.0000000  0 10G 1G 3G 8G11G17G22G28G30G 6G 7
  21554511.604   113269723.994       -1763.577          48.000  
  21529180.537   113136601.664        2146.187          49.000  
  24761563.750   130122896.018       -1480.966          39.000  
  22379092.764   117602929.086       -1943.985          47.000  
  22305482.266   117216089.697        2313.507          48.000  
  22115028.600   116215257.728         238.395          47.000  
  20685153.047   108701213.811        2161.911          49.000  
  22888190.721   120278243.575       -1947.112          45.000  
  23579634.676   123911823.109        3726.064          42.000  
  24138666.763   126849533.350       -2488.046          43.000  
 16  5 20 10 26 24.0000000  0 11G 1G 3G 8G11G17G22G28G30G19G 6G 7
  21554847.190   113271487.581       -1763.817          48.000  
  21528772.638   113134455.782        2145.437          49.000  
  24761844.995   130124376.237       -1479.885          40.000  
  22379462.778   117604873.358       -1944.306          47.000  
  22305041.002   117213776.054        2313.436          48.000  
  22114983.195   116215019.471         237.927          47.000  
  20684741.361   108699051.910        2161.729          49.000  
  22888561.206   120280190.492       -1946.755          44.000  
  23747961.745   124796376.9703       3130.133          43.000  
  23578925.080   123908096.377        3726.087          42.000  
  24139140.048   126852021.650       -2487.972          41.000  
 16  5 20 10 26 25.0000000  0 11G 1G 3G 8G11G17G22G28G30G19G 6G 7
  21555183.019   113273251.862       -1764.836          48.000  
  21528363.779   113132310.560        2144.561          48.000  
  24762126.799   130125856.905       -1480.651          40.000  
  22379832.792   117606818.238       -1945.090          47.000  
  22304601.274   117211462.409        2313.454          49.000  
  22114938.225   116214782.116         236.685          47.000  
  20684330.025   108696890.447        2160.861          49.000  
  22888931.535   120282136.979       -1946.437          45.000  
  23747366.518   124793246.7492       3130.212          44.000  
  23578216.026   123904369.348        3726.856          43.000  
  24139613.455   126854509.229       -2487.358          43.000  
 16  5 20 10 26 26.0000000  0 11G 1G 3G 8G11G17G22G28G30G19G 6G 7
  21555518.866   113275016.671       -1764.777          48.000  
  21527955.863   113130166.115        2144.033          48.000  
  24762408.777   130127337.981       -1481.377          41.000  
  22380202.789   117608763.600       -1945.393          47.000  
  22304160.709   117209148.910        2312.607          47.000  
  22114893.134   116214545.697         235.906          47.000  
  20683918.880   108694729.547        2160.673          49.000  
  22889302.422   120284083.576       -1946.906          45.000  
  23746772.233   124790116.5882       3130.438          43.000  
  23577507.145   123900642.498        3726.345          42.000  
  24140086.949   126856996.598       -2487.749          41.000  
 16  5 20 10 26 27.0000000  0 11G 1G 3G 8G11G17G22G28G30G19G 6G 7
  21555854.765   113276781.829       -1765.525          48.000  
  21527547.894   113128022.326        2143.475          48.000  
  24762690.284   130128819.195       -1480.818          39.000  
  22380573.310   117610709.193       -1945.703          46.000  
  22303720.440   117206835.304        2313.649          48.000  
  22114848.444   116214309.944         235.580          47.000  
  20683507.666   108692568.987        2160.272          49.000  
  22889672.838   120286030.189       -1946.653          44.000  
  23746175.890   124786986.2522       3130.072          43.000  
  23576797.881   123896915.594        3727.233          43.000  
  24140560.268   126859483.831       -2487.756          40.000  
 16  5 20 10 26 28.0000000  0 11G 1G 3G 8G11G17G22G28G30G19G 6G 7
  21556190.717   113278547.241       -1766.000          48.000  
  21527139.996   113125879.015        2142.610          48.000  
  24762972.576   130130300.485       -1481.664          39.000  
  22380943.481   117612654.930       -1946.446          47.000  
  22303280.694   117204521.825        2312.778          48.000  
  22114803.806   116214074.730         234.358          47.000  
  20683096.818   108690408.855        2159.402          49.000  
  22890043.498   120287976.932       -1947.406          45.000  
  23745581.692   124783856.0502       3129.419          38.000  
  23576088.862   123893189.006        3725.604          42.000  
  24141033.222   126861970.812       -2487.311          44.000  
 16  5 20 10 26 29.0000000  0 11G 1G 3G 8G11G17G22G28G30G19G 6G 7
  21556526.738   113280313.047       -1765.648          48.000  
  21526732.167   113123736.402        2142.394          48.000  
  24763254.519   130131781.912       -1481.369          41.000  
  22381314.037   117614600.919       -1946.307          48.000  
  22302840.233   117202208.604        2313.166          49.000  
  22114759.047   116213840.208         234.344          47.000  
  20682685.830   108688249.351        2159.312          49.000  
  22890413.704   120289924.047       -1947.315          43.000  
  23744986.186   124780726.2092       3128.760          44.000  
  23575379.824   123889462.817        3726.018          43.000  
  24141506.786   126864457.896       -2487.408          42.000  
 16  5 20 10 26 30.0000000  0 11G 1G 3G 8G11G17G22G28G30G19G 6G 7
  21556862.969   113282079.177       -1766.250          48.000  
  21526324.739   113121594.428        2142.108          48.000  
  24763536.340   130133263.516       -1481.588          41.000  
  22381684.540   117616547.076       -1946.002          47.000  
  22302400.383   117199895.424        2313.287          49.000  
  22114714.775   116213606.328         233.762          47.000  
  20682274.703   108686090.266        2159.210          49.000  
  22890784.033   120291871.425       -1947.296          44.000  
  23744391.849   124777621.0043       3128.076          43.000  
  23574670.770   123885736.872        3726.299          41.000  
  24141980.315   126866944.916       -2486.542          43.000  
 16  5 20 10 26 31.0000000  0 11G 1G 3G 8G11G17G22G28G30G19G 6G 7
  21557199.043   113283845.371       -1766.488          48.000  
  21525917.398   113119452.897        2140.845          48.000  
  24763818.370   130134744.995       -1482.201          41.000  
  22382054.764   117618493.231       -1946.502          47.000  
  22301959.957   117197582.109        2312.769          49.000  
  22114670.277   116213372.883         232.908          47.000  
  20681863.821   108683931.431        2158.598          49.000  
  22891154.344   120293818.740       -1947.037          45.000  
  23743794.929                        3127.938          35.000  
  23573961.034   123882011.062        3725.458          39.000  
  24142453.512   126869431.737       -2486.752          42.000  
 16  5 20 10 26 32.0000000  0 11G 1G 3G 8G11G17G22G28G30G19G 6G 7
  21557535.239   113285611.955       -1766.497          48.000  
  21525509.831   113117312.085        2140.769          48.000  
  24764100.191   130136226.735       -1482.562          41.000  
  22382425.022   117620439.644       -1946.469          47.000  
  22301519.618   117195268.863        2313.264          47.000  
  22114626.216   116213140.183         232.724          47.000  
  20681453.147   108681773.137        2158.167          49.000  
  22891525.108   120295766.421       -1947.524          45.000  
  23743203.140                        3120.312          34.000  
  23573252.398   123878285.535        3725.120          43.000  
  24142926.850   126871918.588       -2487.021          42.000  
 16  5 20 10 26 33.0000000  0 11G 1G 3G 8G11G17G22G28G30G19G 6G 7
  21557871.312   113287378.788       -1767.090          48.000  
  21525102.875   113115171.777        2139.983          49.000  
  24764381.977   130137708.474       -1481.775          41.000  
  22382795.333   117622386.172       -1946.927          47.000  
  22301079.646   117192955.710        2313.037          48.000  
  22114581.840   116212908.007         231.626          47.000  
  20681042.701   108679615.193        2157.631          49.000  
  22891896.030   120297714.168       -1947.676          44.000  
  23742610.897   124768262.1203       3132.886          41.000  
  23572543.693   123874560.252        3725.064          41.000  
  24143399.977   126874405.254       -2486.704          42.000  
 16  5 20 10 26 34.0000000  0 11G 1G 3G 8G11G17G22G28G30G19G 6G 7
  21558207.630   113289146.095       -1767.413          48.000  
  21524695.430   113113032.245        2140.050          45.000  
  24764663.990   130139190.569       -1481.842          40.000  
  22383165.679   117624333.049       -1946.845          46.000  
  22300639.726   117190642.784        2312.345          48.000  
  22114537.691   116212676.653         230.989          47.000  
  20680631.888   108677457.895        2157.004          49.000  
  22892266.987   120299662.315       -1948.307          44.000  
  23742009.231   124765100.5412       3129.547          43.000  
  23571835.092   123870835.352        3724.047          44.000  
  24143873.053   126876891.953       -2486.704          42.000  
 16  5 20 10 26 35.0000000  0 11G 1G 3G 8G11G17G22G28G30G19G 6G 7
  21558544.140   113290913.502       -1767.366          48.000  
  21524288.421   113110893.195        2138.639          48.000  
  24764946.038   130140672.501       -1480.892          42.000  
  22383536.270   117626279.996       -1946.978          46.000  
  22300198.898   117188329.723        2313.096          48.000  
  22114493.838   116212445.765         230.335          47.000  
  20680221.563   108675300.806        2156.853          49.000  
  22892637.368   120301610.455       -1948.391          44.000  
  23741416.953   124761970.9092       3128.571          44.000  
  23571126.002   123867110.520        3724.454          44.000  
  24144346.198   126879378.510       -2486.339          42.000  
 16  5 20 10 26 36.0000000  0 11G 1G 3G 8G11G17G22G28G30G19G 6G 7
  21558880.458   113292681.197       -1767.505          48.000  
  21523881.482   113108754.821        2138.278          48.000  
  24765228.418   130142154.812       -1481.030          39.000  
  22383906.668   117628227.051       -1946.816          47.000  
  22299758.839   117186016.739        2313.315          47.000  
  22114450.125   116212215.557         229.844          43.000  
  20679811.291   108673144.187        2156.460          49.000  
  22893008.202   120303558.965       -1948.389          45.000  
  23740817.730   124758840.9032       3131.109          41.000  
  23570417.715   123863386.120        3724.543          44.000  
  24144819.151   126881865.186       -2486.707          41.000  
 16  5 20 10 26 37.0000000  0 11G 1G 3G 8G11G17G22G28G30G19G 6G 7
  21559216.689   113294448.920       -1768.348          48.000  
  21523474.804   113106616.926        2136.818          49.000  
  24765510.780   130143637.111       -1483.363          41.000  
  22384277.415   117630174.042       -1947.557          47.000  
  22299318.640   117183703.617        2312.640          47.000  
  22114406.430   116211985.668         227.860          49.000  
  20679400.914   108670987.815        2155.584          49.000  
  22893378.915   120305507.696       -1949.397          45.000  
  23740223.777   124755717.2983       3128.882          42.000  
  23569708.556   123859661.966        3723.765          42.000  
  24145292.279   126884351.845       -2487.651          41.000  
 16  5 20 10 26 38.0000000  0 11G 1G 3G 8G11G17G22G28G30G19G 6G 7
  21559553.217   113296217.024       -1768.315          48.000  
  21523068.179   113104479.982        2136.461          48.000  
  24765792.566   130145119.597       -1483.010          40.000  
  22384647.796   117632121.256       -1946.667          47.000  
  22298878.964   117181390.747        2312.467          49.000  
  22114362.525   116211756.587         228.983          47.000  
  20678990.398   108668832.111        2155.352          49.000  
  22893750.325   120307457.218       -1949.849          45.000  
  23739626.980   124752588.0082       3128.821          43.000  
  23569000.601   123855938.670        3723.575          41.000  
  24145765.599   126886839.045       -2487.575          41.000  
 16  5 20 10 26 39.0000000  0 11G 1G 3G 8G11G17G22G28G30G19G 6G 7
  21559889.482   113297985.174       -1767.750          48.000  
  21522661.467   113102343.540        2136.387          48.000  
  24766074.753   130146601.979       -1482.429          41.000  
  22385018.544   117634068.410       -1946.832          47.000  
  22298438.643   117179077.959        2312.343          47.000  
  22114319.162   116211527.940         228.687          47.000  
  20678580.475   108666676.810        2155.323          49.000  
  22894121.369   120309407.223       -1950.022          44.000  
  23739037.756                        3129.120          41.000  
  23568291.528   123852215.855        3722.801          43.000  
  24146238.831   126889326.466       -2487.219          41.000  
 16  5 20 10 26 40.0000000  0 11G 1G 3G 8G11G17G22G28G30G19G 6G 7
  21560226.010   113299753.145       -1768.096          48.000  
  21522254.964   113100207.506        2135.375          48.000  
  24766356.766   130148084.209       -1483.493          39.000  
  22385388.907   117636015.235       -1947.148          47.000  
  22297998.670   117176764.953        2312.944          49.000  
  22114275.414   116211299.529         228.037          47.000  
  20678170.412   108664521.644        2155.004          49.000  
  22894492.326   120311357.480       -1950.423          44.000  
  23738437.294   124746329.3073       3128.326          43.000  
  23567583.521   123848493.448        3722.003          43.000  
  24146712.221   126891813.918       -2486.851          39.000  
 16  5 20 10 26 41.0000000  0 11G 1G 3G 8G11G17G22G28G30G19G 6G 7
  21560562.345   113301521.009       -1767.609          48.000  
  21521848.653   113098072.016        2135.323          48.000  
  24766638.814   130149566.213       -1480.934          39.000  
  22385759.427   117637961.789       -1944.814          46.000  
  22297558.419   117174451.738        2313.280          49.000  
  22114232.085   116211071.461         227.936          47.000  
  20677760.035   108662366.709        2155.226          49.000  
  22894863.667   120313308.270       -1950.542          44.000  
  23737839.676   124743188.5563       3130.536          43.000  
  23566875.147   123844771.574        3721.607          44.000  
  24147185.610   126894301.780       -2488.088          39.000  
 16  5 20 10 26 42.0000000  0 11G 1G 3G 8G11G17G22G28G30G19G 6G 7
  21560898.803   113303288.874       -1768.179          48.000  
  21521442.482   113095937.330        2133.804          48.000  
  24766921.106   130151048.398       -1482.390          39.000  
  22386129.686   117639908.344       -1947.232          46.000  
  22297118.342   117172138.457        2312.666          48.000  
  22114189.035   116210843.897         227.069          47.000  
  20677350.357   108660212.192        2153.896          49.000  
  22895235.042   120315259.779       -1952.201          44.000  
  23737243.542   124740059.5212       3126.941          42.000  
  23566167.087   123841050.326        3720.425          43.000  
  24147659.349   126896790.161       -2488.784          41.000  
 16  5 20 10 26 43.0000000  0 11G 1G 3G 8G11G17G22G28G30G19G 6G 7
  21561235.418   113305057.145       -1768.177          48.000  
  21521036.101   113093803.583        2133.473          48.000  
  24767202.910   130152530.806       -1481.623          41.000  
  22386500.067   117641855.071       -1946.574          47.000  
  22296678.142   117169825.354        2313.361          48.000  
  22114145.532   116210617.141         226.840          47.000  
  20676940.503   108658058.315        2153.717          49.000  
  22895606.522   120317211.943       -1951.876          44.000  
  23736647.216   124736930.4682       3129.724          43.000  
  23565458.939   123837329.771        3720.315          43.000  
  24148132.825   126899278.950       -2488.540          40.000  
 16  5 20 10 26 44.0000000  0 11G 1G 3G 8G11G17G22G28G30G19G 6G 7
  21561571.771   113306825.318       -1767.913          48.000  
  21520630.244   113091670.392        2133.480          48.000  
  24767485.272   130154013.309       -1481.134          41.000  
  22386870.465   117643801.666       -1946.310          47.000  
  22296237.996   117167512.041        2313.847          49.000  
  22114102.814   116210390.802         226.670          47.000  
  20676530.668   108655904.617        2154.055          49.000  
  22895978.142   120319164.572       -1952.179          44.000  
  23736054.659   124733801.4902       3128.943          43.000  
  23564751.158   123833609.673        3719.996          43.000  
  24148606.564   126901768.026       -2488.267          42.000  
 16  5 20 10 26 45.0000000  0 11G 1G 3G 8G11G17G22G28G30G19G 6G 7
  21561908.403   113308593.503       -1768.090          48.000  
  21520224.335   113089537.814        2132.214          48.000  
  24767767.128   130155495.774       -1483.087          41.000  
  22387240.776   117645748.099       -1946.320          46.000  
  22295797.255   117165198.571        2313.538          48.000  
  22114059.886   116210164.909         225.486          48.000  
  20676121.006   108653751.231        2153.075          49.000  
  22896349.867   120321117.529       -1953.536          44.000  
  23735458.856   124730672.3722       3128.851          44.000  
  23564043.325   123829889.914        3718.761          42.000  
  24149080.076   126904257.217       -2489.607          41.000  
 16  5 20 10 26 46.0000000  0 11G 1G 3G 8G11G17G22G28G30G19G 6G 7
  21562244.878   113310362.044       -1768.547          48.000  
  21519818.861   113087406.251        2131.321          49.000  
  24768049.263   130156978.518       -1482.874          39.000  
  22387611.087   117647694.789       -1946.742          47.000  
  22295357.178   117162885.134        2313.170          48.000  
  22114016.976   116209939.859         224.777          47.000  
  20675711.345   108651598.438        2152.620          49.000  
  22896721.766   120323071.097       -1953.494          44.000  
  23734862.442   124727543.2723       3129.590          44.000  
  23563335.405   123826170.676        3719.132          44.000  
  24149553.901   126906746.921       -2488.902          40.000  
 16  5 20 10 26 47.0000000  0 11G 1G 3G 8G11G17G22G28G30G19G 6G 7
  21562581.440   113312130.672       -1768.518          47.000  
  21519413.441   113085275.260        2130.938          49.000  
  24768331.660   130158461.311       -1482.391          41.000  
  22387981.521   117649641.477       -1946.410          46.000  
  22294917.084   117160571.655        2313.412          47.000  
  22113974.049   116209715.271         224.805          47.000  
  20675301.457   108649445.970        2151.973          49.000  
  22897093.647   120325025.036       -1954.317          44.000  
  23734268.210   124724414.2542       3128.992          44.000  
  23562627.746   123822451.851        3719.021          43.000  
  24150027.745   126909236.707       -2489.654          41.000  
 16  5 20 10 26 48.0000000  0 11G 1G 3G 8G11G17G22G28G30G19G 6G 7
  21562917.915   113313899.407       -1768.973          47.000  
  21519008.072   113083144.696        2130.021          49.000  
  24768613.725   130159943.851       -1483.015          41.000  
  22388351.867   117651588.053       -1946.803          47.000  
  22294476.501   117158258.394        2312.935          49.000  
  22113931.505   116209491.056         224.019          48.000  
  20674891.987   108647293.999        2151.473          49.000  
  22897465.250   120326979.326       -1954.529          43.000  
  23733672.425                        3130.078          40.000  
  23561920.297   123818733.586        3717.405          43.000  
  24150501.640   126911726.474       -2489.609          38.000  
 16  5 20 10 26 49.0000000  0 11G 1G 3G 8G11G17G22G28G30G19G 6G 7
  21563254.443   113315668.270       -1768.964          48.000  
  21518602.843   113081014.597        2129.935          49.000  
  24768895.581   130161426.282       -1482.155          41.000  
  22388722.178   117653534.561       -1946.338          46.000  
  22294036.546   117155945.353        2313.106          49.000  
  22113889.066   116209267.220         223.529          47.000  
  20674482.553   108645142.521        2151.281          49.000  
  22897837.044   120328934.165       -1954.655          44.000  
  23733076.308   124718156.7853       3130.072          39.000  
  23561212.795   123815015.918        3717.576          43.000  
  24150975.675   126914216.480       -2490.230          38.000  
 16  5 20 10 26 50.0000000  0 11G 1G 3G 8G11G17G22G28G30G19G 6G 7
  21563591.337   113317437.380       -1769.453          48.000  
  21518197.527   113078885.120        2128.872          49.000  
  24769177.594   130162908.697       -1482.823          40.000  
  22389092.855   117655481.167       -1946.771          47.000  
  22293596.574   117153632.624        2312.214          49.000  
  22113846.296   116209043.919         222.575          47.000  
  20674073.188   108642991.673        2149.956          49.000  
  22898209.188   120330889.538       -1956.029          44.000  
  23732479.650   124715028.3222       3129.718          41.000  
  23560505.259   123811298.937        3716.076          41.000  
  24151449.379   126916706.581       -2490.411          42.000  
 16  5 20 10 26 51.0000000  0 11G 1G 3G 8G11G17G22G28G30G19G 6G 7
  21563928.056   113319206.559       -1769.441          48.000  
  21517792.315   113076756.109        2128.368          49.000  
  24769459.275   130164390.940       -1482.161          40.000  
  22389463.219   117657427.663       -1946.727          46.000  
  22293156.497   117151319.990        2312.637          49.000  
  22113803.787   116208821.013         222.238          48.000  
  20673664.103   108640841.212        2150.114          49.000  
  22898581.156   120332845.265       -1955.711          44.000  
  23731885.959                        3125.781          40.000  
  23559798.228   123807582.389        3716.860          38.000  
  24151923.362   126919196.945       -2491.017          42.000  
 16  5 20 10 26 52.0000000  0 11G 1G 3G 8G11G17G22G28G30G19G 6G 7
  21564264.584   113320975.610       -1769.139          48.000  
  21517387.331   113074627.400        2128.240          49.000  
  24769741.445   130165872.777       -1481.820          41.000  
  22389833.600   117659373.840       -1946.121          47.000  
  22292716.489   117149007.252        2313.380          49.000  
  22113761.557   116208598.264         222.549          47.000  
  20673254.808   108638691.023        2149.629          49.000  
  22898953.422   120334801.239       -1956.119          44.000  
  23731291.063                        3121.642          34.000  
  23559091.041   123803866.215        3715.200          43.000  
  24152397.083   126921687.024       -2490.223          40.000  
 16  5 20 10 26 53.0000000  0 11G 1G 3G 8G11G17G22G28G30G19G 6G 7
  21564601.094   113322744.702       -1769.254          48.000  
  21516982.433   113072499.264        2127.960          49.000  
  24770023.546   130167354.524       -1481.411          40.000  
  22390204.242   117661319.904       -1946.105          47.000  
  22292276.639   117146694.637        2313.048          49.000  
  22113719.432   116208375.954         222.176          48.000  
  20672845.984   108636541.293        2149.503          49.000  
  22899325.687   120336757.879       -1956.666          45.000  
  23730694.754   124705642.5633       3125.299          43.000  
  23558383.871   123800150.688        3715.823          43.000  
  24152871.205   126924177.547       -2490.193          41.000  
 16  5 20 10 26 54.0000000  0 11G 1G 3G 8G11G17G22G28G30G19G 6G 7
  21564937.743   113324513.838       -1769.182          48.000  
  21516577.414   113070371.589        2127.540          49.000  
  24770305.890   130168836.259       -1481.859          42.000  
  22390574.466   117663265.879       -1945.976          47.000  
  22291836.440   117144381.894        2313.315          48.000  
  22113677.220   116208154.022         222.135          48.000  
  20672436.951   108634391.791        2149.488          49.000  
  22899698.250   120338714.625       -1956.210          45.000  
  23730098.480   124702508.7983       3128.973          44.000  
  23557676.893   123796435.424        3715.680          44.000  
  24153345.048   126926668.003       -2490.745          41.000  
 16  5 20 10 26 55.0000000  0 11G 1G 3G 8G11G17G22G28G30G19G 6G 7
  21565274.550   113326283.116       -1769.373          48.000  
  21516172.656   113068244.606        2126.954          49.000  
  24770587.711   130170317.955       -1482.477          40.000  
  22390944.445   117665211.846       -1945.848          46.000  
  22291396.153   117142069.195        2312.885          49.000  
  22113634.973   116207932.634         221.382          47.000  
  20672027.674   108632242.769        2149.655          48.000  
  22900070.794   120340671.870       -1956.867          44.000  
  23729506.360   124699381.3552       3128.326          43.000  
  23556969.949   123792720.584        3715.263          43.000  
  24153818.909   126929158.553       -2489.985          41.000  
 16  5 20 10 26 56.0000000  0 11G 1G 3G 8G11G17G22G28G30G19G 6G 7
  21565611.182   113328052.709       -1769.592          48.000  
  21515768.003   113066118.383        2126.066          49.000  
  24770869.393   130171799.806       -1481.378          38.000  
  22391314.826   117667158.019       -1945.894          47.000  
  22290956.007   117139756.717        2312.686          49.000  
  22113592.744   116207711.931         220.834          47.000  
  20671618.658   108630094.323        2148.405          49.000  
  22900443.583   120342629.718       -1957.755          44.000  
  23728909.266   124696254.2442       3127.484          42.000  
  23556263.181   123789006.476        3714.097          43.000  
  24154292.874   126931649.557       -2490.722          42.000  
 16  5 20 10 26 57.0000000  0 11G 1G 3G 8G11G17G22G28G30G19G 6G 7
  21565948.006   113329822.468       -1770.253          48.000  
  21515363.769   113063992.871        2124.570          49.000  
  24771151.231   130173281.786       -1483.364          40.000  
  22391685.103   117669104.209       -1946.724          47.000  
  22290515.999   117137444.256        2312.579          49.000  
  22113550.951   116207491.809         219.073          47.000  
  20671210.183   108627946.397        2147.378          49.000  
  22900816.041   120344588.002       -1958.638          44.000  
  23728316.482   124693127.1752       3127.203          43.000  
  23555556.709   123785292.807        3713.117          43.000  
  24154766.787   126934140.680       -2491.091          42.000  
 16  5 20 10 26 58.0000000  0 11G 1G 3G 8G11G17G22G28G30G19G 6G 7
  21566285.179   113331592.606       -1770.001          48.000  
  21514959.220   113061867.950        2124.392          48.000  
  24771433.418   130174763.667       -1481.734          40.000  
  22392055.553   117671050.602       -1946.292          47.000  
  22290076.062   117135132.001        2312.430          48.000  
  22113509.437   116207272.299         219.542          47.000  
  20670801.621   108625799.023        2147.421          49.000  
  22901188.777   120346546.476       -1958.329          44.000  
  23727720.295   124690000.2052       3127.777          42.000  
  23554850.167   123781579.367        3713.559          42.000  
  24155240.805   126936631.649       -2490.578          42.000  
 16  5 20 10 26 59.0000000  0 11G 1G 3G 8G11G17G22G28G30G19G 6G 7
  21566622.230   113333363.459       -1771.040          48.000  
  21514554.881   113059743.876        2124.113          48.000  
  24771715.833   130176245.972       -1482.386          41.000  
  22392426.266   117672997.590       -1946.960          47.000  
  22289636.247   117132820.066        2312.105          49.000  
  22113468.027   116207053.776         218.296          47.000  
  20670393.269   108623652.414        2146.232          49.000  
  22901561.287   120348504.995       -1958.547          44.000  
  23727125.801   124686873.5092       3125.171          42.000  
  23554143.398   123777866.091        3712.684          42.000  
  24155714.823   126939122.386       -2490.348          42.000  
 16  5 20 10 27  0.0000000  0 11G 1G 3G 8G11G17G22G28G30G19G 6G 7
  21566959.211   113335134.821       -1771.405          48.000  
  21514150.996   113057620.461        2122.898          48.000  
  24771997.916   130177728.463       -1484.811          38.000  
  22392796.838   117674944.941       -1947.486          47.000  
  22289196.274   117130508.416        2311.195          48.000  
  22113426.391   116206835.990         217.545          47.000  
  20669984.829   108621506.417        2145.616          49.000  
  22901934.041   120350463.720       -1959.524          44.000  
  23726531.098   124683746.9002       3127.771          43.000  
  23553436.385   123774153.044        3712.726          42.000  
  24156188.544   126941612.949       -2491.209          42.000  
 16  5 20 10 27  1.0000000  0 11G 1G 3G 8G11G17G22G28G30G19G 6G 7
  21567296.088   113336906.310       -1771.510          48.000  
  21513747.076   113055497.792        2122.202          49.000  
  24772279.824   130179210.738       -1483.390          40.000  
  22393167.586   117676892.171       -1946.837          47.000  
  22288756.337   117128197.098        2311.146          48.000  
  22113385.156   116206618.692         217.119          48.000  
  20669576.721   108619361.153        2145.081          49.000  
  22902307.197   120352423.348       -1960.575          44.000  
  23725935.714   124680620.880        3125.629          42.000  
  23552729.913   123770441.001        3711.299          41.000  
  24156662.719   126944103.992       -2490.894          42.000  
 16  5 20 10 27  2.0000000  0 11G 1G 3G 8G11G17G22G28G30G19G 6G 7
  21567633.435   113338677.789       -1771.287          48.000  
  21513343.121   113053375.844        2121.991          49.000  
  24772562.291   130180692.660       -1481.468          42.000  
  22393537.914   117678839.126       -1946.698          47.000  
  22288316.679   117125886.013        2311.093          49.000  
  22113343.659   116206401.722         217.045          47.000  
  20669168.508   108617216.580        2144.606          49.000  
  22902680.265   120354383.961       -1960.691          45.000  
  23725341.342   124677495.148        3125.537          41.000  
  23552023.807   123766729.962        3710.797          41.000  
  24157136.597   126946595.707       -2491.033          42.000  
 16  5 20 10 27  3.0000000  0 10G 1G 3G 8G11G17G22G28G30G 6G 7
  21567970.643   113340449.271       -1771.293          48.000  
  21512939.619   113051254.534        2121.039          49.000  
  24772844.024   130182174.487       -1481.356          40.000  
  22393908.348   117680785.918       -1946.776          47.000  
  22287876.951   117123575.113        2310.808          49.000  
  22113302.390   116206185.211         215.935          48.000  
  20668760.627   108615072.530        2143.811          49.000  
  22903053.351   120356345.340       -1960.980          44.000  
  23551317.841   123763019.775        3710.033          41.000  
  24157611.138   126949087.912       -2492.285          42.000  
 16  5 20 10 27  4.0000000  0 11G 1G 3G 8G11G17G22G28G30G19G 6G 7
  21568307.502   113342220.784       -1771.610          48.000  
  21512535.961   113049133.922        2119.893          48.000  
  24773125.933   130183656.340       -1482.250          40.000  
  22394278.641   117682732.572       -1946.743          47.000  
  22287437.257   117121264.192        2310.477          49.000  
  22113261.382   116205969.102         215.626          48.000  
  20668352.483   108612928.899        2143.283          49.000  
  22903426.611   120358307.454       -1962.302          45.000  
  23724151.289   124671256.0953       3125.909          42.000  
  23550611.770   123759310.323        3708.495          40.000  
  24158085.784   126951580.647       -2493.125          43.000  
 16  5 20 10 27  5.0000000  0 11G 1G 3G 8G11G17G22G28G30G19G 6G 7
  21568644.641   113343992.202       -1771.216          48.000  
  21512132.424   113047013.919        2119.705          49.000  
  24773408.137   130185138.005       -1481.330          42.000  
  22394649.162   117684679.009       -1946.692          47.000  
  22286997.337   117118953.207        2310.962          48.000  
  22113220.356   116205753.371         215.576          48.000  
  20667944.585   108610785.646        2142.938          49.000  
  22903800.220   120360270.240       -1963.222          44.000  
  23723555.329   124668131.1062       3123.486          46.000  
  23549905.822   123755601.440        3708.819          40.000  
  24158560.412   126954073.747       -2493.323          43.000  
 16  5 20 10 27  6.0000000  0 11G 1G 3G 8G11G17G22G28G30G19G 6G 7
  21568981.691   113345763.644       -1770.978          48.000  
  21511728.975   113044894.351        2119.523          48.000  
  24773690.028   130186619.320       -1481.139          41.000  
  22395019.542   117686625.185       -1946.145          47.000  
  22286557.644   117116642.713        2310.252          49.000  
  22113179.383   116205537.901         215.385          47.000  
  20667536.913   108608643.063        2142.303          49.000  
  22904173.916   120362233.770       -1963.857          45.000  
  23722963.261   124665006.5722       3124.237          44.000  
  23549200.135   123751893.638        3708.125          41.000  
  24159034.640   126956567.219       -2493.100          42.000  
 16  5 20 10 27  7.0000000  0 11G 1G 3G 8G11G17G22G28G30G19G 6G 7
  21569318.428   113347534.854       -1771.675          48.000  
  21511325.806   113042775.001        2118.905          49.000  
  24773971.832   130188100.017       -1480.566          42.000  
  22395389.679   117688570.849       -1946.080          47.000  
  22286118.161   117114332.351        2309.836          49.000  
  22113138.218   116205322.407         215.112          47.000  
  20667129.485   108606500.835        2141.403          49.000  
  22904547.787   120364197.992       -1965.008          45.000  
  23722367.109   124661882.5672       3123.291          43.000  
  23548494.797   123748186.588        3706.358          42.000  
  24159509.041   126959060.907       -2493.854          43.000  
 16  5 20 10 27  8.0000000  0 11G 1G 3G 8G11G17G22G28G30G19G 6G 7
  21569655.532   113349305.824       -1770.781          48.000  
  21510922.461   113040656.073        2118.596          49.000  
  24774253.252   130189580.289       -1479.592          39.000  
  22395759.554   117690516.070       -1944.975          46.000  
  22285678.537   117112022.056        2310.454          48.000  
  22113097.402   116205107.051         215.325          47.000  
  20666721.970   108604359.003        2141.564          50.000  
  22904921.623   120366162.903       -1965.617          45.000  
  23721773.540   124658758.9022       3125.830          42.000  
  23547789.582   123744480.421        3705.922          41.000  
  24159983.792   126961555.059       -2494.367          42.000  
 16  5 20 10 27  9.0000000  0 11G 1G 3G 8G11G17G22G28G30G19G 6G 7
  21569992.775   113351076.740       -1771.134          48.000  
  21510519.344   113038537.692        2117.651          49.000  
  24774534.828   130191060.303       -1480.571          41.000  
  22396129.830   117692461.072       -1945.416          47.000  
  22285239.036   117109712.080        2309.632          48.000  
  22113056.411   116204891.994         214.488          47.000  
  20666314.455   108602217.755        2140.775          49.000  
  22905295.756   120368128.796       -1967.374          45.000  
  23721178.575   124655635.7712       3124.164          44.000  
  23547084.523   123740775.361        3703.504          44.000  
  24160458.071   126964049.819       -2495.542          40.000  
 16  5 20 10 27 10.0000000  0 11G 1G 3G 8G11G17G22G28G30G19G 6G 7
  21570329.826   113352847.696       -1770.942          48.000  
  21510116.540   113036420.109        2117.460          49.000  
  24774816.632   130192540.227       -1479.640          42.000  
  22396499.932   117694405.890       -1944.593          47.000  
  22284799.256   117107402.147        2309.733          48.000  
  22113015.683   116204677.412         214.504          47.000  
  20665906.992   108600077.037        2140.502          49.000  
  22905669.749   120370095.454       -1966.793          44.000  
  23720584.604   124652512.7092       3122.418          42.000  
  23546379.726   123737070.957        3704.278          43.000  
  24160933.310   126966545.082       -2495.241          43.000  
 16  5 20 10 27 11.0000000  0 11G 1G 3G 8G11G17G22G28G30G19G 6G 7
  21570666.859   113354618.466       -1770.986          48.000  
  21509713.859   113034302.802        2116.926          49.000  
  24775098.139   130194019.860       -1479.795          42.000  
  22396870.033   117696350.368       -1944.616          46.000  
  22284359.563   117105092.236        2310.058          49.000  
  22112974.797   116204462.980         214.257          47.000  
  20665499.669   108597936.599        2140.226          49.000  
  22906044.545   120372062.694       -1967.677          45.000  
  23719990.704   124649389.9482       3122.638          44.000  
  23545674.860   123733367.301        3702.885          41.000  
  24161408.131   126969040.692       -2495.929          41.000  
 16  5 20 10 27 12.0000000  0 11G 1G 3G 8G11G17G22G28G30G19G 6G 7
  21571003.735   113356388.983       -1770.862          49.000  
  21509311.003   113032185.846        2116.421          49.000  
  24775379.541   130195498.980       -1479.252          39.000  
  22397239.786   117698294.359       -1944.290          47.000  
  22283920.009   117102782.377        2309.646          48.000  
  22112934.120   116204248.626         213.665          48.000  
  20665092.312   108595796.484        2139.838          49.000  
  22906419.131   120374030.539       -1968.797          45.000  
  23719396.402   124646267.4632       3122.620          43.000  
  23544970.255   123729664.330        3702.406          41.000  
  24161882.567   126971536.494       -2495.893          42.000  
 16  5 20 10 27 13.0000000  0 11G 1G 3G 8G11G17G22G28G30G19G 6G 7
  21571340.420   113358159.383       -1770.233          48.000  
  21508908.043   113030069.501        2116.068          49.000  
  24775661.205   130196977.882       -1479.004          41.000  
  22397610.027   117700238.033       -1943.465          47.000  
  22283480.525   117100472.660        2309.444          48.000  
  22112893.252   116204034.529         214.554          47.000  
  20664685.320   108593656.875        2139.521          49.000  
  22906793.840   120375999.307       -1969.384          45.000  
  23718802.099   124643144.9031       3123.834          41.000  
  23544265.824   123725962.327        3701.190          43.000  
  24162357.231   126974033.014       -2497.125          43.000  
 16  5 20 10 27 14.0000000  0 11G 1G 3G 8G11G17G22G28G30G19G 6G 7
  21571677.279   113359929.479       -1769.866          48.000  
  21508505.309   113027953.536        2116.115          48.000  
  24775942.485   130198456.547       -1478.604          41.000  
  22397979.937   117702181.285       -1942.610          47.000  
  22283040.989   117098162.665        2309.814          49.000  
  22112852.349   116203820.614         213.943          47.000  
  20664278.032   108591517.396        2139.080          49.000  
  22907168.548   120377968.636       -1970.216          46.000  
  23718207.850   124640022.794        3123.083          41.000  
  23543561.359   123722260.981        3701.432          43.000  
  24162832.453   126976529.815       -2497.116          42.000  
 16  5 20 10 27 15.0000000  0 11G 1G 3G 8G11G17G22G28G30G19G 6G 7
  21572013.946   113361699.592       -1769.840          48.000  
  21508103.065   113025838.474        2115.276          49.000  
  24776223.660   130199935.005       -1477.815          38.000  
  22398349.759   117704124.372       -1942.821          46.000  
  22282601.296   117095852.810        2310.087          48.000  
  22112811.637   116203607.201         213.546          47.000  
  20663871.320   108589378.577        2139.084          49.000  
  22907543.239   120379938.899       -1970.685          44.000  
  23717613.792   124636900.837        3121.863          43.000  
  23542857.365   123718560.523        3700.164          44.000  
  24163308.425   126979027.281       -2497.084          43.000  
 16  5 20 10 27 16.0000000  0 11G 1G 3G 8G11G17G22G28G30G19G 6G 7
  21572350.962   113363469.452       -1769.989          48.000  
  21507700.401   113023723.832        2114.188          48.000  
  24776505.045   130201413.408       -1477.866          40.000  
  22398719.198   117706067.045       -1942.424          46.000  
  22282161.865   117093542.683        2310.209          49.000  
  22112771.170   116203393.964         212.883          47.000  
  20663464.276   108587239.862        2138.385          49.000  
  22907918.157   120381909.725       -1971.760          44.000  
  23717019.804   124633778.899        3122.009          42.000  
  23542153.231   123714860.645        3699.502          43.000  
  24163784.013   126981525.200       -2497.953          44.000  
 16  5 20 10 27 17.0000000  0 11G 1G 3G 8G11G17G22G28G30G19G 6G 7
  21572687.664   113365239.000       -1769.392          48.000  
  21507297.929   113021609.711        2113.604          48.000  
  24776786.395   130202891.467       -1477.969          41.000  
  22399088.602   117708009.284       -1941.815          46.000  
  22281722.311   117091232.341        2310.380          48.000  
  22112730.825   116203180.939         212.935          47.000  
  20663057.250   108585101.353        2138.414          49.000  
  22908293.546   120383881.162       -1971.919          44.000  
  23716425.624   124630656.909        3122.461          43.000  
  23541449.359   123711161.429        3698.621          41.000  
  24164259.793   126984023.572       -2498.592          43.000  
 16  5 20 10 27 18.0000000  0 11G 1G 3G 8G11G17G22G28G30G19G 6G 7
  21573024.418   113367008.480       -1769.426          48.000  
  21506895.806   113019496.329        2113.077          48.000  
  24777067.553   130204369.392       -1477.348          38.000  
  22399458.180   117709951.296       -1941.828          46.000  
  22281282.618   117088921.976        2310.108          49.000  
  22112690.236   116202968.309         212.623          47.000  
  20662650.258   108582963.304        2137.774          49.000  
  22908669.075   120385853.483       -1972.799          45.000  
  23715831.776   124627535.024        3121.740          44.000  
  23540745.644   123707462.972        3698.489          38.000  
  24164735.469   126986522.529       -2499.525          42.000  
 16  5 20 10 27 19.0000000  0 11G 1G 3G 8G11G17G22G28G30G19G 6G 7
  21573360.946   113368777.609       -1768.694          48.000  
  21506493.910   113017383.346        2113.231          48.000  
  24777348.362   130205847.126       -1476.886          40.000  
  22399827.618   117711892.822       -1940.991          46.000  
  22280842.855   117086611.391        2310.745          48.000  
  22112650.013   116202755.799         213.175          48.000  
  20662243.529   108580825.408        2137.779          49.000  
  22909044.377   120387826.383       -1972.819          45.000  
  23715237.997   124624413.266        3121.863          44.000  
  23540041.877   123703765.230        3697.654          40.000  
  24165211.441   126989021.954       -2499.886          40.000  
 16  5 20 10 27 20.0000000  0 11G 1G 3G 8G11G17G22G28G30G19G 6G 7
  21573697.752   113370546.422       -1768.920          48.000  
  21506091.909   113015270.853        2111.909          49.000  
  24777629.397   130207324.468       -1476.706          41.000  
  22400197.057   117713833.844       -1941.083          47.000  
  22280403.110   117084300.600        2310.701          49.000  
  22112609.319   116202543.431         211.823          47.000  
  20661836.816   108578687.740        2136.954          49.000  
  22909419.958   120389800.055       -1974.804          45.000  
  23714643.678   124621291.451        3121.240          42.000  
  23539338.354   123700068.237        3696.294          38.000  
  24165686.977   126991521.831       -2500.066          42.000  
 16  5 20 10 27 21.0000000  0 11G 1G 3G 8G11G17G22G28G30G19G 6G 7
  21574034.402   113372315.197       -1768.872          48.000  
  21505690.101   113013159.068        2111.127          49.000  
  24777910.817   130208801.762       -1477.680          41.000  
  22400566.583   117715774.643       -1940.929          47.000  
  22279963.626   117081990.050        2310.094          49.000  
  22112568.887   116202331.465         211.508          47.000  
  20661430.017   108576550.634        2136.610          49.000  
  22909795.539   120391774.706       -1975.466          45.000  
  23714049.568   124618170.224        3119.269          38.000  
  23538635.302   123696372.257        3695.588          37.000  
  24166162.111   126994022.485       -2501.527          43.000  
 16  5 20 10 27 22.0000000  0 11G 1G 3G 8G11G17G22G28G30G19G 6G 7
  21574370.895   113374083.882       -1769.066          48.000  
  21505288.501   113011047.802        2110.427          49.000  
  24778192.150   130210278.730       -1476.426          40.000  
  22400935.760   117717715.156       -1940.855          47.000  
  22279523.898   117079679.685        2309.983          49.000  
  22112528.891   116202119.732         211.252          47.000  
  20661023.584   108574414.032        2136.014          49.000  
  22910171.643   120393750.215       -1976.229          45.000  
  23713455.580   124615049.235        3120.386          39.000  
  23537931.954   123692677.366        3693.549          38.000  
  24166638.083   126996523.651       -2501.504          45.000  
 16  5 20 10 27 23.0000000  0 10G 1G 3G 8G11G17G22G28G30G 6G 7
  21574707.195   113375852.276       -1768.024          48.000  
  21504887.042   113008936.895        2110.916          49.000  
  24778473.307   130211755.370       -1476.699          41.000  
  22401305.128   117719655.192       -1939.830          47.000  
  22279084.117   117077369.313        2310.623          49.000  
  22112488.756   116201908.107         211.698          47.000  
  20660616.872   108572277.755        2136.290          49.000  
  22910547.678   120395726.451       -1976.247          44.000  
  23537228.972   123688983.175        3694.000          38.000  
  24167113.741   126999025.298       -2502.729          36.000  
 16  5 20 10 27 24.0000000  0 10G 1G 3G 8G11G17G22G28G30G 6G 7
  21575043.792   113377620.884       -1768.777          48.000  
  21504485.076   113006826.577        2109.896          48.000  
  24778754.151   130213231.913       -1475.934          41.000  
  22401674.392   117721595.271       -1940.144          47.000  
  22278644.703   117075059.100        2309.842          49.000  
  22112448.742   116201697.003         210.565          47.000  
  20660210.421   108570141.941        2135.641          49.000  
  22910923.870   120397703.061       -1977.249          44.000  
  23536526.164   123685289.467        3694.043          38.000  
  24167589.783   127001526.984       -2502.975          42.000  
 16  5 20 10 27 25.0000000  0 10G 1G 3G 8G11G17G22G28G30G 6G 7
  21575380.320   113379389.766       -1768.835          48.000  
  21504083.634   113004716.997        2109.391          49.000  
  24779035.449   130214708.657       -1477.397          41.000  
  22402043.779   117723535.524       -1940.128          47.000  
  22278205.080   117072748.851        2310.197          49.000  
  22112408.590   116201486.576         210.356          48.000  
  20659804.285   108568006.605        2135.191          49.000  
  22911299.835   120399679.920       -1976.755          44.000  
  23535823.444   123681595.971        3693.798          38.000  
  24168066.157   127004028.712       -2501.949          39.000  
 16  5 20 10 27 26.0000000  0 10G 1G 3G 8G11G17G22G28G30G 6G 7
  21575717.231   113381159.222       -1769.623          48.000  
  21503682.226   113002608.216        2108.528          48.000  
  24779316.799   130216185.819       -1477.812          40.000  
  22402412.886   117725476.264       -1941.151          47.000  
  22277765.317   117070438.872        2310.723          48.000  
  22112368.576   116201277.006         209.191          47.000  
  20659398.009   108565871.877        2134.403          49.000  
  22911675.678   120401657.080       -1977.535          44.000  
  23535120.654   123677902.895        3693.394          41.000  
  24168542.024   127006530.532       -2501.955          37.000  
 16  5 20 10 28  4.0000000  0 11G 8G 3G19G11G17G22G28G30G 1G 6G 7
  24789836.593   130271472.0673      -1447.331          41.000  
  21488483.872   112922739.063        2091.365          48.000  
  23688596.104   124484440.2023       3105.139          45.000  
  22416219.271   117798026.4161      -1897.853          46.000  
  22261042.215   116982555.974        2313.667          49.000  
  22110760.731   116192830.2123        220.564          48.000  
  20643994.388   108484926.342        2123.169          49.000  
  22926274.704   120478372.034       -2039.378          45.000  
  21588331.767   113447457.6281      -1736.805          49.000  
  23508716.642   123539147.8853       3631.066          44.000  
  24186900.386   127103005.1913      -2555.865          39.000  
 16  5 20 10 28  5.0000000  0 11G 8G 3G19G11G17G22G28G30G 1G 6G 7
  24790111.905   130272920.1412      -1449.540          41.000  
  21488085.920   112920647.866        2089.995          49.000  
  23688005.222   124481335.5922       3104.059          44.000  
  22416580.595   117799925.053       -1900.516          48.000  
  22260601.684   116980242.369        2312.513          49.000  
  22110718.763   116192610.0922        218.931          48.000  
  20643590.485   108482803.487        2122.107          49.000  
  22926662.605   120480410.902       -2039.627          45.000  
  21588662.448   113449195.113       -1738.750          49.000  
  23508025.962   123535516.9792       3630.174          44.000  
  24187386.706   127105559.0982      -2554.314          43.000  
 16  5 20 10 27 30.0000000  0 10G 1G 3G 8G11G17G22G28G30G 6G 7
  21577064.056   113388237.6541      -1768.054          48.000  
  21502078.673   112994178.117        2106.421          48.000  
  24780440.296   130222094.013       -1475.073          41.000  
  22403889.890   117733238.675       -1938.902          47.000  
  22276006.946   117061198.054        2310.554          49.000  
  22112209.832   116200443.129         209.391          48.000  
  20657773.655   108557336.078        2133.584          49.000  
  22913181.405   120409567.923       -1979.976          44.000  
  23532309.843   123663133.3541       3689.376          43.000  
  24170446.942   127016537.2401      -2503.750          41.000  
 16  5 20 10 27 31.0000000  0 10G 1G 3G 8G11G17G22G28G30G 6G 7
  21577400.444   113390004.612       -1765.524          49.000  
  21501677.336   112992071.500        2106.077          49.000  
  24780721.506   130223568.799       -1474.784          41.000  
  22404258.490   117735175.935       -1935.410          47.000  
  22275566.782   117058887.236        2311.404          46.000  
  22112169.661   116200233.543         210.758          47.000  
  20657367.589   108555202.522        2133.582          49.000  
  22913558.661   120411549.830       -1983.997          44.000  
  23531607.890   123659445.090        3686.095          43.000  
  24170923.857   127019042.537       -2506.302          39.000  
 16  5 20 10 27 32.0000000  0 10G 1G 3G 8G11G17G22G28G30G 6G 7
  21577736.309   113391768.528       -1761.406          49.000  
  21501276.609   112989965.244        2106.140          50.000  
  24781002.019   130225040.971       -1470.337          42.000  
  22404626.393   117737109.572       -1931.327          47.000  
  22275127.211   117056576.079        2311.367          48.000  
  22112129.473   116200021.930         212.684          47.000  
  20656961.662   108553068.992        2133.653          49.000  
  22913936.807   120413536.283       -1988.930          45.000  
  23530907.316   123655761.333        3681.388          42.000  
  24171401.173   127021552.363       -2512.434          40.000  
 16  5 20 10 27 33.0000000  0 11G 1G 3G 8G11G17G22G28G30G19G 6G 7
  21578071.353   113393528.863       -1759.759          48.000  
  21500875.586   112987858.335        2107.738          50.000  
  24781281.205   130226509.606       -1467.951          39.000  
  22404993.511   117739038.821       -1928.188          46.000  
  22274687.518   117054264.917        2310.602          46.000  
  22112088.657   116199807.411         215.749          48.000  
  20656555.927   108550935.515        2133.215          49.000  
  22914315.861   120415527.455       -1992.116          45.000  
  23706925.673   124580735.0853       3116.681          42.000  
  23530206.952   123652082.353        3677.860          34.000  
  24171880.757   127024066.269       -2513.933          45.000  
 16  5 20 10 27 34.0000000  0 11G 1G 3G 8G11G17G22G28G30G19G 6G 7
  21578405.943   113395288.397       -1759.698          48.000  
  21500474.597   112985750.264        2109.022          49.000  
  24781559.431   130227973.0163      -1465.140          30.000  
  22405359.861   117740966.638       -1926.461          45.000  
  22274248.104   117051954.900        2309.141          46.000  
  22112048.051   116199591.634         216.308          48.000  
  20656149.930   108548802.658        2132.434          49.000  
  22914694.827   120417519.416       -1992.676          46.000  
  23706329.242   124577620.4182       3112.036          43.000  
  23529507.058   123648405.070        3676.516          33.000  
  24172358.631   127026579.911       -2513.182          40.000  
 16  5 20 10 27 35.0000000  0 11G 1G 3G 8G11G17G22G28G30G19G 6G 7
  21578740.534   113397046.263       -1756.746          48.000  
  21500072.893   112983639.807        2112.008          49.000  
  24781844.183   130229469.4592      -1459.519          36.000  
  22405726.246   117742891.738       -1922.597          46.000  
  22273808.829   117049647.117        2305.655          49.000  
  22112006.851   116199373.015         220.855          49.000  
  20655744.352   108546670.738        2131.274          50.000  
  22915074.108   120419512.971       -1994.890          46.000  
  23705738.308   124574509.1892       3108.667          42.000  
  23528805.193   123644705.1383       3671.193          29.000  
  24172836.697   127029093.475       -2513.553          41.000  
 16  5 20 10 27 36.0000000  0 11G 1G 3G 8G11G17G22G28G30G19G 6G 7
  21579074.269   113398801.491       -1752.844          48.000  
  21499670.299   112981525.761        2116.300          48.000  
  24782144.048                       -1452.969          33.000  
  22406092.020   117744812.549       -1917.327          47.000  
  22273370.393   117047343.150        2302.194          48.000  
  22111964.429   116199150.189         225.464          42.000  
  20655338.600   108544540.436        2129.366          49.000  
  22915454.121   120421510.024       -2000.652          45.000  
  23705149.154   124571403.9852       3100.427          41.000  
  23528114.391   123641075.1742       3666.778          29.000  
  24173315.252   127031607.986       -2517.065          44.000  
 16  5 20 10 27 37.0000000  0 11G 1G 3G 8G11G17G22G28G30G19G 6G 7
  21579407.167   113400551.009       -1746.351          48.000  
  21499267.880   112979409.913        2114.528          50.000  
  24782403.044                       -1454.834          29.000  
  22406456.119   117746726.079       -1910.856          46.000  
  22272932.340   117045040.849        2303.563          48.000  
  22111920.664   116198921.622         229.541          46.000  
  20654933.388   108542410.906        2129.593          49.000  
  22915835.722   120423515.372       -2010.571          45.000  
  23704563.106                        3101.074          41.000  
  23527417.796                        3657.532          21.000  
  24173794.662   127034129.574       -2526.234          45.000  
 16  5 20 10 27 38.0000000  0 11G 1G 3G 8G11G17G22G28G30G19G 6G 7
  21579739.384   113402295.106       -1742.200          48.000  
  21498865.862   112977297.168        2110.699          49.000  
  24782669.544   130233806.8943      -1447.506          33.000  
  22406819.170   117748634.114       -1906.546          46.000  
  22272493.432   117042734.686        2307.852          49.000  
  22111876.585   116198691.495         230.416          46.000  
  20654528.002   108540279.999        2131.523          49.000  
  22916218.772   120425528.989       -2017.332          45.000  
  23703965.471   124565178.3083       3103.326          44.000  
  23526728.652                        3662.440          20.000  
  24174276.515   127036661.150       -2535.653          41.000  
 16  5 20 10 27 39.0000000  0 11G 1G 3G 8G11G17G22G28G30G19G 6G 7
  21580070.712   113404035.904       -1739.973          48.000  
  21498464.733   112975188.317        2107.083          48.000  
  24782945.868                       -1443.346          30.000  
  22407181.943   117750539.419       -1903.661          46.000  
  22272053.634   117040423.800        2312.710          49.000  
  22111832.767   116198461.731         229.614          44.000  
  20654122.319   108538147.315        2133.343          49.000  
  22916602.712   120427547.682       -2019.760          44.000  
  23703378.986   124562071.9662       3108.026          44.000  
  23526029.404   123630118.3132       3649.277          30.000  
  24174759.484   127039199.918       -2541.011          44.000  
 16  5 20 10 27 40.0000000  0  8G 3G 8G11G17G22G28G30G19
  21498063.989   112973082.542        2104.696          49.000  
  24783228.946                       -1453.958          29.000  
  22407544.384   117752443.960       -1904.533          46.000  
  22271613.400   117038110.223        2314.474          49.000  
  22111789.438   116198233.263         226.811          48.000  
  20653716.218   108536014.013        2133.233          49.000  
  22916987.646   120429569.212       -2021.751          45.000  
  23702786.516   124558963.1812       3109.686          37.000  
 16  5 20 10 27 41.0000000  0 10G 3G 8G11G17G22G28G30G 1G 6G 7
  21497663.856   112970978.906        2103.191          42.000  
  24783495.044   130238144.7662      -1454.015          42.000  
  22407906.912                       -1905.176          47.000  
  22271172.974   117035796.188        2313.943          48.000  
  22111746.371   116198006.670         226.423          48.000  
  20653310.099   108533881.277        2132.410          49.000  
  22917372.441   120431591.110       -2022.766          45.000  
  21580734.308                       -1741.455          49.000  
  23524635.446                        3644.482          35.000  
  24175728.111                       -2541.455          36.000  
 16  5 20 10 27 42.0000000  0  8G 3G11G17G28G30G 1G 6G 7
  21497263.530   112968875.927        2104.169          47.000  
  22408270.121   117756250.2383      -1904.279          47.000  
  22270732.618   117033482.522        2314.079          47.000  
  20652904.696   108531749.328        2132.166          48.000  
  22917757.445   120433615.407       -2025.440          44.000  
  21581065.514   113409264.6243      -1738.878          49.000  
  23523942.742   123619152.9972       3646.251          41.000  
  24176211.866   127046850.5433      -2546.882          44.000  
 16  5 20 10 27 43.0000000  0  8G 8G 3G11G17G22G28G30G 1
  24784045.197   130241036.4833      -1450.226          41.000  
  21496863.309   112966773.623        2101.688          49.000  
  22408629.630   117758153.4072      -1902.509          47.000  
  22270292.453   117031168.761        2313.454          48.000  
  22111659.853   116197556.5133        226.163          49.000  
  20652498.908   108529617.688        2130.866          48.000  
  22918143.269   120435642.252       -2028.278          44.000  
  21581393.525   113411003.2852      -1738.708          48.000  
 16  5 20 10 27 44.0000000  0 10G 8G 3G11G17G22G28G30G 1G 6G 7
  24784325.290   130242487.6602      -1451.573          39.000  
  21496463.665   112964672.035        2101.210          48.000  
  22408993.555   117760055.7422      -1902.586          47.000  
  22269852.219   117028854.773        2313.917          49.000  
  22111613.924   116197329.2262        227.287          48.000  
  20652093.540   108527486.346        2130.923          49.000  
  22918529.355   120437670.804       -2029.436          44.000  
  21581726.406   113412741.2322      -1738.165          49.000  
  23522554.927                        3641.011          45.000  
  24177184.262                       -2550.098          39.000  
 16  5 20 10 27 45.0000000  0 10G 8G 3G11G17G22G28G30G 1G 6G 7
  24784600.707   130243938.7892      -1451.246          42.000  
  21496063.583   112962571.222        2100.120          49.000  
  22409354.635   117761957.3692      -1901.923          46.000  
  22269412.107   117026540.632        2313.901          48.000  
  22111572.270   116197102.1462        226.781          48.000  
  20651687.909   108525355.380        2130.370          49.000  
  22918915.773   120439700.856       -2030.688          44.000  
  21582056.372   113414478.6632      -1737.754          48.000  
  23521861.088   123608218.5442       3640.922          45.000  
  24177664.544   127054484.6902      -2551.050          43.000  
 16  5 20 10 27 46.0000000  0 10G 8G 3G11G17G22G28G30G 1G 6G 7
  24784875.391   130245389.8862      -1452.151          42.000  
  21495664.008   112960471.168        2099.281          49.000  
  22409717.739   117763859.3412      -1902.769          47.000  
  22268971.716   117024226.540        2313.914          49.000  
  22111530.023   116196875.8462        225.689          48.000  
  20651282.558   108523224.917        2129.851          49.000  
  22919301.999   120441730.992       -2030.180          45.000  
  21582386.233   113416216.5302      -1738.483          49.000  
  23521168.123   123604577.6412       3641.203          45.000  
  24178155.506   127057035.7442      -2550.865          40.000  
 16  5 20 10 27 47.0000000  0 10G 8G 3G11G17G22G28G30G 1G 6G 7
  24785152.029   130246841.5792      -1452.250          39.000  
  21495264.555   112958371.550        2099.241          49.000  
  22410079.552   117765761.8592      -1902.866          47.000  
  22268531.377   117021912.334        2314.097          49.000  
  22111488.806   116196650.3462        225.197          48.000  
  20650877.399   108521094.754        2129.609          49.000  
  22919687.858   120443760.545       -2030.030          44.000  
  21582718.084   113417954.9482      -1738.708          48.000  
  23520475.262   123600936.2512       3640.650          44.000  
  24178637.795   127059585.7162      -2549.685          40.000  
 16  5 20 10 27 48.0000000  0 10G 8G 3G11G17G22G28G30G 1G 6G 7
  24785428.127   130248293.4512      -1457.587          35.000  
  21494865.102   112956272.315        2098.479          49.000  
  22410441.347   117767664.4992      -1903.307          46.000  
  22268090.882   117019598.078        2313.720          49.000  
  22111445.791   116196425.3942        224.242          48.000  
  20650471.856   108518964.923        2129.083          49.000  
  22920073.926   120445789.920       -2029.988          45.000  
  21583048.138   113419693.6072      -1739.264          48.000  
  23519781.912   123597294.6862       3641.308          43.000  
  24179122.144   127062135.3882      -2550.081          42.000  
 16  5 20 10 27 49.0000000  0 11G 8G 3G19G11G17G22G28G30G 1G 6G 7
  24785703.980   130249753.0273      -1451.351          41.000  
  21494465.650   112954173.460        2099.183          49.000  
  23697468.283   124531036.1083       3108.026          42.000  
  22410803.648   117769566.8492      -1901.406          46.000  
  22267650.473   117017283.609        2314.606          49.000  
  22111402.567   116196200.6122        225.180          49.000  
  20650066.697   108516835.283        2129.456          48.000  
  22920460.170   120447819.455       -2029.842          45.000  
  21583379.238   113421432.1562      -1738.226          48.000  
  23519088.894   123593653.3832       3641.315          43.000  
  24179609.668   127064684.9622      -2549.378          45.000  
 16  5 20 10 27 50.0000000  0 11G 8G 3G19G11G17G22G28G30G 1G 6G 7
  24785980.723   130251203.6232      -1452.079          40.000  
  21494066.266   112952074.738        2098.099          48.000  
  23696868.624   124527928.0992       3107.159          44.000  
  22411165.531   117771468.1432      -1900.924          46.000  
  22267209.872   117014968.753        2314.698          49.000  
  22111359.046   116195975.4662        225.230          48.000  
  20649661.573   108514705.641        2129.386          49.000  
  22920846.657   120449849.952       -2031.490          45.000  
  21583709.832   113423169.7912      -1737.275          48.000  
  23518395.754   123590013.0162       3639.516          43.000  
  24180093.667   127067235.1672      -2550.709          42.000  
 16  5 20 10 27 51.0000000  0 11G 8G 3G19G11G17G22G28G30G 1G 6G 7
  24786256.070   130252653.2882      -1449.625          40.000  
  21493666.901   112949976.259        2097.874          49.000  
  23696279.871   124524820.5292       3106.635          43.000  
  22411527.065   117773368.4872      -1900.305          47.000  
  22266769.569   117012653.917        2314.719          49.000  
  22111316.049   116195750.0552        225.219          48.000  
  20649256.117   108512576.343        2128.689          49.000  
  22921233.336   120451881.576       -2032.194          44.000  
  21584040.409   113424906.7802      -1736.892          48.000  
  23517703.609   123586373.9392       3639.037          44.000  
  24180579.673   127069786.2102      -2552.174          44.000  
 16  5 20 10 27 52.0000000  0 11G 8G 3G19G11G17G22G28G30G 1G 6G 7
  24786530.405   130254102.6602      -1448.154          40.000  
  21493267.971   112947878.326        2097.700          49.000  
  23695691.293   124521713.0152       3107.062          43.000  
  22411888.703   117775268.1802      -1898.792          47.000  
  22266329.003   117010338.899        2314.702          49.000  
  22111273.121   116195524.7102        225.753          48.000  
  20648850.923   108510447.281        2128.791          49.000  
  22921620.277   120453914.319       -2033.985          45.000  
  21584371.073   113426643.3162      -1736.072          48.000  
  23517011.219   123582735.9062       3636.958          44.000  
  24181064.929   127072338.1662      -2552.262          45.000  
 16  5 20 10 27 53.0000000  0 11G 8G 3G19G11G17G22G28G30G 1G 6G 7
  24786808.229   130255551.5242      -1448.191          36.000  
  21492868.937   112945780.939        2096.770          48.000  
  23695097.497   124518605.6682       3107.288          44.000  
  22412249.870   117777166.8392      -1898.187          45.000  
  22265888.245   117008023.569        2315.265          49.000  
  22111230.281   116195299.1852        225.656          48.000  
  20648446.078   108508318.429        2128.695          49.000  
  22922007.271   120455948.491       -2035.135          45.000  
  21584701.249   113428378.9812      -1735.354          48.000  
  23516319.283   123579099.2852       3635.982          44.000  
  24181550.481   127074891.4042      -2554.499          43.000  
 16  5 20 10 27 54.0000000  0 11G 8G 3G19G11G17G22G28G30G 1G 6G 7
  24787082.878   130257000.1412      -1448.617          42.000  
  21492469.729   112943684.006        2096.108          49.000  
  23694506.126   124515498.3682       3107.190          43.000  
  22412611.020   117779065.2342      -1899.072          46.000  
  22265447.435   117005708.095        2315.367          49.000  
  22111187.354   116195073.9232        224.448          48.000  
  20648040.831   108506189.839        2128.183          49.000  
  22922394.422   120457983.210       -2034.414          45.000  
  21585031.425   113430114.5242      -1736.520          48.000  
  23515627.225   123575463.1622       3636.499          44.000  
  24182035.894   127077444.9042      -2552.699          43.000  
 16  5 20 10 27 55.0000000  0 11G 8G 3G19G11G17G22G28G30G 1G 6G 7
  24787359.342   130258449.3812      -1449.622          42.000  
  21492070.747   112941587.769        2096.523          49.000  
  23693915.751   124512390.9052       3107.996          44.000  
  22412972.484   117780964.4742      -1899.497          47.000  
  22265006.625   117003392.766        2315.940          49.000  
  22111144.845   116194849.7802        223.370          48.000  
  20647635.951   108504061.825        2128.218          49.000  
  22922781.537   120460017.379       -2033.574          45.000  
  21585362.001   113431850.9202      -1736.450          48.000  
  23514935.271   123571826.6882       3636.900          44.000  
  24182522.423   127079997.7062      -2552.553          44.000  
 16  5 20 10 27 56.0000000  0 11G 8G 3G19G11G17G22G28G30G 1G 6G 7
  24787634.776                       -1449.582          36.000  
  21491671.713   112939491.971        2095.942          49.000  
  23693323.874   124509283.3782       3107.678          43.000  
  22413333.965   117782863.8612      -1898.888          46.000  
  22264565.955   117001077.417        2315.715          49.000  
  22111102.423   116194626.1262        223.573          49.000  
  20647231.089   108501934.143        2127.952          48.000  
  22923168.915   120462051.419       -2034.057          45.000  
  21585692.578   113433587.5932      -1736.088          48.000  
  23514243.266   123568190.0592       3636.563          44.000  
  24183007.400   127082549.8602      -2552.412          44.000  
 16  5 20 10 27 57.0000000  0 11G 8G 3G19G11G17G22G28G30G 1G 6G 7
  24787911.537   130261353.7323      -1448.020          40.000  
  21491273.062   112937396.445        2095.195          49.000  
  23692732.643   124506176.4102       3106.390          43.000  
  22413695.376   117784762.1812      -1898.019          46.000  
  22264125.878   116998762.047        2314.948          48.000  
  22111059.897   116194402.1112        224.586          49.000  
  20646826.209   108499806.723        2126.889          48.000  
  22923555.978   120464086.910       -2036.832          45.000  
  21586022.771   113435323.4422      -1735.562          48.000  
  23513551.330   123564555.0182       3633.145          43.000  
  24183493.737   127085103.3212      -2554.358          47.000  
 16  5 20 10 27 58.0000000  0 11G 8G 3G19G11G17G22G28G30G 1G 6G 7
  24788186.430   130262798.7173      -1447.398          41.000  
  21490874.430   112935301.494        2094.459          49.000  
  23692141.482   124503070.1142       3106.281          44.000  
  22414056.247   117786659.2332      -1896.512          47.000  
  22263685.382   116996446.876        2315.009          49.000  
  22111016.865   116194177.7882        224.401          48.000  
  20646421.713   108497679.939        2126.670          48.000  
  22923943.774   120466124.516       -2038.421          45.000  
  21586352.930   113437058.4142      -1734.252          48.000  
  23512860.057   123560922.0752       3631.887          44.000  
  24183979.691   127087658.4562      -2555.760          45.000  
 16  5 20 10 27 59.0000000  0 11G 8G 3G19G11G17G22G28G30G 1G 6G 7
  24788460.416   130264245.1812      -1445.566          41.000  
  21490475.849   112933206.758        2095.082          49.000  
  23691550.705   124499964.3252       3105.225          44.000  
  22414416.629   117788554.8452      -1894.359          47.000  
  22263244.764   116994131.497        2315.261          49.000  
  22110974.077   116193952.8342        225.379          48.000  
  20646016.850   108495553.299        2126.452          48.000  
  22924331.884   120468163.947       -2040.227          45.000  
  21586682.948   113438792.2142      -1733.351          48.000  
  23512169.255   123557291.0232       3629.738          44.000  
  24184466.377   127090215.3252      -2558.020          38.000  
 16  5 20 10 28  0.0000000  0 11G 8G 3G19G11G17G22G28G30G 1G 6G 7
  24788734.524   130265690.5692      -1444.307          40.000  
  21490077.426   112931112.226        2094.308          48.000  
  23690959.841   124496858.9592       3105.664          43.000  
  22414777.325   117790449.0082      -1893.539          46.000  
  22262803.972   116991815.924        2315.653          49.000  
  22110931.237   116193727.2442        226.149          48.000  
  20645612.075   108493426.785        2126.331          48.000  
  22924720.291   120470205.016       -2041.655          44.000  
  21587012.373   113440524.8272      -1731.799          48.000  
  23511478.837   123553661.6602       3628.136          44.000  
  24184953.710   127092773.4742      -2559.232          44.000  
 16  5 20 10 28  1.0000000  0 11G 8G 3G19G11G17G22G28G30G 1G 6G 7
  24789011.267   130267135.0112      -1443.629          42.000  
  21489678.950   112929017.933        2093.961          49.000  
  23690368.942   124493754.1022       3104.767          43.000  
  22415137.637   117792341.3421      -1892.355          46.000  
  22262363.563   116989500.280        2315.743          49.000  
  22110888.239   116193501.1172        226.665          47.000  
  20645207.614   108491300.525        2126.274          49.000  
  22925108.855   120472247.837       -2043.997          45.000  
  21587341.990   113442255.9391      -1731.390          48.000  
  23510788.332   123550034.0082       3626.785          45.000  
  24185440.239   127095333.1142      -2560.352          44.000  
 16  5 20 10 28  2.0000000  0 11G 8G 3G19G11G17G22G28G30G 1G 6G 7
  24789285.288   130268579.3232      -1444.158          40.000  
  21489280.265   112926924.050        2094.008          49.000  
  23689778.321   124490649.5522       3104.840          44.000  
  22415497.635   117794234.268       -1893.280          46.000  
  22261922.788   116987184.872        2315.797          49.000  
  22110845.486   116193275.5232        225.463          48.000  
  20644803.170   108489174.790        2126.008          49.000  
  22925497.646   120474290.810       -2042.867          45.000  
  21587671.503   113443987.787       -1732.161          49.000  
  23510098.281   123546406.6942       3628.356          44.000  
  24185926.891   127097892.4122      -2557.250          39.000  
 16  5 20 10 28  3.0000000  0 11G 8G 3G19G11G17G22G28G30G 1G 6G 7
  24789560.268   130270024.7602      -1447.583          36.000  
  21488882.086   112924830.961        2092.261          48.000  
  23689187.283   124487544.8592       3104.706          44.000  
  22415858.331   117796128.906       -1895.629          46.000  
  22261482.292   116984869.936        2314.559          49.000  
  22110803.047   116193051.5422        223.046          48.000  
  20644398.709   108487049.914        2124.439          49.000  
  22925886.332   120476332.359       -2040.427          44.000  
  21588001.347   113445721.328       -1734.751          49.000  
  23509407.496   123542778.1562       3629.447          43.000  
  24186414.031   127100449.9392      -2556.821          42.000  
 16  5 20 10 28  4.0000000  0 11G 8G 3G19G11G17G22G28G30G 1G 6G 7
  24789836.593   130271472.0672      -1447.331          41.000  
  21488483.872   112922739.063        2091.365          48.000  
  23688596.104   124484440.2022       3105.139          45.000  
  22416219.271   117798026.416       -1897.853          46.000  
  22261042.215   116982555.974        2313.667          49.000  
  22110760.731   116192830.2122        220.564          48.000  
  20643994.388   108484926.342        2123.169          49.000  
  22926274.704   120478372.034       -2039.378          45.000  
  21588331.767   113447457.628       -1736.805          49.000  
  23508716.642   123539147.8852       3631.066          44.000  
  24186900.386   127103005.1912      -2555.865          39.000  
 16  5 20 10 28  5.0000000  0 11G 8G 3G19G11G17G22G28G30G 1G 6G 7
  24790111.905   130272920.1412      -1449.540          41.000  
  21488085.920   112920647.866        2089.995          49.000  
  23688005.222   124481335.5922       3104.059          44.000  
  22416580.595   117799925.053       -1900.516          48.000  
  22260601.684   116980242.369        2312.513          49.000  
  22110718.763   116192610.0922        218.931          48.000  
  20643590.485   108482803.487        2122.107          49.000  
  22926662.605   120480410.902       -2039.627          45.000  
  21588662.448   113449195.113       -1738.750          49.000  
  23508025.962   123535516.9792       3630.174          44.000  
  24187386.706   127105559.0982      -2554.314          43.000  
 16  5 20 10 28  6.0000000  0 11G 8G 3G19G11G17G22G28G30G 1G 6G 7
  24790388.072   130274368.3402      -1447.851          39.000  
  21487688.142   112918557.129        2090.201          48.000  
  23687414.637   124478231.2632       3103.729          43.000  
  22416941.972   117801824.040       -1898.698          46.000  
  22260161.450   116977929.046        2313.505          49.000  
  22110676.708   116192390.6602        219.486          48.000  
  20643186.739   108480681.176        2121.945          48.000  
  22927050.489   120482449.750       -2039.253          45.000  
  21588993.252   113450933.121       -1738.121          49.000  
  23507334.934   123531886.2482       3630.491          44.000  
  24187873.096   127108112.8372      -2554.330          46.000  
 16  5 20 10 28  7.0000000  0 11G 8G 3G19G11G17G22G28G30G 1G 6G 7
  24790663.471   130275816.0522      -1447.677          41.000  
  21487290.469   112916466.824        2089.917          49.000  
  23686824.069   124475126.9081       3103.967          41.000  
  22417303.453   117803722.299       -1898.173          45.000  
  22259721.234   116975615.846        2313.237          48.000  
  22110634.810   116192170.6531        219.888          47.000  
  20642782.924   108478559.285        2121.749          48.000  
  22927438.808   120484489.908       -2040.735          45.000  
  21589324.143   113452670.583       -1737.033          48.000  
  23506644.307   123528256.880        3628.019          44.000  
  24188358.963   127110667.462       -2555.757          44.000  
 16  5 20 10 28  8.0000000  0 11G 8G 3G19G11G17G22G28G30G 1G 6G 7
  24790938.731   130277262.5412      -1446.079          41.000  
  21486892.569   112914376.724        2089.783          48.000  
  23686233.659   124472023.359        3103.729          45.000  
  22417664.044   117805619.123       -1896.675          43.000  
  22259280.930   116973302.331        2313.524          48.000  
  22110593.278   116191950.484         220.463          48.000  
  20642379.283   108476437.529        2121.521          48.000  
  22927827.285   120486531.674       -2042.672          44.000  
  21589654.301   113454406.832       -1735.564          49.000  
  23505953.854   123524629.090        3626.347          44.000  
  24188844.829   127113223.403       -2557.180          45.000  
 16  5 20 10 28  9.0000000  0 11G 8G 3G19G11G17G22G28G30G 1G 6G 7
  24791213.764   130278708.0872      -1444.289          41.000  
  21486494.983   112912287.136        2089.589          48.000  
  23685643.300   124468920.014        3102.948          44.000  
  22418024.514   117807514.205       -1894.040          45.000  
  22258840.451   116970988.429        2314.265          48.000  
  22110551.415   116191729.795         221.337          48.000  
  20641975.589   108474315.929        2121.675          48.000  
  22928216.425   120488575.468       -2044.252          45.000  
  21589984.529   113456141.845       -1734.268          49.000  
  23505263.907   123521003.228        3625.000          45.000  
  24189331.498   127115781.164       -2558.315          44.000  
 16  5 20 10 28 10.0000000  0 11G 8G 3G19G11G17G22G28G30G 1G 6G 7
  24791488.762   130280152.9932      -1445.084          41.000  
  21486097.590   112910198.309        2088.163          49.000  
  23685052.785   124465816.856        3103.772          43.000  
  22418385.052   117809408.167       -1894.200          45.000  
  22258400.252   116968674.237        2314.542          48.000  
  22110509.587   116191508.892         219.919          48.000  
  20641571.844   108472194.677        2121.196          48.000  
  22928605.582   120490621.363       -2046.711          45.000  
  21590314.443   113457875.820       -1733.988          48.000  
  23504574.571   123517379.300        3623.268          44.000  
  24189818.324   127118340.893       -2560.425          44.000  
 16  5 20 10 28 11.0000000  0 11G 8G 3G19G11G17G22G28G30G 1G 6G 7
  24791763.742   130281597.6702      -1444.239          42.000  
  21485700.004   112908110.332        2088.256          49.000  
  23684462.060   124462713.606        3101.556          44.000  
  22418745.626   117811301.466       -1892.786          47.000  
  22257959.931   116966359.615        2314.261          49.000  
  22110467.515   116191288.220         221.366          44.000  
  20641168.185   108470073.676        2120.510          49.000  
  22928995.193   120492668.537       -2048.472          45.000  
  21590644.374   113459609.234       -1732.810          48.000  
  23503885.165   123513756.497        3621.701          44.000  
  24190305.674   127120901.926       -2562.353          43.000  
 16  5 20 10 28 12.0000000  0 11G 8G 3G19G11G17G22G28G30G 1G 6G 7
  24792038.234   130283041.2672      -1440.797          42.000  
  21485302.627   112906022.756        2087.416          48.000  
  23683871.737   124459610.633        3102.332          44.000  
  22419105.869   117813193.372       -1891.329          47.000  
  22257518.929   116964044.847        2314.759          48.000  
  22110425.285   116191066.931         220.985          48.000  
  20640764.666   108467952.991        2120.199          49.000  
  22929384.961   120494717.437       -2049.008          46.000  
  21590974.044   113461341.635       -1732.424          48.000  
  23503195.742   123510135.459        3621.008          45.000  
  24190793.826   127123464.408       -2562.818          42.000  
 16  5 20 10 28 13.0000000  0 11G 8G 3G19G11G17G22G28G30G 1G 6G 7
  24792312.848   130284484.891       -1444.230          40.000  
  21484905.775   112903935.706        2085.986          49.000  
  23683280.960   124456507.503        3103.560          43.000  
  22419465.849   117815085.243       -1892.928          46.000  
  22257078.695   116961730.023        2314.562          48.000  
  22110383.090   116190846.143         219.921          48.000  
  20640361.357   108465832.753        2119.583          49.000  
  22929774.834   120496766.471       -2048.401          45.000  
  21591303.940   113463074.157       -1733.558          48.000  
  23502506.860   123506514.463        3621.508          44.000  
  24191281.176   127126026.547       -2561.240          41.000  
 16  5 20 10 28 14.0000000  0 11G 8G 3G19G11G17G22G28G30G 1G 6G 7
  24792587.776   130285929.733       -1444.979          39.000  
  21484508.835   112901849.467        2086.434          49.000  
  23682689.938   124453404.098        3103.738          43.000  
  22419826.109   117816979.110       -1894.252          47.000  
  22256638.112   116959415.605        2313.828          48.000  
  22110341.524   116190627.293         218.453          48.000  
  20639957.873   108463713.367        2119.115          49.000  
  22930164.515   120498813.658       -2045.820          45.000  
  21591634.011   113464808.616       -1734.775          48.000  
  23501817.576   123502891.904        3623.382          44.000  
  24191768.404   127128586.549       -2558.381          41.000  
 16  5 20 10 28 15.0000000  0 11G 8G 3G19G11G17G22G28G30G 1G 6G 7
  24792862.792   130287376.121       -1447.729          40.000  
  21484111.929   112899764.151        2084.974          48.000  
  23682099.528   124450300.656        3103.297          43.000  
  22420186.892   117818875.192       -1897.984          47.000  
  22256198.087   116957101.774        2313.514          49.000  
  22110299.888   116190410.468         215.349          47.000  
  20639554.808   108461594.875        2118.275          48.000  
  22930553.934   120500859.319       -2044.760          45.000  
  21591964.134   113466545.182       -1737.471          48.000  
  23501127.752   123499267.910        3624.242          45.000  
  24192255.300   127131144.625       -2557.173          38.000  
 16  5 20 10 28 16.0000000  0 11G 8G 3G19G11G17G22G28G30G 1G 6G 7
  24793138.453   130288824.198       -1449.888          39.000  
  21483715.373   112897680.099        2083.479          48.000  
  23681509.100   124447197.097        3102.574          42.000  
  22420547.990   117820773.449       -1899.188          47.000  
  22255757.818   116954788.571        2312.262          49.000  
  22110259.229   116190195.867         213.379          48.000  
  20639151.970   108459477.406        2116.672          49.000  
  22930943.109   120502903.644       -2044.617          45.000  
  21592294.886   113468283.875       -1739.959          48.000  
  23500438.119   123495642.703        3625.698          45.000  
  24192741.410   127133700.930       -2553.071          38.000  
 16  5 20 10 28 17.0000000  0 11G 8G 3G19G11G17G22G28G30G 1G 6G 7
  24793414.393   130290272.986       -1450.330          41.000  
  21483318.887   112895596.878        2082.812          48.000  
  23680918.794   124444093.561        3103.235          43.000  
  22420909.663   117822672.677       -1899.627          46.000  
  22255318.020   116952475.664        2312.546          49.000  
  22110218.587   116189982.443         212.982          48.000  
  20638749.044   108457360.720        2116.215          48.000  
  22931332.161   120504947.616       -2044.411          46.000  
  21592626.004   113470023.540       -1739.847          49.000  
  23499748.155   123492017.232        3624.820          45.000  
  24193227.853   127136256.668       -2553.400          35.000  
 16  5 20 10 28 18.0000000  0 11G 8G 3G19G11G17G22G28G30G 1G 6G 7
  24793690.316   130291721.135       -1447.842          44.000  
  21482922.749   112893514.065        2082.522          48.000  
  23680328.034   124440990.237        3103.106          42.000  
  22421270.847   117824571.631       -1898.640          47.000  
  22254877.891   116950162.767        2312.740          49.000  
  22110178.312   116189769.261         213.309          48.000  
  20638346.537   108455244.402        2115.964          48.000  
  22931721.179   120506992.069       -2045.385          45.000  
  21592957.139   113471763.141       -1739.325          49.000  
  23499058.348   123488392.332        3624.163          44.000  
  24193714.173   127138812.630       -2556.109          37.000  
 16  5 20 10 28 19.0000000  0 11G 8G 3G19G11G17G22G28G30G 1G 6G 7
  24793966.099   130293169.002       -1448.000          43.000  
  21482526.560   112891431.701        2081.743          49.000  
  23679737.309   124437887.107        3103.239          43.000  
  22421631.962   117826469.806       -1897.835          46.000  
  22254437.639   116947849.778        2313.123          49.000  
  22110137.671   116189555.999         213.544          48.000  
  20637943.664   108453128.416        2115.646          49.000  
  22932110.371   120509037.694       -2046.466          46.000  
  21593288.100   113473502.171       -1738.676          49.000  
  23498368.733   123484768.556        3622.611          44.000  
  24194200.597   127141369.563       -2557.193          43.000  
 16  5 20 10 28 20.0000000  0 11G 8G 3G19G11G17G22G28G30G 1G 6G 7
  24794241.394   130294615.679       -1446.689          42.000  
  21482130.405   112889349.679        2081.249          49.000  
  23679146.968   124434784.499        3101.985          44.000  
  22421993.077   117828366.353       -1897.139          48.000  
  22253997.213   116945536.549        2313.253          48.000  
  22110097.081   116189342.085         213.568          48.000  
  20637540.721   108451012.634        2115.641          48.000  
  22932500.209   120511085.398       -2048.650          46.000  
  21593618.659   113475239.847       -1737.471          48.000  
  23497679.432   123481146.842        3621.252          44.000  
  24194687.563   127143928.195       -2561.201          42.000  
 16  5 20 10 28 21.0000000  0 11G 8G 3G19G11G17G22G28G30G 1G 6G 7
  24794516.549   130296062.484       -1447.064          42.000  
  21481733.918   112887268.315        2081.407          48.000  
  23678556.907   124431681.575        3102.841          44.000  
  22422353.825   117830262.602       -1896.650          46.000  
  22253556.997   116943222.955        2313.797          49.000  
  22110056.475   116189128.546         213.212          49.000  
  20637138.249   108448897.051        2115.592          48.000  
  22932889.890   120513133.660       -2047.969          45.000  
  21593949.254   113476977.389       -1737.686          48.000  
  23496990.375   123477525.681        3621.656          45.000  
  24195174.738   127146487.208       -2560.771          42.000  
 16  5 20 10 28 22.0000000  0 11G 8G 3G19G11G17G22G28G30G 1G 6G 7
  24794791.722   130297509.544       -1447.574          42.000  
  21481338.130   112885187.783        2080.271          48.000  
  23677966.164   124428578.683        3102.742          43.000  
  22422714.731   117832159.053       -1896.752          47.000  
  22253116.832   116940909.363        2313.324          48.000  
  22110015.955   116188915.695         212.735          48.000  
  20636735.690   108446781.983        2114.609          48.000  
  22933279.501   120515182.384       -2049.534          46.000  
  21594279.970   113478715.159       -1738.023          48.000  
  23496301.318   123473904.926        3619.972          43.000  
  24195661.582   127149046.435       -2559.455          42.000  
 16  5 20 10 28 23.0000000  0 11G 8G 3G19G11G17G22G28G30G 1G 6G 7
  24795066.842   130298956.443       -1448.185          40.000  
  21480942.185   112883107.901        2079.590          49.000  
  23677375.893   124425475.983        3103.026          44.000  
  22423075.409   117834055.159       -1896.294          47.000  
  22252676.598   116938595.786        2313.348          48.000  
  22109975.384   116188703.139         212.115          48.000  
  20636333.585   108444667.397        2114.365          49.000  
  22933669.600   120517232.027       -2049.815          46.000  
  21594610.739   113480452.779       -1737.974          49.000  
  23495612.314   123470285.101        3619.441          44.000  
  24196149.019   127151606.520       -2561.205          41.000  
 16  5 20 10 28 24.0000000  0 11G 8G 3G19G11G17G22G28G30G 1G 6G 7
  24795342.136   130300403.049       -1446.433          40.000  
  21480546.658   112881028.379        2079.294          49.000  
  23676785.465   124422373.211        3102.738          43.000  
  22423436.524   117835951.091       -1896.180          46.000  
  22252236.835   116936282.011        2313.800          50.000  
  22109934.759   116188490.856         212.241          48.000  
  20635931.462   108442553.012        2114.116          49.000  
  22934059.770   120519281.785       -2050.195          46.000  
  21594941.141   113482190.302       -1737.507          49.000  
  23494923.362   123466665.415        3619.427          44.000  
  24196636.281   127154166.308       -2560.418          44.000  
 16  5 20 10 28 25.0000000  0 11G 8G 3G19G11G17G22G28G30G 1G 6G 7
  24795617.379   130301848.1363      -1446.725          41.000  
  21480150.974   112878949.440        2078.278          49.000  
  23676195.229   124419270.648        3102.342          44.000  
  22423797.185   117837846.800       -1896.452          46.000  
  22251796.270   116933968.336        2313.678          49.000  
  22109894.624   116188278.889         211.802          48.000  
  20635529.287   108440439.118        2113.607          49.000  
  22934450.323   120521332.347       -2051.532          46.000  
  21595271.998   113483927.762       -1737.424          49.000  
  23494234.863   123463046.649        3617.693          43.000  
  24197123.457   127156726.654       -2560.339          44.000  
 16  5 20 10 28 26.0000000  0 11G 8G 3G19G11G17G22G28G30G 1G 6G 7
  24795892.464   130303294.2772      -1446.425          44.000  
  21479755.552   112876870.974        2078.079          48.000  
  23675604.504   124416168.395        3102.040          43.000  
  22424157.986   117839741.811       -1895.197          46.000  
  22251356.175   116931654.623        2313.182          48.000  
  22109854.296   116188066.959         211.556          48.000  
  20635126.902   108438325.613        2112.894          49.000  
  22934840.597   120523384.001       -2052.266          46.000  
  21595602.417   113485664.781       -1737.108          48.000  
  23493546.417   123459428.903        3617.166          45.000  
  24197610.702   127159287.896       -2560.338          41.000  
 16  5 20 10 28 27.0000000  0 11G 8G 3G19G11G17G22G28G30G 1G 6G 7
  24796167.881   130304740.3212      -1445.841          41.000  
  21479360.078   112874793.193        2077.137          49.000  
  23675014.216   124413066.426        3101.801          43.000  
  22424518.438   117841636.826       -1895.753          46.000  
  22250916.220   116929341.004        2313.556          49.000  
  22109813.777   116187855.502         210.970          48.000  
  20634724.797   108436212.645        2112.523          49.000  
  22935231.203   120525436.295       -2052.714          45.000  
  21595932.890   113487401.921       -1737.593          48.000  
  23492858.163   123455811.888        3616.954          43.000  
  24198098.400   127161849.429       -2561.306          42.000  
 16  5 20 10 28 28.0000000  0 11G 8G 3G19G11G17G22G28G30G 1G 6G 7
  24796443.071   130306186.4532      -1445.818          42.000  
  21478964.778   112872715.927        2076.981          47.000  
  23674423.404   124409964.647        3101.804          43.000  
  22424878.889   117843531.779       -1894.804          47.000  
  22250475.445   116927027.558        2313.396          49.000  
  22109773.938   116187644.480         210.909          47.000  
  20634322.884   108434100.155        2112.327          48.000  
  22935621.721   120527488.951       -2053.183          45.000  
  21596263.728   113489139.170       -1737.146          49.000  
  23492170.119   123452195.358        3616.184          45.000  
  24198585.610   127164411.001       -2561.819          41.000  
 16  5 20 10 28 29.0000000  0 11G 8G 3G19G11G17G22G28G30G 1G 6G 7
  24796717.039   130307627.4753      -1445.189          41.000  
  21478569.688   112870639.017        2076.663          49.000  
  23673833.761   124406863.148        3102.201          43.000  
  22425239.638   117845426.245       -1893.933          47.000  
  22250035.246   116924714.203        2313.319          48.000  
  22109733.942   116187433.558         211.224          48.000  
  20633920.831   108431988.156        2111.877          48.000  
  22936012.222   120529542.551       -2054.618          46.000  
  21596594.340   113490876.152       -1736.447          48.000  
  23491482.214   123448579.779        3614.965          44.000  
  24199073.169   127166973.175       -2562.521          43.000  
 16  5 20 10 28 30.0000000  0 11G 8G 3G19G11G17G22G28G30G 1G 6G 7
  24796992.124   130309072.3452      -1443.613          41.000  
  21478174.214   112868562.445        2076.897          49.000  
  23673243.106   124403762.262        3100.889          42.000  
  22425599.915   117847319.881       -1892.389          47.000  
  22249594.977   116922400.922        2313.568          49.000  
  22109693.929   116187222.466         211.526          48.000  
  20633519.144   108429876.547        2111.567          48.000  
  22936403.160   120531597.197       -2055.101          45.000  
  21596924.743   113492612.573       -1735.494          49.000  
  23490794.239   123444965.411        3614.473          44.000  
  24199560.781   127169536.118       -2562.492          44.000  
 16  5 20 10 28 31.0000000  0 11G 8G 3G19G11G17G22G28G30G 1G 6G 7
  24797267.157   130310517.5422      -1444.628          43.000  
  21477779.333   112866486.127        2076.099          48.000  
  23672652.992   124400661.561        3100.904          43.000  
  22425960.297   117849212.731       -1892.760          46.000  
  22249154.795   116920087.599        2313.490          49.000  
  22109653.724   116187011.195         210.917          48.000  
  20633117.440   108427765.221        2111.403          48.000  
  22936794.533   120533652.853       -2055.650          45.000  
  21597255.215   113494348.454       -1736.031          48.000  
  23490106.473   123441352.125        3613.083          44.000  
  24200048.759   127172099.650       -2563.370          41.000  
 16  5 20 10 28 32.0000000  0 11G 8G 3G19G11G17G22G28G30G 1G 6G 7
  24797542.330   130311963.4863      -1445.689          42.000  
  21477384.417   112864410.350        2075.045          49.000  
  23672061.901   124397561.006        3100.932          42.000  
  22426320.452   117851105.953       -1893.967          47.000  
  22248714.544   116917774.412        2312.337          49.000  
  22109613.396   116186800.570         209.613          47.000  
  20632715.858   108425654.357        2109.973          49.000  
  22937185.558   120535708.521       -2055.744          45.000  
  21597585.338   113496084.723       -1737.265          48.000  
  23489418.743   123437738.927        3612.883          45.000  
  24200536.423   127174662.904       -2562.632          42.000  
 16  5 20 10 28 33.0000000  0 11G 8G 3G19G11G17G22G28G30G 1G 6G 7
  24797817.432   130313408.2242      -1445.523          43.000  
  21476989.797   112862335.083        2074.938          49.000  
  23671471.595   124394460.156        3101.054          42.000  
  22426680.485   117852999.490       -1894.047          46.000  
  22248274.310   116915461.034        2313.667          49.000  
  22109573.156   116186590.668         209.590          48.000  
  20632314.241   108423543.775        2110.465          49.000  
  22937576.739   120537763.813       -2054.180          45.000  
  21597915.758   113497821.342       -1737.028          48.000  
  23488731.135   123434125.425        3614.066          44.000  
  24201024.121   127177225.647       -2562.500          37.000  
 16  5 20 10 28 34.0000000  0 11G 8G 3G19G11G17G22G28G30G 1G 6G 7
  24798089.603   130314853.7452      -1445.109          42.000  
  21476594.951   112860260.787        2074.178          49.000  
  23670882.667   124391358.949        3101.601          44.000  
  22427040.849   117854894.035       -1895.640          44.000  
  22247833.849   116913147.651        2313.651          48.000  
  22109533.649   116186382.160         207.836          47.000  
  20631912.398   108421433.761        2110.134          48.000  
  22937967.956   120539818.597       -2054.415          46.000  
  21598246.544   113499558.971       -1737.909          48.000  
  23488043.544   123430511.357        3614.312          44.000  
  24201511.733   127179787.550       -2561.161          40.000  
 16  5 20 10 28 35.0000000  0 11G 8G 3G19G11G17G22G28G30G 1G 6G 7
  24798367.027   130316297.7313      -1445.806          41.000  
  21476200.280   112858187.111        2073.218          48.000  
  23670293.007   124388257.516        3100.506          42.000  
  22427401.475   117856788.713       -1894.906          46.000  
  22247393.789   116910833.962        2313.686          49.000  
  22109494.159   116186174.236         207.461          47.000  
  20631510.921   108419323.903        2109.690          48.000  
  22938358.893   120541873.421       -2055.259          45.000  
  21598577.034   113501296.793       -1738.103          48.000  
  23487355.918   123426897.340        3613.466          45.000  
  24201999.239   127182349.536       -2562.363          44.000  
 16  5 20 10 28 36.0000000  0 11G 8G 3G19G11G17G22G28G30G 1G 6G 7
  24798643.875   130317743.5712      -1445.522          38.000  
  21475805.643   112856114.171        2072.797          49.000  
  23669702.963   124385156.053        3101.822          43.000  
  22427762.067   117858682.953       -1893.691          46.000  
  22246953.328   116908520.129        2313.846          49.000  
  22109454.686   116185966.622         206.783          43.000  
  20631109.409   108417214.465        2109.453          49.000  
  22938750.074   120543929.383       -2056.754          45.000  
  21598907.873   113503034.241       -1737.199          48.000  
  23486668.344   123423284.357        3612.376          45.000  
  24202486.921   127184912.387       -2563.709          40.000  
 16  5 20 10 28 37.0000000  0 11G 8G 3G19G11G17G22G28G30G 1G 6G 7
  24798915.365   130319179.4083      -1446.589          40.000  
  21475411.181   112854041.883        2068.933          44.000  
  23669112.988   124382054.810        3100.707          44.000  
  22428122.361   117860576.281       -1893.157          46.000  
  22246512.954   116906206.048        2313.898          48.000  
  22109415.179   116185758.751         207.658          48.000  
  20630708.211   108415105.261        2109.197          48.000  
  22939141.622   120545986.747       -2058.314          45.000  
  21599238.327   113504770.977       -1736.616          47.000  
  23485981.259   123419672.726        3610.624          45.000  
  24202974.986   127187476.468       -2565.411          40.000  
 16  5 20 10 28 38.0000000  0 11G 8G 3G19G11G17G22G28G30G 1G 6G 7
  24799192.300   130320634.7143      -1446.498          40.000  
  21475016.719   112851970.023        2072.230          49.000  
  23668522.979   124378953.414        3101.320          44.000  
  22428482.638   117862469.259       -1892.544          46.000  
  22246072.319   116903891.637        2315.091          49.000  
  22109375.724   116185551.255         207.426          48.000  
  20630306.925   108412996.314        2109.210          48.000  
  22939533.170   120548044.669       -2057.377          45.000  
  21599568.660   113506507.486       -1736.179          48.000  
  23485294.209   123416061.659        3611.598          44.000  
  24203462.876   127190040.919       -2563.271          43.000  
 16  5 20 10 28 39.0000000  0 11G 8G 3G19G11G17G22G28G30G 1G 6G 7
  24799467.368   130322080.0132      -1444.601          42.000  
  21474622.693   112849898.830        2071.111          48.000  
  23667932.708   124375851.854        3101.858          43.000  
  22428843.142   117864362.380       -1893.105          46.000  
  22245632.050   116901577.092        2314.960          49.000  
  22109336.200   116185344.357         206.923          49.000  
  20629905.710   108410887.667        2108.909          48.000  
  22939924.858   120550102.715       -2057.890          45.000  
  21599899.167   113508244.187       -1736.662          48.000  
  23484606.933   123412450.709        3610.754          45.000  
  24203951.029   127192605.279       -2564.567          39.000  
 16  5 20 10 28 40.0000000  0 11G 8G 3G19G11G17G22G28G30G 1G 6G 7
  24799742.436   130323525.8873      -1446.438          41.000  
  21474228.632   112847828.282        2069.990          49.000  
  23667342.646   124372750.418        3100.562          43.000  
  22429203.140   117866255.130       -1892.904          46.000  
  22245191.816   116899262.446        2314.530          49.000  
  22109296.937   116185137.725         206.325          48.000  
  20629504.442   108408779.366        2108.112          48.000  
  22940316.703   120552161.615       -2059.400          45.000  
  21600229.657   113509980.666       -1736.484          48.000  
  23483919.830   123408840.575        3609.869          43.000  
  24204438.867   127195170.452       -2564.612          35.000  
 16  5 20 10 28 41.0000000  0 11G 8G 3G19G11G17G22G28G30G 1G 6G 7
  24800020.034   130324984.1263      -1448.171          38.000  
  21473834.938   112845758.436        2069.952          49.000  
  23666752.532   124369649.032        3101.335          44.000  
  22429563.470   117868148.310       -1894.098          46.000  
  22244751.338   116896947.951        2314.422          49.000  
  22109257.778   116184931.948         205.108          48.000  
  20629103.262   108406671.693        2107.102          48.000  
  22940708.600   120554220.668       -2058.876          45.000  
  21600560.199   113511717.628       -1737.261          48.000  
  23483233.129   123405230.711        3609.686          45.000  
  24204926.845   127197735.460       -2565.565          39.000  
 16  5 20 10 28 42.0000000  0 11G 8G 3G19G11G17G22G28G30G 1G 6G 7
  24800292.309   130326429.8982      -1447.000          38.000  
  21473441.557   112843689.235        2068.344          49.000  
  23666162.540   124366547.729        3099.720          44.000  
  22429923.765   117870041.873       -1894.287          46.000  
  22244310.720   116894633.588        2313.650          49.000  
  22109218.568   116184726.897         204.331          48.000  
  20628702.046   108404564.467        2106.500          49.000  
  22941100.619   120556279.678       -2059.879          45.000  
  21600890.758   113513455.086       -1738.004          48.000  
  23482546.114   123401620.816        3609.194          45.000  
  24205414.456   127200310.5713      -2565.471          38.000  
 16  5 20 10 28 43.0000000  0 11G 8G 3G19G11G17G22G28G30G 1G 6G 7
  24800566.016   130327876.2992      -1452.656          35.000  
  21473047.654   112841620.620        2067.699          49.000  
  23665572.357   124363446.740        3099.283          43.000  
  22430283.902   117871935.327       -1893.678          46.000  
  22243870.416   116892319.347        2313.840          49.000  
  22109179.758   116184522.255         204.061          48.000  
  20628301.267   108402457.820        2105.710          49.000  
  22941492.481   120558339.345       -2060.394          46.000  
  21601221.475   113515192.613       -1738.372          48.000  
  23481859.221   123398011.637        3607.984          44.000  
  24205901.684   127202875.5352      -2565.322          39.000  
 16  5 20 10 28 44.0000000  0 11G 8G 3G19G11G17G22G28G30G 1G 6G 7
  24800842.672   130329307.7473      -1441.646          37.000  
  21472654.256   112839552.651        2067.977          48.000  
  23664982.016   124360345.999        3100.400          44.000  
  22430644.441   117873828.806       -1893.139          45.000  
  22243429.902   116890005.350        2313.675          48.000  
  22109140.687   116184318.180         203.886          47.000  
  20627900.785   108400351.776        2105.927          49.000  
  22941884.430   120560399.619       -2059.987          45.000  
  21601552.069   113516930.287       -1737.697          48.000  
  23481172.241   123394403.160        3609.283          45.000  
  24206391.477   127205440.6982      -2564.682          42.000  
 16  5 20 10 28 45.0000000  0 11G 8G 3G19G11G17G22G28G30G 1G 6G 7
  24801120.026                       -1444.678          39.000  
  21472260.474   112837484.931        2068.057          48.000  
  23664391.692   124357245.099        3100.918          42.000  
  22431005.207   117875722.803       -1894.016          46.000  
  22242989.825   116887691.317        2314.177          49.000  
  22109102.314   116184114.776         202.948          48.000  
  20627500.232   108398246.039        2105.789          49.000  
  22942276.345   120562459.005       -2058.776          44.000  
  21601882.803   113518668.548       -1738.688          48.000  
  23480485.523   123390793.967        3609.525          43.000  
  24206878.582   127208004.7512      -2564.247          40.000  
 16  5 20 10 28 46.0000000  0 11G 8G 3G19G11G17G22G28G30G 1G 6G 7
  24801395.844   130332214.5822      -1447.309          38.000  
  21471867.077   112835417.880        2066.830          49.000  
  23663801.962   124354144.213        3100.894          44.000  
  22431365.537   117877617.387       -1894.687          46.000  
  22242549.521   116885377.551        2313.863          49.000  
  22109063.365   116183912.238         202.198          48.000  
  20627099.977   108396140.944        2104.911          49.000  
  22942668.084   120564518.232       -2059.371          44.000  
  21602213.694   113520407.481       -1739.001          48.000  
  23479798.752   123387184.665        3608.860          44.000  
  24207366.176   127210568.2832      -2565.495          37.000  
 16  5 20 10 28 47.0000000  0 11G 8G 3G19G11G17G22G28G30G 1G 6G 7
  24801668.992   130333649.3813      -1444.180          38.000  
  21471473.784   112833351.283        2066.553          49.000  
  23663211.918   124351043.538        3100.986          44.000  
  22431726.163   117879512.135       -1894.849          46.000  
  22242109.305   116883063.948        2313.776          49.000  
  22109024.800   116183710.280         201.367          48.000  
  20626699.285   108394036.319        2104.487          49.000  
  22943059.720   120566577.561       -2059.312          44.000  
  21602544.707   113522146.733       -1739.539          48.000  
  23479111.632   123383575.663        3609.569          44.000  
  24207853.665   127213131.3602      -2563.225          39.000  
 16  5 20 10 28 48.0000000  0 11G 8G 3G19G11G17G22G28G30G 1G 6G 7
  24801944.932   130335096.9102      -1447.855          39.000  
  21471080.595   112831285.704        2065.078          49.000  
  23662621.298   124347942.672        3100.986          45.000  
  22432086.754   117881408.232       -1897.008          44.000  
  22241669.228   116880750.510        2313.230          49.000  
  22108987.143   116183509.868         199.347          48.000  
  20626298.733   108391932.413        2103.343          49.000  
  22943451.355   120568636.125       -2058.270          43.000  
  21602876.070   113523887.272       -1741.569          48.000  
  23478425.001   123379965.878        3610.229          45.000  
  24208341.696   127215693.6132      -2560.918          41.000  
 16  5 20 10 28 49.0000000  0 11G 8G 3G19G11G17G22G28G30G 1G 6G 7
  24802219.791   130336544.0993      -1450.304          36.000  
  21470687.861   112829221.064        2063.256          48.000  
  23662032.371   124344841.648        3100.723          45.000  
  22432447.642   117883306.018       -1898.184          45.000  
  22241228.941   116878437.503        2312.453          49.000  
  22108949.555   116183311.181         197.682          48.000  
  20625898.599   108389829.291        2102.198          49.000  
  22943842.659   120570693.474       -2057.653          44.000  
  21603207.606   113525629.481       -1743.243          48.000  
  23477738.091   123376355.037        3610.341          45.000  
  24208828.749   127218253.8231      -2560.901          40.000  
 16  5 20 10 28 50.0000000  0 11G 8G 3G19G11G17G22G28G30G 1G 6G 7
  24802497.773   130338005.0862      -1450.420          35.000  
  21470295.527   112827156.673        2063.960          49.000  
  23661442.693   124341740.601        3100.347          44.000  
  22432809.088   117885204.243       -1899.149          45.000  
  22240789.248   116876124.642        2312.115          49.000  
  22108911.653   116183113.139         197.051          48.000  
  20625498.483   108387726.581        2101.831          49.000  
  22944234.259   120572750.263       -2056.415          45.000  
  21603539.003   113527372.222       -1743.814          48.000  
  23477050.570   123372743.850        3610.554          44.000  
  24209316.343   127220813.677       -2560.538          40.000  
 16  5 20 10 28 51.0000000  0 11G 8G 3G19G11G17G22G28G30G 1G 6G 7
  24802773.503   130339454.1672      -1448.418          39.000  
  21469902.688   112825092.764        2063.590          48.000  
  23660851.427   124338639.784        3099.669          42.000  
  22433170.413   117887102.552       -1898.086          46.000  
  22240348.543   116873811.934        2312.759          48.000  
  22108873.926   116182915.562         197.812          48.000  
  20625097.966   108385624.420        2102.014          48.000  
  22944625.580   120574807.212       -2057.144          44.000  
  21603870.802   113529115.159       -1742.771          48.000  
  23476363.223   123369132.892        3609.828          45.000  
  24209803.413   127223373.147       -2559.448          37.000  
 16  5 20 10 28 52.0000000  0 11G 8G 3G19G11G17G22G28G30G 1G 6G 7
  24803049.601   130340905.3233      -1449.109          40.000  
  21469509.797   112823029.188        2062.606          48.000  
  23660261.016   124335539.105        3100.090          43.000  
  22433531.248   117889000.019       -1897.113          47.000  
  22239908.274   116871499.114        2312.609          49.000  
  22108836.094   116182717.881         197.667          48.000  
  20624698.094   108383522.499        2101.664          49.000  
  22945017.355   120576865.185       -2058.779          44.000  
  21604202.478   113530857.554       -1742.394          48.000  
  23475676.679   123365522.983        3608.760          44.000  
  24210290.920   127225933.434       -2560.611          41.000  
 16  5 20 10 28 53.0000000  0 11G 8G 3G19G11G17G22G28G30G 1G 6G 7
  24803319.905   130342324.8882      -1446.231          40.000  
  21469117.236   112820966.258        2062.645          49.000  
  23659670.902   124332438.754        3100.580          43.000  
  22433892.537   117890897.526       -1897.663          47.000  
  22239468.459   116869186.445        2312.634          49.000  
  22108798.611   116182520.677         197.318          47.000  
  20624298.519   108381421.114        2101.240          49.000  
  22945409.269   120578923.867       -2058.396          44.000  
  21604534.277   113532600.014       -1742.762          49.000  
  23474989.542   123361913.818        3609.609          43.000  
  24210778.322   127228494.298       -2561.932          38.000  
 16  5 20 10 28 54.0000000  0 11G 8G 3G19G11G17G22G28G30G 1G 6G 7
  24803597.660   130343784.6393      -1448.702          39.000  
  21468724.764   112818904.009        2061.997          49.000  
  23659080.544   124329338.422        3100.512          42.000  
  22434253.809   117892795.752       -1898.345          46.000  
  22239028.382   116866873.997        2312.390          49.000  
  22108761.075   116182324.501         195.819          48.000  
  20623898.490   108379320.405        2100.562          48.000  
  22945801.079   120580982.079       -2057.793          45.000  
  21604865.935   113534343.332       -1743.667          48.000  
  23474302.666   123358304.333        3609.900          44.000  
  24211265.165   127231053.921       -2559.615          40.000  
 16  5 20 10 28 55.0000000  0 11G 8G 3G19G11G17G22G28G30G 1G 6G 7
  24803875.746   130345246.5562      -1449.482          38.000  
  21468332.343   112816842.138        2061.500          49.000  
  23658490.639   124326237.707        3100.630          46.000  
  22434614.907   117894694.341       -1898.594          47.000  
  22238588.392   116864561.381        2312.746          49.000  
  22108723.784   116182128.986         195.272          48.000  
  20623498.828   108377219.845        2100.611          49.000  
  22946192.819   120583039.702       -2057.656          46.000  
  21605197.455   113536087.043       -1743.788          48.000  
  23473615.739   123354694.336        3610.179          44.000  
  24211752.323   127233612.994       -2559.275          36.000  
 16  5 20 10 28 56.0000000  0 11G 8G 3G19G11G17G22G28G30G 1G 6G 7
  24804149.366   130346695.5822      -1448.663          40.000  
  21467940.272   112814780.987        2060.415          49.000  
  23657901.258   124323137.016        3100.535          45.000  
  22434976.336   117896593.313       -1898.685          46.000  
  22238148.524   116862248.727        2312.759          49.000  
  22108686.912   116181934.279         193.972          48.000  
  20623099.253   108375119.772        2099.773          49.000  
  22946584.524   120585097.328       -2057.917          46.000  
  21605529.253   113537831.170       -1744.287          48.000  
  23472928.776   123351084.383        3609.556          44.000  
  24212239.324   127236171.830       -2559.212          45.000  
 16  5 20 10 28 57.0000000  0 11G 8G 3G19G11G17G22G28G30G 1G 6G 7
  24804425.934   130348137.7553      -1449.062          40.000  
  21467548.183   112812720.419        2060.090          49.000  
  23657310.935   124320036.206        3100.222          43.000  
  22435337.293   117898491.818       -1898.986          47.000  
  22237708.150   116859935.855        2312.590          49.000  
  22108650.127   116181739.782         194.098          48.000  
  20622699.747   108373019.962        2099.514          49.000  
  22946975.915   120587155.806       -2059.825          45.000  
  21605861.348   113539575.009       -1744.050          48.000  
  23472241.778   123347475.242        3608.172          43.000  
  24212726.464   127238731.393       -2559.433          38.000  
 16  5 20 10 28 58.0000000  0 11G 8G 3G19G11G17G22G28G30G 1G 6G 7
  24804701.055   130349583.7992      -1450.801          38.000  
  21467156.111   112810660.555        2059.318          48.000  
  23656721.536   124316935.258        3100.186          44.000  
  22435698.687   117900390.148       -1898.542          48.000  
  22237267.934   116857622.728        2313.106          49.000  
  22108613.115   116181545.690         193.523          48.000  
  20622299.963   108370920.494        2099.181          48.000  
  22947367.533   120589214.834       -2058.747          45.000  
  21606192.990   113541318.693       -1744.335          49.000  
  23471555.269   123343866.587        3609.300          43.000  
  24213212.802   127241291.199       -2561.325          34.000  
 16  5 20 10 28 59.0000000  0 11G 8G 3G19G11G17G22G28G30G 1G 6G 7
  24804977.920   130351038.6593      -1453.170          40.000  
  21466764.162   112808601.658        2058.627          48.000  
  23656131.178   124313834.299        3101.277          41.000  
  22436060.099   117902289.478       -1899.844          45.000  
  22236827.770   116855309.920        2312.578          49.000  
  22108576.400   116181352.870         192.171          47.000  
  20621900.405   108368821.767        2098.487          48.000  
  22947759.465   120591273.740       -2059.608          45.000  
  21606525.102   113543063.426       -1745.203          49.000  
  23470868.394   123340257.865        3608.051          43.000  
  24213699.698   127243850.666       -2559.103          42.000  
 16  5 20 10 29  0.0000000  0 11G 8G 3G19G11G17G22G28G30G 1G 6G 7
  24805248.730   130352461.6573      -1450.051          30.000  
  21466372.509   112806543.244        2058.569          48.000  
  23655541.221   124310733.264        3101.891          43.000  
  22436420.917   117904186.7463      -1899.099          47.000  
  22236387.710   116852996.930        2313.266          49.000  
  22108539.876                         194.971          40.000  
  20621500.970   108366723.336        2098.483          48.000  
  22948151.274   120593332.562       -2059.037          45.000  
  21606857.110   113544808.224       -1743.956          45.000  
  23470181.518   123336649.107        3608.405          44.000  
  24214186.297   127246409.812       -2559.774          40.000  
 16  5 20 10 29  1.0000000  0 11G 8G 3G19G11G17G22G28G30G 1G 6G 7
  24805531.563                       -1454.631          29.000  
  21465981.048   112804485.264        2057.800          49.000  
  23654950.985   124307632.443        3101.168          43.000  
  22436781.456   117906081.5642      -1898.584          45.000  
  22235947.685   116850683.851        2312.987          48.000  
  22108503.650   116180969.8383        193.536          48.000  
  20621101.831   108364625.212        2098.023          48.000  
  22948543.014   120595392.322       -2060.610          44.000  
  21607189.030   113546552.750       -1744.534          48.000  
  23469494.992   123333041.303        3607.304          44.000  
  24214672.617   127248969.729       -2558.852          38.000  
 16  5 20 10 29  2.0000000  0 11G 8G 3G19G11G17G22G28G30G 1G 6G 7
  24805806.229   130355390.7652      -1451.395          37.000  
  21465589.500   112802427.911        2056.896          49.000  
  23654360.958   124304531.738        3101.599          43.000  
  22437143.321   117907980.3152      -1899.472          46.000  
  22235507.434   116848370.866        2313.089          49.000  
  22108466.987   116180778.1362        190.133          48.000  
  20620702.797   108362527.600        2097.052          48.000  
  22948935.208   120597452.632       -2060.735          46.000  
  21607521.126   113548297.303       -1744.956          48.000  
  23468808.535   123329434.090        3607.201          44.000  
  24215161.590   127251529.780       -2558.412          40.000  
 16  5 20 10 29  3.0000000  0 11G 8G 3G19G11G17G22G28G30G 1G 6G 7
  24806081.820   130356840.5662      -1451.678          38.000  
  21465198.057   112800371.036        2056.700          49.000  
  23653771.228   124301431.427        3099.312          43.000  
  22437506.408   117909879.6262      -1900.050          47.000  
  22235067.304   116846058.282        2312.350          49.000  
  22108430.743   116180587.1162        190.447          48.000  
  20620303.763   108360430.633        2096.524          49.000  
  22949327.471   120599512.601       -2060.172          45.000  
  21607853.133   113550042.536       -1745.703          47.000  
  23468121.921   123325826.822        3606.631          43.000  
  24215645.816   127254076.7583      -2557.583          38.000  
 16  5 20 10 29  4.0000000  0 11G 8G 3G19G11G17G22G28G30G 1G 6G 7
  24806356.958   130358290.2282      -1450.489          40.000  
  21464806.806   112798314.665        2055.743          49.000  
  23653181.114   124298331.208        3098.567          44.000  
  22437865.812   117911778.8602      -1899.120          46.000  
  22234627.419   116843745.745        2312.620          49.000  
  22108394.307   116180396.5522        190.672          49.000  
  20619904.990   108358334.148        2096.057          49.000  
  22949719.508   120601573.014       -2061.266          45.000  
  21608185.229   113551787.859       -1745.477          48.000  
  23467435.604   123322219.966        3606.094          44.000  
  24216136.586   127256636.2392      -2559.858          43.000  
 16  5 20 10 29  5.0000000  0 11G 8G 3G19G11G17G22G28G30G 1G 6G 7
  24806632.078   130359731.2203      -1446.615          40.000  
  21464415.624   112796259.119        2055.109          48.000  
  23652591.314   124295231.113        3099.314          42.000  
  22438228.777   117913678.4802      -1900.090          46.000  
  22234187.377   116841433.385        2312.297          49.000  
  22108358.132   116180206.8232        189.042          48.000  
  20619506.061   108356238.251        2095.667          48.000  
  22950111.597   120603633.696       -2060.682          45.000  
  21608517.533   113553533.645       -1746.221          48.000  
  23466749.444   123318613.455        3606.646          43.000  
  24216622.243   127259195.7692      -2560.229          37.000  
 16  5 20 10 29  6.0000000  0 11G 8G 3G19G11G17G22G28G30G 1G 6G 7
  24806907.443   130361178.2262      -1450.330          41.000  
  21464024.670   112794204.291        2054.857          49.000  
  23652001.444   124292131.171        3101.127          44.000  
  22438589.525   117915578.7052      -1900.084          47.000  
  22233747.422   116839121.320        2312.457          49.000  
  22108322.429   116180018.0422        188.619          47.000  
  20619107.393   108354143.067        2095.107          48.000  
  22950503.599   120605694.376       -2060.786          45.000  
  21608849.820   113555280.150       -1746.599          48.000  
  23466063.302   123315007.057        3606.212          43.000  
  24217108.598   127261754.8882      -2559.652          41.000  
 16  5 20 10 29  7.0000000  0 11G 8G 3G19G11G17G22G28G30G 1G 6G 7
  24807183.680   130362629.4882      -1450.572          43.000  
  21463633.628   112792149.908        2053.900          49.000  
  23651411.261   124289031.069        3100.056          45.000  
  22438952.315   117917478.5512      -1899.717          46.000  
  22233307.659   116836808.969        2311.965          49.000  
  22108286.586   116179829.4512        188.086          48.000  
  20618708.917   108352048.043        2094.510          48.000  
  22950895.862   120607755.498       -2062.285          45.000  
  21609182.247   113557026.372       -1746.548          48.000  
  23465377.037   123311401.061        3604.795          44.000  
  24217596.750   127264314.2232      -2560.005          42.000  
 16  5 20 10 29  8.0000000  0 11G 8G 3G19G11G17G22G28G30G 1G 6G 7
  24807461.435   130364079.8672      -1452.381          38.000  
  21463242.795   112790096.137        2053.547          49.000  
  23650821.269   124285931.181        3099.745          44.000  
  22439313.727   117919378.3912      -1899.513          46.000  
  22232867.704   116834496.632        2312.369          49.000  
  22108250.744   116179641.3442        188.211          48.000  
  20618310.058   108349953.462        2094.808          48.000  
  22951288.195   120609817.034       -2060.971          44.000  
  21609514.534   113558772.680       -1746.238          48.000  
  23464690.633   123307795.607        3605.392          43.000  
  24218083.489   127266873.7782      -2559.072          42.000  
 16  5 20 10 29  9.0000000  0 11G 8G 3G19G11G17G22G28G30G 1G 6G 7
  24807736.747   130365535.6463      -1452.901          37.000  
  21462851.858   112788043.278        2052.189          48.000  
  23650231.661   124282831.165        3100.199          46.000  
  22439675.452   117921279.7982      -1902.629          46.000  
  22232427.086   116832184.772        2312.154          49.000  
  22108215.006   116179454.8762        185.309          48.000  
  20617912.001   108347859.767        2093.446          49.000  
  22951680.249   120611877.598       -2059.171          44.000  
  21609847.240   113560520.561       -1748.942          48.000  
  23464004.490   123304189.234        3607.433          44.000  
  24218569.286   127269431.9722      -2557.591          42.000  
 16  5 20 10 29 10.0000000  0 11G 8G 3G19G11G17G22G28G30G 1G 6G 7
  24808012.059   130366982.3143      -1451.522          38.000  
  21462461.723   112785990.988        2051.970          48.000  
  23649641.390   124279730.749        3101.029          43.000  
  22440037.300   117923182.5912      -1903.505          45.000  
  22231986.887   116829872.986        2312.272          49.000  
  22108179.966   116179269.7902        184.235          47.000  
  20617513.874   108345766.507        2093.429          49.000  
  22952072.094   120613936.665       -2058.205          46.000  
  21610179.963   113562269.742       -1749.201          48.000  
  23463318.103   123300581.510        3608.697          45.000  
  24219057.159   127271988.3582      -2556.029          43.000  
 16  5 20 10 29 11.0000000  0 11G 8G 3G19G11G17G22G28G30G 1G 6G 7
  24808290.372   130368445.7583      -1453.204          41.000  
  21462071.118   112783939.624        2050.813          48.000  
  23649051.939   124276630.301        3100.591          44.000  
  22440399.741   117925086.1512      -1903.791          46.000  
  22231547.281   116827561.413        2311.799          49.000  
  22108144.891   116179085.8562        183.991          46.000  
  20617115.451   108343673.913        2092.844          49.000  
  22952464.078   120615995.473       -2058.376          45.000  
  21610513.018   113564019.838       -1751.115          48.000  
  23462631.437   123296973.629        3608.156          42.000  
  24219542.938   127274544.2472      -2555.626          44.000  
 16  5 20 10 29 12.0000000  0 11G 8G 3G19G11G17G22G28G30G 1G 6G 7
  24808569.663   130369899.2062      -1454.428          38.000  
  21461680.826   112781888.782        2050.298          49.000  
  23648462.069   124273529.828        3100.606          46.000  
  22440762.008   117926990.4422      -1905.684          46.000  
  22231107.396   116825249.926        2311.117          49.000  
  22108109.851   116178902.9162        182.023          48.000  
  20616716.975   108341581.751        2091.582          48.000  
  22952855.574   120618053.784       -2057.390          44.000  
  21610846.299   113565770.587       -1752.002          48.000  
  23461944.719   123293365.334        3609.361          42.000  
  24220029.415   127277099.2882      -2553.618          43.000  
 16  5 20 10 29 13.0000000  0 11G 8G 3G19G11G17G22G28G30G 1G 6G 7
  24808843.998   130371354.4133      -1456.911          39.000  
  21461290.674   112779839.016        2049.988          48.000  
  23647872.252   124270428.959        3100.578          44.000  
  22441124.798   117928897.573       -1908.159          46.000  
  22230667.075   116822939.188        2310.856          49.000  
  22108075.770   116178721.9971        179.648          49.000  
  20616319.145   108339490.735        2090.918          49.000  
  22953246.860   120620109.651       -2054.427          44.000  
  21611180.070   113567524.112       -1754.201          48.000  
  23461257.425   123289754.880        3611.362          44.000  
  24220515.753   127279651.0801      -2551.337          41.000  
 16  5 20 10 29 14.0000000  0 11G 8G 3G19G11G17G22G28G30G 1G 6G 7
  24809118.595   130372810.5752      -1455.951          43.000  
  21460900.662   112777789.902        2048.702          48.000  
  23647281.946   124267327.762        3102.003          44.000  
  22441488.024   117930805.976       -1908.901          45.000  
  22230228.638   116820628.535        2310.549          49.000  
  22108041.376   116178542.918         178.813          48.000  
  20615921.420   108337400.171        2090.042          49.000  
  22953637.710   120622164.089       -2053.923          44.000  
  21611514.084   113569278.872       -1755.104          48.000  
  23460570.008   123286143.089        3611.917          43.000  
  24221000.764   127282201.445       -2549.778          32.000  
 16  5 20 10 29 15.0000000  0 11G 8G 3G19G11G17G22G28G30G 1G 6G 7
  24809396.699   130374267.1292      -1457.190          42.000  
  21460510.545   112775741.312        2048.074          48.000  
  23646691.797   124264226.455        3101.318          43.000  
  22441851.006   117932714.988       -1909.427          46.000  
  22229788.491   116818317.980        2310.431          49.000  
  22108007.627   116178364.715         178.103          49.000  
  20615523.590   108335310.041        2089.871          49.000  
  22954028.630   120624218.191       -2054.338          45.000  
  21611848.082   113571034.284       -1755.414          48.000  
  23459882.609   123282531.074        3611.204          44.000  
  24221485.985   127284751.384       -2549.527          41.000  
 16  5 20 10 29 16.0000000  0 11G 8G 3G19G11G17G22G28G30G 1G 6G 7
  24809674.716   130375723.0152      -1456.218          41.000  
  21460120.585   112773693.131        2048.049          48.000  
  23646101.142   124261125.722        3099.969          43.000  
  22442214.075   117934623.438       -1908.003          45.000  
  22229348.624   116816007.588        2309.994          49.000  
  22107973.198   116178186.584         178.221          49.000  
  20615126.091   108333220.441        2089.045          49.000  
  22954419.672   120626273.251       -2056.032          46.000  
  21612182.026   113572789.388       -1754.807          48.000  
  23459195.646   123278920.127        3609.024          44.000  
  24221971.153   127287301.796       -2551.312          41.000  
 16  5 20 10 29 17.0000000  0 11G 8G 3G19G11G17G22G28G30G 1G 6G 7
  24809952.000   130377177.6042      -1453.868          41.000  
  21459730.747   112771644.888        2048.362          48.000  
  23645511.325   124258025.477        3099.963          45.000  
  22442577.092   117936530.122       -1906.256          46.000  
  22228909.786   116813697.092        2310.460          49.000  
  22107939.624   116178007.491         179.180          49.000  
  20614728.645   108331130.981        2089.479          49.000  
  22954811.080   120628330.118       -2057.563          45.000  
  21612515.500   113574543.075       -1753.021          48.000  
  23458508.876   123275311.056        3607.969          44.000  
  24222456.566   127289853.575       -2553.235          41.000  
 16  5 20 10 29 18.0000000  0 11G 8G 3G19G11G17G22G28G30G 1G 6G 7
  24810228.062   130378631.3652      -1453.811          42.000  
  21459341.677   112769596.929        2047.820          49.000  
  23644922.031   124254925.659        3100.049          44.000  
  22442939.795   117938435.803       -1905.882          46.000  
  22228469.970   116811386.564        2310.750          49.000  
  22107905.823   116177828.092         179.340          48.000  
  20614330.658   108329041.851        2089.185          49.000  
  22955203.082   120630388.234       -2057.921          45.000  
  21612848.886   113576296.030       -1752.735          48.000  
  23457822.401   123271703.332        3608.196          43.000  
  24222942.240   127292406.402       -2552.449          41.000  
 16  5 20 10 29 19.0000000  0 11G 8G 3G19G11G17G22G28G30G 1G 6G 7
  24810504.630   130380085.3572      -1452.812          41.000  
  21458951.909   112767549.816        2046.647          49.000  
  23644331.742   124251826.174        3099.713          43.000  
  22443302.061   117940341.934       -1906.483          46.000  
  22228030.068   116809076.384        2309.975          49.000  
  22107871.411   116177649.530         178.157          48.000  
  20613933.107   108326953.523        2087.928          48.000  
  22955594.665   120632446.736       -2058.549          45.000  
  21613182.674   113578049.558       -1753.554          47.000  
  23457136.416   123268096.092        3606.768          44.000  
  24223427.967   127294959.192       -2552.627          41.000  
