     3.00           OBSERVATION DATA    M: Mixed            RINEX VERSION / TYPE
RTKCONV 2.4.3 b9                        20160520 111615 UTC PGM / RUN BY / DATE 
log: C:\Users\½ðÇï\Desktop\moving2\COM10_160520_102247.ubx  COMMENT             
format: u-blox                                              COMMENT             
                                                            MARKER NAME         
                                                            MARKER NUMBER       
                                                            MARKER TYPE         
                                                            OBSERVER / AGENCY   
                                                            REC # / TYPE / VERS 
                                                            ANT # / TYPE        
 -2743147.0714  4692344.2697  3326185.3411                  APPROX POSITION XYZ 
        0.0000        0.0000        0.0000                  ANTENNA: DELTA H/E/N
G    4 C1C L1C D1C S1C                                      SYS / # / OBS TYPES 
R    4 C1C L1C D1C S1C                                      SYS / # / OBS TYPES 
E    4 C1C L1C D1C S1C                                      SYS / # / OBS TYPES 
J    4 C1C L1C D1C S1C                                      SYS / # / OBS TYPES 
S    4 C1C L1C D1C S1C                                      SYS / # / OBS TYPES 
  2016     5    20    10    18   53.9990000     GPS         TIME OF FIRST OBS   
  2016     5    20    10    34   27.0000000     GPS         TIME OF LAST OBS    
                                                            END OF HEADER       
> 2016  5 20 10 18 53.9990000  0 21                     
G 1  21140846.672   111095896.442       -1646.539          49.000  
G 8  24367714.691   128053244.9652      -1460.540          40.000  
R 8  23899334.405   127979877.637       -1269.709          43.000  
R 2  22392761.711   119492066.183        4277.814          49.000  
G17  22233588.712   116838292.821        2305.582          49.000  
G22  21877664.003   114967921.101         484.102          49.000  
R15  19948866.761   106600679.453        1013.344          50.000  
G28  20607541.825   108293367.928        2320.239          49.000  
G19  23745360.947   124782724.100        3114.027          41.000  
J 1  37165899.091   195308146.069         499.279          46.000  
G 3  21452491.245   112733655.406        2361.288          49.000  
R16  23349689.486                        4344.252          25.000  
R 1  21879357.473   116957727.507        1558.353          49.000  
R24  21308075.600   113943865.045       -1128.177          45.000  
R14  20158866.922   107458134.071       -2315.306          42.000  
G11  21947944.528   115337220.783       -1881.370          48.000  
R17  20333327.944   108807795.562        1083.240          51.000  
G 7  23650009.851   124281648.327       -2586.890          42.000  
R18  22840192.087   121922523.8032       2791.845          47.000  
G30  22451480.211   117983304.015       -1914.628          46.000  
R13  24077895.226   128574776.3502      -3707.987          28.000  
> 1980  1 11 10 22 32.0000000  0  9                     
G 1  21480450.769   112880529.2843      -1625.249          48.000  
G 3  21626988.676   113650590.7503       2325.543          48.000  
G 7  24027184.023   126263704.4253      -2495.625          43.000  
G11  22296683.657   117169860.9983      -1830.891          47.000  
G17  22408178.804   117755774.6833       2377.611          47.000  
G19  23886467.124   125524229.7493       3183.362          45.000  
G22  22130185.458   116294910.0693        441.804          50.000  
G28  20783141.324   109216144.0783       2313.574          49.000  
J 1  37415540.231   196619989.9323        565.576          47.000  
> 1980  1 11 10 22 33.0000000  0  9                     
G 1  21480759.952   112882155.1732      -1626.880          48.000  
G 3  21626546.225   113648265.9872       2323.658          48.000  
G 7  24027658.407   126266200.7402      -2496.985          43.000  
G11  22297031.684   117171692.5142      -1832.249          47.000  
G17  22407727.070   117753397.7872       2376.188          48.000  
G19  23885861.009   125521047.0372       3182.074          45.000  
G22  22130101.487   116294469.0912        439.968          50.000  
G28  20782701.404   109213831.1712       2311.963          49.000  
J 1  37415433.086   196619425.0022        564.126          47.000  
> 1980  1 11 10 22 34.0000000  0 10                     
G 1  21481069.676   112883782.4572      -1627.994          48.000  
G 3  21626104.526   113645942.8902       2322.222          48.000  
G 7  24028133.820   126268698.1242      -2498.030          43.000  
G11  22297380.409   117173525.3052      -1833.479          47.000  
G17  22407274.848   117751022.0422       2375.078          48.000  
G19  23885255.975   125517865.5092       3180.896          45.000  
G22  22130017.726   116294029.8042        438.395          50.000  
G28  20782261.362   109211519.8132       2310.425          49.000  
J 1  37415325.750   196618861.2732        563.016          47.000  
G30  22802782.724   119829430.4143      -1889.048          45.000  
> 2016  5 20 10 22 39.0000000  0 10                     
G 1  21482622.553   112891944.3092      -1635.058          48.000  
G 3  21623899.516   113634357.1282       2313.932          48.000  
G 7  24030514.641   126281205.6592      -2503.240          42.000  
G11  22299128.676   117182712.7522      -1839.810          48.000  
G17  22405018.238   117739165.5602       2369.231          47.000  
G19  23882232.812   125501980.2102       3175.104          44.000  
G22  22129606.477   116291863.3872        429.782          50.000  
G28  20780067.120   109199990.7042       2302.747          49.000  
J 1  37414793.623   196616065.1512        557.118          47.000  
G30  22804584.005   119838896.7842      -1895.657          45.000  
> 2016  5 20 10 22 40.0000000  0 10                     
G 1  21482933.917   112893580.1782      -1636.034          48.000  
G 3  21623459.439   113632044.3242       2312.412          48.000  
G 7  24030990.962   126283709.6912      -2504.057          42.000  
G11  22299478.972   117184553.3582      -1840.910          48.000  
G17  22404567.412   117736797.0942       2368.271          47.000  
G19  23881628.511   125498806.0382       3173.944          44.000  
G22  22129524.845   116291434.5042        428.394          51.000  
G28  20779629.189   109197688.8242       2301.544          49.000  
J 1  37414687.666   196615508.8392        556.097          47.000  
G30  22804945.155   119840793.4562      -1896.911          46.000  
> 2016  5 20 10 22 41.0000000  0 10                     
G 1  21483245.509   112895217.4582      -1638.108          48.000  
G 3  21623019.362   113629733.1932       2310.094          48.000  
G 7  24031467.789   126286214.8152      -2505.991          42.000  
G11  22299829.425   117186395.2252      -1842.694          48.000  
G17  22404116.812   117734429.8092       2366.517          47.000  
G19  23881024.384   125495633.0362       3172.180          44.000  
G22  22129443.736   116291007.3242        426.027          51.000  
G28  20779191.485   109195388.4932       2299.359          49.000  
J 1  37414582.388   196614953.7292        554.230          47.000  
G30  22805306.636   119842691.4822      -1898.948          46.000  
> 2016  5 20 10 22 42.0000000  0 10                     
G 1  21483557.571   112896856.5972      -1640.085          48.000  
G 3  21622580.035   113627424.2152       2307.682          48.000  
G 7  24031944.669   126288721.4702      -2507.741          42.000  
G11  22300180.384   117188238.8392      -1844.697          48.000  
G17  22403666.893   117732064.1822       2364.291          48.000  
G19  23880420.711   125492461.7102       3170.215          44.000  
G22  22129363.047   116290582.3162        423.725          51.000  
G28  20778754.026   109193090.1862       2297.058          49.000  
J 1  37414476.657   196614400.2872        552.462          47.000  
G30  22805668.379   119844591.3552      -1900.981          46.000  
> 2016  5 20 10 22 43.0000000  0 10                     
G 1  21483869.720   112898497.0352      -1640.737          48.000  
G 3  21622141.040   113625116.8012       2306.850          48.000  
G 7  24032421.967   126291229.0652      -2507.633          42.000  
G11  22300531.028   117190083.6122      -1845.124          48.000  
G17  22403217.288   117729699.5962       2364.443          47.000  
G19  23879817.335   125489291.4472       3170.013          44.000  
G22  22129282.619   116290158.8992        422.923          51.000  
G28  20778317.037   109190793.3092       2296.405          49.000  
J 1  37414371.363   196613847.9532        552.012          47.000  
G30  22806030.210   119846492.4732      -1901.382          46.000  
> 2016  5 20 10 22 44.0000000  0 10                     
G 1  21484182.236   112900137.9312      -1641.160          48.000  
G 3  21621702.377   113622810.1302       2306.256          48.000  
G 7  24032899.457   126293736.8432      -2507.907          42.000  
G11  22300882.074   117191928.7112      -1845.304          48.000  
G17  22402767.736   117727335.2692       2364.114          47.000  
G19  23879213.889   125486121.4532       3169.824          44.000  
G22  22129202.330   116289736.2492        422.234          51.000  
G28  20777880.189   109188497.0522       2295.874          49.000  
J 1  37414266.225   196613295.8752        551.874          47.000  
G30  22806391.813   119848394.0192      -1901.841          45.000  
> 2016  5 20 10 22 45.0000000  0 10                     
G 1  21484494.700   112901779.7422      -1642.345          48.000  
G 3  21621264.184   113620504.6662       2304.529          49.000  
G 7  24033377.192   126296245.2202      -2509.051          43.000  
G11  22301233.504   117193774.6052      -1846.514          48.000  
G17  22402318.218   117724971.6282       2363.042          47.000  
G19  23878610.600   125482952.1772       3168.713          45.000  
G22  22129121.972   116289314.8252        420.514          51.000  
G28  20777443.322   109186201.8522       2294.482          49.000  
J 1  37414161.140   196612744.5192        550.764          47.000  
G30  22806753.696   119850296.4522      -1903.047          45.000  
> 2016  5 20 10 22 46.0000000  0 10                     
G 1  21484807.390   112903422.5492      -1643.496          48.000  
G 3  21620826.428   113618200.4772       2303.352          49.000  
G 7  24033854.944   126298754.2732      -2509.584          43.000  
G11  22301585.074   117195621.3602      -1847.359          48.000  
G17  22401868.544   117722608.7652       2362.343          48.000  
G19  23878007.730   125479783.6792       3167.834          44.000  
G22  22129042.120   116288894.6922        419.261          51.000  
G28  20777006.753   109183907.8032       2293.237          49.000  
J 1  37414056.352   196612193.9692        549.896          47.000  
G30  22807115.858   119852199.8422      -1904.106          45.000  
> 2016  5 20 10 22 47.0000000  0 10                     
G 1  21485120.395   112905066.8942      -1645.112          48.000  
G 3  21620388.916   113615898.1162       2301.436          49.000  
G 7  24034332.871   126301264.5412      -2510.883          43.000  
G11  22301936.696   117197469.5202      -1848.771          48.000  
G17  22401419.445   117720247.2212       2360.872          48.000  
G19  23877405.069   125476616.5112       3166.534          44.000  
G22  22128962.372   116288476.4042        417.355          51.000  
G28  20776570.619   109181615.4432       2291.449          49.000  
J 1  37413951.685   196611644.7632        548.444          47.000  
G30  22807478.386   119854104.7502      -1905.638          45.000  
> 2016  5 20 10 22 48.0000000  0 10                     
G 1  21485433.452   112906712.4492      -1645.985          48.000  
G 3  21619951.649   113613597.2392       2300.277          49.000  
G 7  24034811.094   126303775.6832      -2511.205          43.000  
G11  22302288.422   117199318.7622      -1849.560          48.000  
G17  22400970.974   117717886.6742       2360.140          48.000  
G19  23876802.548   125473450.3522       3165.778          44.000  
G22  22128882.677   116288059.6272        416.225          51.000  
G28  20776134.451   109179324.4422       2290.497          49.000  
J 1  37413847.315   196611096.5512        547.913          47.000  
G30  22807841.263   119856010.8152      -1906.529          45.000  
> 2016  5 20 10 22 49.0000000  0 11                     
G 1  21485746.840   112908358.204       -1645.953          48.000  
G 3  21619514.241   113611296.851        2299.880          50.000  
G 7  24035289.439   126306286.710       -2511.156          44.000  
G11  22302640.323   117201167.5721      -1849.628          48.000  
G17  22400522.312   117715526.093        2360.296          48.000  
G19  23876200.097   125470283.6671       3165.918          44.000  
G22  22128803.505   116287643.352         415.770          51.000  
G28  20775698.667   109177033.2771       2290.155          49.000  
J 1  37413742.911   196610547.8521        547.965          47.000  
G30  22808204.036   119857917.041       -1906.419          45.000  
G 8  24703183.488   129816103.2953      -1410.215          38.000  
> 2016  5 20 10 22 50.0000000  0 11                     
G 1  21486059.723   112910004.304       -1646.927          48.000  
G 3  21619077.009   113608997.085        2299.025          50.000  
G 7  24035767.680   126308797.756       -2511.727          44.000  
G11  22302992.172   117203017.098       -1850.182          48.000  
G17  22400073.597   117713165.640        2359.872          48.000  
G19  23875597.454   125467117.635        3165.460          44.000  
G22  22128724.299   116287227.731         414.750          50.000  
G28  20775262.673   109174743.115        2289.343          49.000  
J 1  37413638.366   196609999.807         547.423          47.000  
G30  22808567.087   119859823.585       -1907.207          45.000  
G 8  24703451.262   129817513.3882      -1410.569          38.000  
> 2016  5 20 10 22 51.0000000  0 11                     
G 1  21486373.163   112911651.943       -1648.898          48.000  
G 3  21618640.003   113606699.140        2296.591          50.000  
G 7  24036245.938   126311310.007       -2513.420          44.000  
G11  22303344.649   117204868.029       -1852.102          48.000  
G17  22399624.917   117710806.509        2358.031          48.000  
G19  23874995.072   125463952.928        3163.489          44.000  
G22  22128645.633   116286813.944         412.361          50.000  
G28  20774827.081   109172454.646        2287.091          49.000  
J 1  37413534.136   196609453.099         545.450          46.000  
G30  22808930.174   119861731.623       -1909.252          45.000  
G 8  24703718.826   129818924.8232      -1412.644          38.000  
> 2016  5 20 10 22 52.0000000  0 11                     
G 1  21486686.796   112913301.060       -1649.886          48.000  
G 3  21618203.084   113604402.962        2295.264          50.000  
G 7  24036724.563   126313823.418       -2513.965          44.000  
G11  22303697.056   117206720.324       -1852.956          48.000  
G17  22399176.411   117708448.650        2357.149          48.000  
G19  23874393.179   125460789.510        3162.769          44.000  
G22  22128566.985   116286401.950         411.134          50.000  
G28  20774391.768   109170167.805        2286.078          49.000  
J 1  37413430.587   196608907.686         544.827          46.000  
G30  22809293.069   119863641.118       -1910.069          45.000  
G 8  24703987.053   129820337.5402      -1413.671          38.000  
> 2016  5 20 10 22 53.0000000  0 11                     
G 1  21487000.708   112914950.965       -1650.190          48.000  
G 3  21617766.183   113602107.859        2294.525          50.000  
G 7  24037203.117   126316337.296       -2513.972          44.000  
G11  22304049.463   117208573.267       -1853.179          48.000  
G17  22398727.679   117706091.340        2357.141          48.000  
G19  23873791.304   125457626.660        3162.714          44.000  
G22  22128488.913   116285991.044         410.467          51.000  
G28  20773956.699   109167881.899        2285.675          49.000  
J 1  37413326.967   196608362.869         544.495          47.000  
G30  22809656.190   119865551.363       -1910.541          45.000  
G 8  24704255.193   129821750.8352      -1413.512          37.000  
> 2016  5 20 10 22 54.0000000  0 11                     
G 1  21487314.760   112916601.572       -1651.022          48.000  
G 3  21617329.055   113599813.729        2293.552          50.000  
G 7  24037681.428   126318851.553       -2514.489          44.000  
G11  22304402.080   117210426.794       -1853.918          48.000  
G17  22398278.859   117703734.510        2356.653          48.000  
G19  23873189.446   125454464.304        3162.170          44.000  
G22  22128410.875   116285581.139         409.467          51.000  
G28  20773521.717   109165596.857        2284.552          49.000  
J 1  37413223.296   196607818.554         543.922          46.000  
G30  22810019.888   119867462.280       -1911.252          45.000  
G 8  24704523.455   129823164.6272      -1413.843          37.000  
> 2016  5 20 10 22 55.0000000  0 11                     
G 1  21487628.707   112918252.966       -1651.713          48.000  
G 3  21616892.468   113597520.665        2292.638          50.000  
G 7  24038159.913   126321366.251       -2514.595          44.000  
G11  22304754.766   117212280.944       -1854.330          48.000  
G17  22397830.371   117701378.244        2356.328          48.000  
G19  23872587.849   125451302.515        3161.798          43.000  
G22  22128333.292   116285172.308         408.577          51.000  
G28  20773087.294   109163312.720        2283.990          49.000  
J 1  37413119.868   196607274.820         543.616          46.000  
G30  22810384.109   119869373.922       -1911.666          45.000  
G 8  24704791.438   129824579.0092      -1414.274          37.000  
> 2016  5 20 10 22 56.0000000  0 11                     
G 1  21487943.125   112919905.122       -1652.407          48.000  
G 3  21616456.108   113595228.647        2291.894          50.000  
G 7  24038638.398   126323881.415       -2515.118          44.000  
G11  22305107.819   117214135.763       -1855.052          48.000  
G17  22397382.180   117699022.545        2355.562          49.000  
G19  23871986.149   125448141.308        3161.200          43.000  
G22  22128255.848   116284764.575         407.344          51.000  
G28  20772652.976   109161029.538        2282.910          49.000  
J 1  37413016.510   196606731.686         543.031          46.000  
G30  22810748.487   119871286.321       -1912.716          45.000  
G 8  24705059.456   129825993.9522      -1415.039          37.000  
> 2016  5 20 10 22 57.0000000  0 11                     
G 1  21488257.578   112921557.870       -1653.387          48.000  
G 3  21616020.149   113592937.514        2290.488          50.000  
G 7  24039117.075   126326396.842       -2515.704          44.000  
G11  22305461.116   117215991.031       -1855.575          48.000  
G17  22396933.709   117696667.199        2355.063          48.000  
G19  23871384.587   125444980.469        3160.504          43.000  
G22  22128178.631   116284357.717         406.309          51.000  
G28  20772218.622   109158747.065        2282.117          49.000  
J 1  37412913.292   196606188.932         542.498          46.000  
G30  22811112.708   119873199.261       -1913.355          45.000  
G 8  24705327.683   129827409.2672      -1415.486          36.000  
> 2016  5 20 10 22 58.0000000  0 19                     
G 1  21488572.292   112923211.184       -1654.208          48.000  
G 3  21615584.383   113590647.227        2289.324          50.000  
G 7  24039595.577   126328912.511       -2516.290          44.000  
G11  22305814.448   117217846.746       -1856.498          48.000  
G17  22396485.361   117694312.198        2354.295          48.000  
G19  23870782.851   125441819.985        3159.845          43.000  
G22  22128101.466   116283951.735         404.908          51.000  
G28  20771784.321   109156465.329        2280.841          49.000  
J 1  37412810.092   196605646.562         541.545          46.000  
G30  22811476.702   119875112.739       -1914.454          45.000  
R 2  22468007.486   119893592.5921       4285.952          49.000  
R18  22983148.459   122685600.6031       2814.902          47.000  
R15  20177367.957   107821735.5041        851.373          50.000  
R 1  22082209.029   118042083.3161       1430.415          51.000  
R24  21629348.854   115661864.5711      -1071.862          45.000  
R14  20537985.013   109479015.9301      -2403.924          41.000  
R17  20554663.103   109992196.5111       1099.073          52.000  
R 8  24230504.829   129753273.9701      -1366.636          39.000  
G 8  24705595.771   129828824.9612      -1416.373          36.000  
> 2016  5 20 10 22 59.0000000  0 19                     
G 1  21488887.077   112924865.458       -1654.520          48.000  
G 3  21615148.982   113588358.173        2288.634          50.000  
G 7  24040074.359   126331428.811       -2516.587          44.000  
G11  22306167.780   117219703.283       -1856.750          48.000  
G17  22396037.239   117691957.928        2354.322          48.000  
G19  23870181.482   125438660.253        3159.521          43.000  
G22  22128024.510   116283547.005         404.355          51.000  
G28  20771350.317   109154184.694        2280.255          49.000  
J 1  37412706.926   196605104.946         541.527          46.000  
G30  22811840.888   119877027.130       -1914.716          45.000  
R 2  22467204.584   119889306.805        4285.423          49.000  
R18  22982620.608   122682785.675        2814.729          48.000  
R15  20177208.759   107820884.456         850.526          50.000  
R 1  22081940.366   118040653.180        1429.611          50.000  
R24  21629548.781   115662936.420       -1072.206          44.000  
R14  20538436.083   109481420.081       -2404.657          41.000  
R17  20554457.260   109991097.439        1098.791          52.000  
R 8  24230759.847   129754641.244       -1367.775          39.000  
G 8  24705863.911   129830241.4002      -1416.282          35.000  
> 2016  5 20 10 23  0.0000000  0 19                     
G 1  21489201.791   112926520.363       -1655.610          48.000  
G 3  21614713.739   113586070.050        2287.262          50.000  
G 7  24040552.966   126333945.422       -2517.173          43.000  
G11  22306521.409   117221560.330       -1857.666          48.000  
G17  22395589.397   117689604.090        2353.247          48.000  
G19  23869580.113   125435500.960        3158.704          43.000  
G22  22127947.590   116283143.222         402.955          51.000  
G28  20770916.557   109151904.850        2279.108          49.000  
J 1  37412603.883   196604563.781         540.615          46.000  
G30  22812205.074   119878942.122       -1915.562          45.000  
R 2  22466401.839   119885021.627        4284.590          49.000  
R18  22982092.599   122679971.306        2813.825          47.000  
R15  20177049.386   107820034.708         848.680          50.000  
R 1  22081671.545   118039224.196        1428.131          50.000  
R24  21629749.319   115664008.662       -1072.854          44.000  
R14  20538887.241   109483825.199       -2405.948          42.000  
R17  20554251.679   109989998.941        1097.824          52.000  
R 8  24231015.178   129756009.532       -1369.117          39.000  
G 8  24706131.964   129831658.3012      -1417.648          35.000  
> 2016  5 20 10 23  1.0000000  0 19                     
G 1  21489516.541   112928176.049       -1656.067          48.000  
G 3  21614278.496   113583782.983        2286.597          50.000  
G 7  24041031.329   126336462.466       -2517.084          43.000  
G11  22306874.950   117223418.008       -1857.851          48.000  
G17  22395141.380   117687250.789        2353.193          48.000  
G19  23868978.761   125432342.228        3158.405          43.000  
G22  22127871.140   116282740.511         402.335          51.000  
G28  20770482.657   109149625.922        2278.625          49.000  
J 1  37412501.153   196604023.195         540.313          46.000  
G30  22812569.085   119880857.867       -1915.965          45.000  
R 2  22465598.955   119880737.209        4283.998          49.000  
R18  22981564.695   122677157.621        2813.443          47.000  
R15  20176890.048   107819186.370         847.739          49.000  
R 1  22081403.597   118037796.515        1427.049          50.000  
R24  21629949.473   115665081.442       -1073.011          44.000  
R14  20539338.591   109486231.422       -2406.500          42.000  
R17  20554046.604   109988901.154        1097.477          52.000  
R 8  24231270.876   129757378.979       -1369.890          39.000  
G 8  24706400.331   129833075.7192      -1417.315          35.000  
> 2016  5 20 10 23  2.0000000  0 19                     
G 1  21489831.605   112929832.045       -1656.090          47.000  
G 3  21613843.409   113581496.522        2286.163          50.000  
G 7  24041509.587   126338979.526       -2517.154          43.000  
G11  22307228.753   117225275.883       -1857.938          48.000  
G17  22394693.590   117684897.598        2353.027          48.000  
G19  23868377.880   125429183.607        3158.411          43.000  
G22  22127794.726   116282338.432         401.741          51.000  
G28  20770049.176   109147347.470        2278.156          49.000  
J 1  37412398.127   196603482.730         540.360          46.000  
G30  22812933.516   119882773.891       -1916.337          45.000  
R 2  22464796.088   119876453.072        4284.048          49.000  
R18  22981036.826   122674344.167        2813.313          47.000  
R15  20176730.919   107818339.004         846.857          49.000  
R 1  22081135.806   118036369.668        1426.390          50.000  
R24  21630150.465   115666154.309       -1072.903          44.000  
R14  20539790.220   109488638.316       -2407.309          41.000  
R17  20553841.425   109987803.600        1097.416          52.000  
R 8  24231526.557   129758749.186       -1370.792          39.000  
G 8  24706669.343   129834493.3042      -1417.751          35.000  
> 2016  5 20 10 23  3.0000000  0 19                     
G 1  21490146.790   112931488.670       -1657.026          47.000  
G 3  21613408.428   113579210.969        2285.188          50.000  
G 7  24041987.897   126341496.872       -2517.573          42.000  
G11  22307582.626   117227134.252       -1858.700          48.000  
G17  22394246.062   117682544.790        2352.699          48.000  
G19  23867776.702   125426025.396        3158.002          43.000  
G22  22127718.486   116281937.270         400.757          51.000  
G28  20769615.504   109145069.788        2277.319          49.000  
J 1  37412295.363   196602942.690         539.864          46.000  
G30  22813298.365   119884690.488       -1916.897          45.000  
R 2  22463993.552   119872169.525        4283.283          49.000  
R18  22980509.061   122671531.183        2812.778          47.000  
R15  20176572.087   107817492.902         845.546          49.000  
R 1  22080868.731   118034943.971        1425.135          50.000  
R24  21630350.915   115667227.551       -1073.267          44.000  
R14  20540241.815   109491046.145       -2408.503          42.000  
R17  20553636.611   109986706.566        1096.791          52.000  
R 8  24231782.412   129760120.324       -1371.786          40.000  
G 8  24706938.531   129835911.2762      -1417.980          35.000  
> 2016  5 20 10 23  4.0000000  0 19                     
G 1  21490462.098   112933146.198       -1658.125          47.000  
G 3  21612973.376   113576926.606        2283.602          49.000  
G 7  24042466.522   126344014.811       -2518.308          42.000  
G11  22307936.604   117228993.402       -1859.761          48.000  
G17  22393798.429   117680192.688        2351.594          48.000  
G19  23867175.787   125422867.893        3156.946          43.000  
G22  22127642.752   116281537.327         399.167          51.000  
G28  20769182.302   109142793.172        2275.958          49.000  
J 1  37412192.895   196602403.368         538.787          46.000  
G30  22813663.563   119886607.951       -1917.944          45.000  
R 2  22463191.191   119867886.851        4282.095          49.000  
R18  22979981.594   122668718.975        2811.554          47.000  
R15  20176414.041   107816648.366         843.575          49.000  
R 1  22080602.685   118033519.717        1423.354          50.000  
R24  21630551.750   115668301.472       -1074.474          45.000  
R14  20540693.845   109493455.211       -2410.081          42.000  
R17  20553432.060   109985610.379        1095.531          52.000  
R 8  24232038.511   129761492.768       -1373.363          39.000  
G 8  24707207.979   129837329.9912      -1419.457          36.000  
> 2016  5 20 10 23  5.0000000  0 19                     
G 1  21490777.372   112934804.386       -1658.688          47.000  
G 3  21612538.307   113574643.168        2283.089          49.000  
G 7  24042945.077   126346533.084       -2518.508          42.000  
G11  22308290.634   117230853.068       -1859.938          48.000  
G17  22393351.005   117677841.020        2351.261          48.000  
G19  23866574.958   125419710.834        3156.842          43.000  
G22  22127567.000   116281138.332         398.467          51.000  
G28  20768749.292   109140517.368        2275.366          49.000  
J 1  37412090.462   196601864.503         538.618          46.000  
G30  22814028.831   119888526.048       -1918.399          45.000  
R 2  22462389.249   119863604.817        4281.613          49.000  
R18  22979454.650   122665907.297        2811.247          47.000  
R15  20176255.872   107815805.130         842.576          49.000  
R 1  22080336.918   118032096.646        1422.502          50.000  
R24  21630752.968   115669375.765       -1074.687          45.000  
R14  20541146.085   109495865.246       -2410.440          42.000  
R17  20553227.683   109984514.764        1095.259          52.000  
R 8  24232295.065   129762866.161       -1373.932          37.000  
G 8  24707477.672   129838749.1312      -1419.496          36.000  
> 2016  5 20 10 23  6.0000000  0 19                     
G 1  21491092.854   112936463.119       -1659.111          47.000  
G 3  21612103.588   113572360.578        2282.211          49.000  
G 7  24043424.015   126349051.580       -2518.850          41.000  
G11  22308644.525   117232713.159       -1860.522          48.000  
G17  22392903.843   117675489.674        2351.068          48.000  
G19  23865974.060   125416554.127        3156.415          43.000  
G22  22127491.336   116280740.200         397.590          51.000  
G28  20768316.562   109138242.260        2274.548          49.000  
J 1  37411987.995   196601325.994         538.258          47.000  
G30  22814393.733   119890444.658       -1919.059          45.000  
R 2  22461587.115   119859323.333        4281.104          49.000  
R18  22978927.950   122663096.085        2810.925          47.000  
R15  20176098.471   107814963.104         841.318          50.000  
R 1  22080071.535   118030674.665        1421.326          51.000  
R24  21630954.187   115670450.391       -1074.920          45.000  
R14  20541598.377   109498276.191       -2411.635          42.000  
R17  20553023.027   109983419.636        1094.750          52.000  
R 8  24232551.600   129764240.544       -1375.070          38.000  
G 8  24707747.540   129840168.6262      -1419.958          36.000  
> 2016  5 20 10 23  7.0000000  0 19                     
G 1  21491408.703   112938122.580       -1659.728          47.000  
G 3  21611669.269   113570079.008        2281.031          49.000  
G 7  24043903.024   126351570.461       -2519.168          41.000  
G11  22308998.520   117234573.831       -1860.880          48.000  
G17  22392456.489   117673138.866        2350.633          48.000  
G19  23865373.389   125413397.940        3155.823          43.000  
G22  22127415.620   116280343.095         396.587          51.000  
G28  20767883.674   109135968.027        2273.828          48.000  
J 1  37411885.475   196600788.015         537.822          46.000  
G30  22814758.844   119892363.953       -1919.482          45.000  
R 2  22460784.981   119855042.541        4280.558          49.000  
R18  22978401.721   122660285.529        2810.317          47.000  
R15  20175941.227   107814122.454         840.061          50.000  
R 1  22079806.065   118029253.952        1420.159          51.000  
R24  21631155.109   115671525.499       -1074.995          45.000  
R14  20542050.931   109500688.180       -2412.594          42.000  
R17  20552818.283   109982325.159        1094.237          52.000  
R 8  24232808.328   129765616.079       -1376.246          38.000  
G 8  24708017.757   129841588.636       -1420.255          36.000  
> 2016  5 20 10 23  8.0000000  0 19                     
G 1  21491724.953   112939782.768       -1660.853          47.000  
G 3  21611234.741   113567798.439        2279.852          49.000  
G 7  24044381.875   126354089.757       -2519.563          41.000  
G11  22309352.340   117236435.123       -1861.799          48.000  
G17  22392009.136   117670788.561        2349.949          48.000  
G19  23864772.839   125410242.275        3155.139          43.000  
G22  22127340.305   116279947.021         395.355          51.000  
G28  20767450.856   109133694.676        2272.736          48.000  
J 1  37411783.199   196600250.576         536.998          46.000  
G30  22815124.146   119894283.945       -1920.577          45.000  
R 2  22459982.916   119850762.469        4279.513          48.000  
R18  22977875.370   122657475.587        2809.265          47.000  
R15  20175784.228   107813283.184         838.356          50.000  
R 1  22079541.188   118027834.495        1418.652          51.000  
R24  21631356.257   115672601.119       -1076.003          45.000  
R14  20542503.555   109503101.235       -2413.916          42.000  
R17  20552614.116   109981231.311        1093.325          52.000  
R 8  24233065.579   129766992.705       -1377.497          38.000  
G 8  24708288.095   129843009.199       -1420.712          36.000  
> 2016  5 20 10 23  9.0000000  0 19                     
G 1  21492040.802   112941443.574       -1661.154          47.000  
G 3  21610800.545   113565518.777        2279.206          49.000  
G 7  24044860.849   126356609.357       -2519.642          41.000  
G11  22309706.807   117238296.892       -1861.986          48.000  
G17  22391561.764   117668438.659        2349.734          48.000  
G19  23864172.412   125407087.030        3154.986          43.000  
G22  22127264.989   116279551.867         394.686          51.000  
G28  20767018.719   109131422.102        2272.168          48.000  
J 1  37411681.063   196599713.564         536.754          46.000  
G30  22815489.903   119896204.520       -1920.886          46.000  
R 2  22459180.904   119846482.981        4279.194          48.000  
R18  22977349.054   122654666.129        2809.182          47.000  
R15  20175627.298   107812445.187         837.437          50.000  
R 1  22079276.642   118026416.174        1417.797          51.000  
R24  21631557.371   115673677.103       -1076.239          45.000  
R14  20542956.458   109505515.239       -2414.498          42.000  
R17  20552410.070   109980137.995        1093.010          52.000  
R 8  24233322.743   129768370.309       -1377.853          38.000  
G 8  24708558.504   129844430.174       -1421.070          36.000  
> 2016  5 20 10 23 10.0000000  0 19                     
G 1  21492357.105   112943104.984       -1661.537          47.000  
G 3  21610366.785   113563240.016        2278.411          49.000  
G 7  24045340.259   126359129.242       -2520.123          41.000  
G11  22310060.959   117240159.155       -1862.393          48.000  
G17  22391114.393   117666089.156        2349.413          48.000  
G19  23863572.090   125403932.176        3154.865          43.000  
G22  22127189.866   116279157.640         393.847          51.000  
G28  20766586.460   109129150.291        2271.582          48.000  
J 1  37411578.857   196599176.961         536.618          46.000  
G30  22815855.799   119898125.668       -1921.382          46.000  
R 2  22458379.032   119842204.077        4278.698          48.000  
R18  22976822.633   122651857.167        2808.796          47.000  
R15  20175471.136   107811608.465         836.156          50.000  
R 1  22079012.289   118024998.987        1416.774          51.000  
R24  21631758.851   115674753.458       -1076.569          45.000  
R14  20543409.326   109507930.193       -2415.159          42.000  
R17  20552206.130   109979045.207        1092.640          52.000  
R 8  24233580.029   129769748.876       -1378.737          38.000  
G 8  24708829.157   129845851.551       -1421.247          36.000  
> 2016  5 20 10 23 11.0000000  0 19                     
G 1  21492673.338   112944766.879       -1662.123          47.000  
G 3  21609933.217   113560962.004        2277.634          49.000  
G 7  24045819.895   126361649.263       -2520.147          41.000  
G11  22310415.111   117242021.755       -1862.881          48.000  
G17  22390667.057   117663739.884        2349.288          48.000  
G19  23862971.733   125400777.607        3154.388          43.000  
G22  22127114.778   116278764.177         393.047          51.000  
G28  20766154.270   109126879.107        2270.844          49.000  
J 1  37411476.913   196598640.652         536.092          46.000  
G30  22816221.940   119900047.252       -1921.908          46.000  
R 2  22457576.793   119837925.622        4278.087          48.000  
R18  22976296.544   122649048.570        2808.437          47.000  
R15  20175315.026   107810772.852         835.123          50.000  
R 1  22078748.302   118023582.789        1415.595          51.000  
R24  21631960.140   115675830.029       -1076.598          45.000  
R14  20543862.298   109510345.953       -2416.177          42.000  
R17  20552002.311   109977952.814        1092.217          52.000  
R 8  24233837.507   129771128.294       -1379.598          39.000  
G 8  24709099.810   129847273.241       -1421.922          37.000  
> 2016  5 20 10 23 12.0000000  0 19                     
G 1  21492990.042   112946429.330       -1662.764          47.000  
G 3  21609499.753   113558684.862        2276.495          49.000  
G 7  24046299.741   126364169.536       -2520.530          41.000  
G11  22310769.333   117243884.798       -1863.410          48.000  
G17  22390219.930   117661390.981        2348.584          48.000  
G19  23862371.410   125397623.388        3153.979          43.000  
G22  22127039.602   116278371.598         392.091          51.000  
G28  20765722.447   109124608.644        2269.977          49.000  
J 1  37411375.143   196598104.714         535.674          46.000  
G30  22816588.377   119901969.355       -1922.587          46.000  
R 2  22456774.816   119833647.704        4277.461          48.000  
R18  22975770.717   122646240.444        2807.642          47.000  
R15  20175159.161   107809938.475         833.586          50.000  
R 1  22078483.949   118022167.668        1414.443          50.000  
R24  21632161.393   115676906.945       -1077.290          45.000  
R14  20544315.795   109512762.625       -2417.245          42.000  
R17  20551798.231   109976860.924        1091.526          52.000  
R 8  24234095.002   129772508.718       -1380.975          39.000  
G 8  24709370.480   129848695.276       -1422.353          37.000  
> 2016  5 20 10 23 13.0000000  0 19                     
G 1  21493306.624   112948092.432       -1663.463          47.000  
G 3  21609066.779   113556408.638        2275.694          49.000  
G 7  24046779.657   126366690.140       -2520.925          41.000  
G11  22311124.113   117245748.352       -1863.896          48.000  
G17  22389772.646   117659042.496        2348.107          48.000  
G19  23861771.070   125394469.608        3153.338          43.000  
G22  22126964.828   116277979.962         391.080          51.000  
G28  20765290.502   109122338.966        2269.116          49.000  
J 1  37411273.129   196597569.223         535.190          46.000  
G30  22816954.360   119903892.071       -1923.090          46.000  
R 2  22455972.979   119829370.406        4276.957          48.000  
R18  22975244.767   122643432.859        2807.271          47.000  
R15  20175003.365   107809105.377         832.304          50.000  
R 1  22078219.596   118020753.709        1413.245          50.000  
R24  21632362.891   115677984.245       -1077.651          44.000  
R14  20544769.657   109515180.259       -2418.265          42.000  
R17  20551593.889   109975769.594        1090.890          52.000  
R 8  24234352.864   129773890.163       -1381.601          39.000  
G 8  24709641.569   129850117.763       -1422.902          37.000  
> 2016  5 20 10 23 14.0000000  0 19                     
G 1  21493623.101   112949756.357       -1664.358          47.000  
G 3  21608633.769   113554133.518        2274.526          49.000  
G 7  24047259.608   126369211.207       -2521.268          42.000  
G11  22311478.562   117247612.603       -1864.614          48.000  
G17  22389325.606   117656694.595        2347.555          48.000  
G19  23861171.149   125391316.434        3152.881          43.000  
G22  22126890.002   116277589.453         389.901          51.000  
G28  20764858.923   109120070.272        2268.091          49.000  
J 1  37411171.359   196597034.369         534.374          47.000  
G30  22817320.274   119905815.576       -1923.845          46.000  
R 2  22455171.054   119825093.901        4276.180          48.000  
R18  22974719.201   122640625.996        2806.449          48.000  
R15  20174848.058   107808273.763         830.825          50.000  
R 1  22077955.766   118019341.075        1412.020          50.000  
R24  21632564.022   115679062.115       -1078.153          44.000  
R14  20545223.660   109517599.037       -2419.205          42.000  
R17  20551390.192   109974679.018        1090.150          52.000  
R 8  24234611.215   129775272.856       -1383.333          39.000  
G 8  24709912.693   129851540.868       -1423.350          37.000  
> 2016  5 20 10 23 15.0000000  0 19                     
G 1  21493939.717   112951420.830       -1664.698          47.000  
G 3  21608200.969   113551859.228        2273.808          49.000  
G 7  24047739.611   126371732.533       -2521.589          42.000  
G11  22311833.447   117249477.270       -1864.923          48.000  
G17  22388878.410   117654347.020        2347.338          48.000  
G19  23860571.246   125388163.602        3152.740          42.000  
G22  22126815.646   116277199.794         389.208          50.000  
G28  20764427.536   109117802.267        2267.590          49.000  
J 1  37411069.729   196596499.846         534.302          46.000  
G30  22817686.048   119907739.591       -1924.409          46.000  
R 2  22454369.530   119820817.914        4275.666          48.000  
R18  22974193.391   122637819.539        2806.159          47.000  
R15  20174692.804   107807443.343         829.819          50.000  
R 1  22077691.587   118017929.513        1410.961          50.000  
R24  21632765.170   115680140.304       -1078.417          44.000  
R14  20545677.453   109520018.698       -2420.039          42.000  
R17  20551186.409   109973588.912        1089.898          52.000  
R 8  24234869.774   129776656.389       -1384.080          38.000  
G 8  24710183.992   129852964.309       -1423.796          38.000  
> 2016  5 20 10 23 16.0000000  0 19                     
G 1  21494256.334   112953085.690       -1665.103          47.000  
G 3  21607768.500   113549585.618        2273.149          49.000  
G 7  24048219.702   126374253.913       -2521.570          42.000  
G11  22312188.280   117251342.192       -1865.090          48.000  
G17  22388431.701   117651999.615        2347.219          48.000  
G19  23859971.045   125385010.958        3152.130          42.000  
G22  22126741.204   116276810.830         388.498          50.000  
G28  20763996.097   109115534.810        2267.041          49.000  
J 1  37410967.803   196595965.534         534.038          46.000  
G30  22818052.031   119909663.957       -1924.704          46.000  
R 2  22453568.269   119816542.314        4275.269          48.000  
R18  22973667.529   122635013.362        2805.892          47.000  
R15  20174537.828   107806613.967         828.667          50.000  
R 1  22077427.303   118016518.869        1410.064          50.000  
R24  21632966.825   115681218.621       -1078.478          44.000  
R14  20546131.507   109522439.068       -2420.712          42.000  
R17  20550982.660   109972499.105        1089.534          52.000  
R 8  24235128.544   129778040.680       -1384.883          39.000  
G 8  24710455.430   129854387.944       -1423.796          38.000  
> 2016  5 20 10 23 17.0000000  0 19                     
G 1  21494573.195   112954751.091       -1665.764          47.000  
G 3  21607336.083   113547312.821        2272.217          49.000  
G 7  24048700.019   126376775.499       -2521.699          43.000  
G11  22312543.043   117253207.524       -1865.533          48.000  
G17  22387985.115   117649652.524        2346.912          48.000  
G19  23859371.351   125381858.625        3152.155          42.000  
G22  22126667.093   116276422.712         387.582          50.000  
G28  20763564.833   109113268.036        2266.425          49.000  
J 1  37410866.155   196595431.552         533.775          46.000  
G30  22818418.573   119911588.815       -1925.197          47.000  
R 2  22452767.199   119812267.237        4274.738          48.000  
R18  22973142.051   122632207.614        2805.639          48.000  
R15  20174383.097   107805785.767         827.727          50.000  
R 1  22077162.828   118015109.279        1408.901          49.000  
R24  21633168.515   115682297.236       -1078.976          44.000  
R14  20546585.492   109524860.297       -2421.626          41.000  
R17  20550778.824   109971409.709        1089.128          52.000  
R 8  24235387.557   129779425.867       -1385.758          39.000  
G 8  24710726.728   129855811.896       -1424.126          38.000  
> 2016  5 20 10 23 18.0000000  0 19                     
G 1  21494890.388   112956416.905       -1666.191          47.000  
G 3  21606903.807   113545040.752        2271.448          49.000  
G 7  24049180.354   126379297.201       -2521.904          43.000  
G11  22312897.806   117255073.154       -1865.977          47.000  
G17  22387538.442   117647305.651        2346.535          48.000  
G19  23858771.570   125378706.524        3152.045          43.000  
G22  22126593.191   116276035.330         386.691          50.000  
G28  20763133.516   109111001.847        2265.698          49.000  
J 1  37410764.752   196594897.820         533.318          46.000  
G30  22818785.272   119913514.077       -1925.673          47.000  
R 2  22451966.094   119807992.573        4274.208          48.000  
R18  22972616.502   122629402.207        2804.983          48.000  
R15  20174228.558   107804958.662         826.288          50.000  
R 1  22076898.370   118013700.637        1407.892          49.000  
R24  21633370.379   115683376.020       -1079.075          44.000  
R14  20547039.948   109527282.286       -2422.628          41.000  
R17  20550575.250   109970320.659        1088.603          52.000  
R 8  24235646.204   129780811.872       -1386.601          39.000  
G 8  24710998.149   129857236.111       -1424.542          38.000  
> 2016  5 20 10 23 19.0000000  0 19                     
G 1  21495207.476   112958083.256       -1666.218          47.000  
G 3  21606471.652   113542769.519        2270.986          49.000  
G 7  24049660.741   126381819.150       -2521.793          43.000  
G11  22313252.900   117256939.186       -1866.003          47.000  
G17  22387092.275   117644959.095        2346.632          48.000  
G19  23858172.050   125375554.796        3151.587          43.000  
G22  22126519.411   116275648.776         386.456          50.000  
G28  20762702.216   109108736.355        2265.247          49.000  
J 1  37410663.366   196594364.443         533.314          47.000  
G30  22819152.267   119915439.864       -1926.006          47.000  
R 2  22451165.601   119803718.410        4274.166          48.000  
R18  22972091.164   122626597.241        2804.986          48.000  
R15  20174074.281   107804132.768         825.437          50.000  
R 1  22076633.650   118012293.039        1407.368          49.000  
R24  21633572.260   115684455.097       -1078.890          44.000  
R14  20547494.649   109529705.188       -2423.175          41.000  
R17  20550371.623   109969232.105        1088.537          52.000  
R 8  24235905.305   129782198.802       -1387.196          39.000  
G 8  24711269.744   129858660.693       -1424.879          38.000  
> 2016  5 20 10 23 20.0000000  0 19                     
G 1  21495525.087   112959750.201       -1666.984          47.000  
G 3  21606039.532   113540499.189        2269.892          49.000  
G 7  24050141.180   126384341.453       -2522.687          43.000  
G11  22313607.960   117258805.669       -1866.448          47.000  
G17  22386646.108   117642612.954        2345.985          48.000  
G19  23857572.722   125372403.502        3150.891          43.000  
G22  22126445.894   116275263.121         385.407          50.000  
G28  20762271.283   109106471.644        2264.362          49.000  
J 1  37410561.876   196593831.494         532.767          47.000  
G30  22819519.001   119917366.288       -1926.948          47.000  
R 2  22450364.932   119799444.845        4273.325          49.000  
R18  22971566.156   122623792.811        2803.934          48.000  
R15  20173919.480   107803308.164         823.953          50.000  
R 1  22076369.314   118010886.560        1406.089          49.000  
R24  21633774.456   115685534.518       -1079.297          45.000  
R14  20547949.419   109532129.064       -2424.551          41.000  
R17  20550167.944   109968144.116        1087.841          51.000  
R 8  24236164.650   129783586.695       -1388.155          38.000  
G 8  24711541.322   129860085.618       -1425.145          37.000  
> 2016  5 20 10 23 21.0000000  0 19                     
G 1  21495842.542   112961417.806       -1668.036          47.000  
G 3  21605607.639   113538229.774        2268.880          49.000  
G 7  24050621.637   126386864.011       -2522.754          44.000  
G11  22313963.281   117260672.694       -1867.342          47.000  
G17  22386200.325   117640267.222        2345.415          48.000  
G19  23856973.552   125369252.599        3150.525          43.000  
G22  22126373.056   116274878.444         384.210          50.000  
G28  20761840.228   109104207.707        2263.544          49.000  
J 1  37410460.682   196593298.982         532.297          47.000  
G30  22819885.560   119919293.255       -1927.352          47.000  
R 2  22449564.787   119795171.913        4272.391          49.000  
R18  22971041.306   122620988.857        2803.688          48.000  
R15  20173765.813   107802484.834         822.594          50.000  
R 1  22076105.886   118009481.279        1404.625          50.000  
R24  21633976.669   115686614.372       -1080.054          45.000  
R14  20548404.119   109534553.866       -2425.277          41.000  
R17  20549963.637   109967056.693        1087.101          51.000  
R 8  24236423.646   129784975.641       -1389.571          38.000  
G 8  24711812.970   129861511.000       -1425.614          36.000  
> 2016  5 20 10 23 22.0000000  0 19                     
G 1  21496159.856   112963085.135       -1666.926          48.000  
G 3  21605175.904   113535961.154        2267.448          48.000  
G 7  24051102.233   126389387.861       -2525.813          45.000  
G11  22314318.585   117262539.205       -1865.776          47.000  
G17  22385754.070   117637921.699        2345.014          48.000  
G19  23856374.451   125366102.306        3149.316          45.000  
G22  22126300.376   116274493.997         384.381          51.000  
G28  20761409.225   109101944.338        2262.671          48.000  
J 1  37410360.116   196592766.973         531.125          47.000  
G30  22820252.573   119921221.745       -1930.569          47.000  
R 2  22448764.625   119790899.713        4270.851          49.000  
R18  22970516.613   122618185.802        2801.558          49.000  
R15  20173611.850   107801662.933         820.264          50.000  
R 1  22075843.644   118008076.277        1404.759          50.000  
R24  21634178.341   115687693.469       -1078.439          45.000  
R14  20548859.290   109536980.425       -2428.625          41.000  
R17  20549760.726   109965969.358        1087.221          51.000  
R 8  24236682.887   129786364.354       -1388.180          39.000  
G 8  24712085.385   129862935.958       -1425.676          40.000  
> 2016  5 20 10 23 23.0000000  0 19                     
G 1  21496476.805   112964750.780       -1664.841          49.000  
G 3  21604744.569   113533693.277        2266.996          49.000  
G 7  24051583.807   126391915.117       -2529.386          43.000  
G11  22314672.877   117264403.520       -1863.057          46.000  
G17  22385307.240   117635576.178        2345.356          48.000  
G19  23855775.036   125362953.042        3148.779          45.000  
G22  22126227.051   116274108.732         385.903          49.000  
G28  20760978.693   109099681.222        2262.738          49.000  
J 1  37410258.678   196592235.861         529.746          47.000  
G30  22820619.604   119923153.768       -1934.518          46.000  
R 2  22447964.568   119786628.757        4269.897          50.000  
R18  22969991.536   122615384.587        2800.793          49.000  
R15  20173458.742   107800842.943         818.771          50.000  
R 1  22075580.983   118006670.131        1406.240          46.000  
R24  21634379.630   115688770.091       -1075.417          44.000  
R14  20549315.177   109539410.302       -2431.729          41.000  
R17  20549557.623   109964881.557        1087.736          52.000  
R 8  24236941.552   129787750.541       -1385.146          37.000  
G 8  24712356.317   129864359.580       -1422.558          40.000  
> 2016  5 20 10 23 24.0000000  0 19                     
G 1  21496793.788   112966414.511       -1662.538          49.000  
G 3  21604313.287   113531426.111        2267.252          49.000  
G 7  24052066.183   126394446.107       -2532.237          39.000  
G11  22315027.238   117266265.475       -1860.005          45.000  
G17  22384860.811   117633230.611        2345.792          48.000  
G19  23855176.127   125359804.855        3147.485          44.000  
G22  22126153.236   116273722.382         386.674          48.000  
G28  20760547.515   109097418.332        2263.092          49.000  
J 1  37410157.833   196591705.539         529.936          47.000  
G30  22820987.140   119925089.393       -1937.689          45.000  
R 2  22447164.510   119782359.003        4269.281          43.000  
R18  22969466.878   122612585.166        2799.024          47.000  
R15  20173305.686   107800024.814         817.482          50.000  
R 1  22075318.095   118005262.745        1408.044          46.000  
R24  21634580.639   115689843.953       -1072.801          44.000  
R14  20549771.727   109541843.707       -2434.655          41.000  
R17  20549354.659   109963793.135        1088.912          52.000  
R 8  24237199.850   129789134.122       -1383.323          37.000  
G 8  24712625.748   129865781.639       -1421.329          43.000  
> 2016  5 20 10 23 25.0000000  0 19                     
G 1  21497109.916   112968076.655       -1661.188          48.000  
G 3  21603882.040   113529159.480        2266.540          48.000  
G 7  24052547.530   126396979.638       -2535.760          32.000  
G11  22315381.129   117268125.404       -1859.068          47.000  
G17  22384414.504   117630885.021        2345.890          48.000  
G19  23854576.991   125356657.601        3146.735          44.000  
G22  22126080.853   116273335.395         387.684          43.000  
G28  20760117.053   109095155.713        2262.433          48.000  
J 1  37410057.023   196591175.879         529.444          47.000  
G30  22821355.759   119927028.075       -1940.351          46.000  
R 2  22446364.801   119778090.034        4269.434          47.000  
R18  22968942.516   122609787.401        2796.638          45.000  
R15  20173153.066   107799208.477         815.557          50.000  
R 1  22075054.719   118003853.878        1407.909          50.000  
R24  21634781.299   115690915.373       -1070.987          45.000  
R14  20550229.010   109544280.063       -2437.371          41.000  
R17  20549151.556   109962704.287        1089.284          53.000  
R 8  24237457.520   129790515.314       -1381.278          38.000  
G 8  24712895.843   129867202.412       -1419.028          37.000  
> 2016  5 20 10 23 26.0000000  0 19                     
G 1  21497425.678   112969737.500       -1659.548          48.000  
G 3  21603450.897   113526893.386        2264.981          48.000  
G 7  24053026.905   126399515.707       -2537.419          42.000  
G11  22315734.792   117269983.577       -1857.507          47.000  
G17  22383968.232   117628539.586        2345.561          49.000  
G19  23853978.100   125353511.391        3144.684          36.000  
G22  22126006.742   116272947.493         388.081          49.000  
G28  20759686.626   109092893.397        2262.585          49.000  
J 1  37409956.266   196590646.728         528.879          47.000  
G30  22821725.127   119928969.370       -1942.708          46.000  
R 2  22445564.412   119773821.839        4267.822          48.000  
R18  22968418.608   122606991.151        2795.267          46.000  
R15  20173000.447   107798393.883         813.679          50.000  
R 1  22074791.326   118002444.363        1410.345          48.000  
R24  21634981.523   115691984.787       -1068.465          45.000  
R14  20550686.293   109546719.093       -2440.524          41.000  
R17  20548948.331   109961615.288        1089.093          53.000  
R 8  24237715.137   129791894.967       -1379.396          39.000  
G 8  24713166.321   129868621.418       -1415.819          35.000  
> 2016  5 20 10 23 27.0000000  0 19                     
G 1  21497741.544   112971397.405       -1659.497          49.000  
G 3  21603019.720   113524627.971        2266.331          45.000  
G 7  24053508.252   126402054.362       -2538.038          39.000  
G11  22316088.072   117271840.409       -1856.370          47.000  
G17  22383521.978   117626194.316        2346.260          49.000  
G19  23853383.780                        3148.917          23.000  
G22  22125932.386   116272559.367         387.993          48.000  
G28  20759256.269   109090631.622        2261.810          49.000  
J 1  37409855.892   196590118.357         528.441          47.000  
G30  22822094.932   119930913.401       -1944.548          46.000  
R 2  22444763.377   119769554.815        4266.245          46.000  
R18  22967894.788   122604196.394        2794.692          48.000  
R15  20172848.089   107797581.082         812.476          50.000  
R 1  22074527.548   118001034.246        1410.028          48.000  
R24  21635181.380   115693052.563       -1066.469          46.000  
R14  20551144.554   109549160.843       -2442.279          41.000  
R17  20548745.106   109960526.147        1089.361          52.000  
R 8  24237972.475   129793273.041       -1378.864          34.000  
G 8  24713437.323   129870040.018       -1417.975          42.000  
> 2016  5 20 10 23 28.0000000  0 18                     
G 1  21498057.358   112973056.362       -1658.457          49.000  
G 3  21602588.874   113522363.339        2265.008          47.000  
G 7  24053994.206   126404594.717       -2540.876          38.000  
G11  22316441.282   117273696.018       -1854.574          47.000  
G17  22383076.003   117623848.914        2346.152          48.000  
G22  22125858.554   116272170.956         388.533          49.000  
G28  20758825.737   109088370.053        2261.505          49.000  
J 1  37409755.763   196589590.465         527.800          43.000  
G30  22822465.104   119932859.223       -1946.556          46.000  
R 2  22443963.128   119765288.190        4268.249          40.000  
R18  22967371.665   122601402.521        2790.592          38.000  
R15  20172696.097   107796769.564         810.923          50.000  
R 1  22074264.416   117999623.820        1409.969          46.000  
R24  21635380.731   115694118.925       -1065.245          45.000  
R14  20551602.884   109551604.519       -2444.749          41.000  
R17  20548541.305   109959436.669        1089.683          52.000  
R 8  24238229.273   129794650.053       -1377.640          35.000  
G 8  24713708.639   129871457.888       -1416.046          39.000  
> 2016  5 20 10 23 29.0000000  0 19                     
G 1  21498372.875   112974714.484       -1657.445          48.000  
G 3  21602158.342   113520099.268        2263.129          49.000  
G 7  24054479.077   126407136.368       -2542.624          40.000  
G11  22316794.404   117275550.599       -1854.100          47.000  
G17  22382629.487   117621503.395        2346.226          48.000  
G19  23852196.659                        3143.953          31.000  
G22  22125785.002   116271782.353         388.536          47.000  
G28  20758395.642   109086108.693        2261.133          49.000  
J 1  37409655.354   196589062.749         527.471          50.000  
G30  22822836.200   119934806.806       -1948.968          46.000  
R 2  22443164.240   119761022.267        4266.505          48.000  
R18  22966849.886                        2791.693          35.000  
R15  20172544.839   107795959.295         810.137          50.000  
R 1  22074000.185   117998213.064        1411.488          47.000  
R24  21635579.978   115695183.900       -1064.065          45.000  
R14  20552061.301   109554050.055       -2446.194          41.000  
R17  20548337.818   109958346.875        1090.307          52.000  
R 8  24238486.262   129796014.5993      -1376.292          34.000  
G 8  24713974.179   129872874.485       -1415.765          42.000  
> 2016  5 20 10 23 30.0000000  0 19                     
G 1  21498688.358   112976371.988       -1657.108          49.000  
G 3  21601727.252   113517835.908        2263.274          49.000  
G 7  24054962.396   126409680.241       -2545.426          42.000  
G11  22317147.091   117277404.185       -1853.464          47.000  
G17  22382182.866   117619158.047        2345.201          48.000  
G19  23851590.160                        3140.164          31.000  
G22  22125711.589   116271393.723         388.435          48.000  
G28  20757965.232   109083847.817        2260.425          49.000  
J 1  37409554.963   196588535.781         526.911          47.000  
G30  22823207.000   119936756.501       -1950.395          46.000  
R 2  22442366.119   119756757.477        4264.434          50.000  
R18  22966331.091   122595829.0873       2793.021          32.000  
R15  20172393.301   107795150.622         807.562          50.000  
R 1  22073736.861   117996802.274        1411.124          48.000  
R24  21635778.910   115696247.693       -1063.197          45.000  
R14  20552520.556   109556497.898       -2448.643          41.000  
R17  20548134.104   109957257.034        1089.812          52.000  
R 8  24238742.815                       -1374.019          34.000  
G 8  24714245.513   129874290.977       -1416.944          41.000  
> 2016  5 20 10 23 31.0000000  0 18                     
G 1  21499003.858   112978029.149       -1656.685          49.000  
G 3  21601296.232   113515573.676        2261.243          48.000  
G 7  24055446.116   126412226.124       -2547.409          40.000  
G11  22317499.585   117279257.138       -1852.439          47.000  
G17  22381736.733   117616813.058        2344.990          48.000  
G22  22125637.547   116271005.339         388.690          49.000  
G28  20757535.294   109081587.690        2260.059          49.000  
J 1  37409454.363   196588009.707         525.454          47.000  
G30  22823578.323   119938708.432       -1952.766          45.000  
R 2  22441566.602   119752493.700        4264.042          49.000  
R18  22965810.202                        2787.680          32.000  
R15  20172242.444   107794343.718         806.008          50.000  
R 1  22073472.857   117995391.662        1410.492          48.000  
R24  21635977.930   115697310.616       -1062.020          45.000  
R14  20552980.037   109558948.094       -2451.812          41.000  
R17  20547930.251   109956167.423        1089.594          52.000  
R 8  24239000.014   129798765.4792      -1373.555          35.000  
G 8  24714513.740   129875706.911       -1415.829          43.000  
> 2016  5 20 10 23 32.0000000  0 18                     
G 1  21499319.201   112979685.881       -1657.021          49.000  
G 3  21600865.578   113513312.344        2260.294          49.000  
G 7  24055930.656   126414773.917       -2549.707          46.000  
G11  22317852.045   117281109.351       -1852.020          47.000  
G17  22381290.462   117614468.403        2344.270          48.000  
G22  22125563.838   116270617.099         387.869          49.000  
G28  20757105.373   109079328.234        2258.734          49.000  
J 1  37409354.233   196587484.412         524.616          47.000  
G30  22823950.030   119940662.572       -1955.303          45.000  
R 2  22440766.894   119748231.021        4261.139          48.000  
R18  22965285.683   122590248.6252       2787.272          31.000  
R15  20172091.552   107793538.543         804.062          50.000  
R 1  22073209.062   117993981.098        1410.324          48.000  
R24  21636176.566   115698372.592       -1061.855          45.000  
R14  20553440.252   109561400.606       -2453.702          41.000  
R17  20547726.607   109955077.980        1089.175          52.000  
R 8  24239256.497   129800138.5672      -1373.421          35.000  
G 8  24714782.979   129877122.543       -1415.714          42.000  
> 2016  5 20 10 23 33.0000000  0 18                     
G 1  21499634.334   112981342.027       -1655.658          49.000  
G 3  21600435.953   113511051.821        2260.513          48.000  
G 7  24056416.104   126417323.740       -2549.946          41.000  
G11  22318204.330   117282960.736       -1850.519          47.000  
G17  22380844.347   117612123.901        2345.116          48.000  
G22  22125489.884   116270228.925         388.435          48.000  
G28  20756675.469   109077069.258        2259.137          49.000  
J 1  37409254.261   196586959.729         524.851          47.000  
G30  22824322.627   119942618.712       -1956.466          46.000  
R 2  22439969.541   119743969.096        4262.738          50.000  
R18  22964765.841                        2781.927          32.000  
R15  20171940.922   107792734.914         803.478          50.000  
R 1  22072945.197   117992570.549        1410.946          48.000  
R24  21636374.905   115699433.449       -1059.919          45.000  
R14  20553900.641   109563855.284       -2454.890          41.000  
R17  20547523.120   109953988.507        1090.019          52.000  
R 8  24239513.103   129801511.9442      -1372.670          38.000  
G 8  24715051.782   129878537.764       -1414.763          43.000  
> 2016  5 20 10 23 34.0000000  0 18                     
G 1  21499949.119   112982997.427       -1654.875          48.000  
G 3  21600005.980   113508791.874        2259.863          48.000  
G 7  24056901.813   126419874.806       -2552.289          40.000  
G11  22318556.283   117284811.102       -1849.766          47.000  
G17  22380398.459   117609779.361        2344.583          48.000  
G22  22125415.929   116269840.556         388.606          48.000  
G28  20756245.827   109074810.552        2258.685          49.000  
J 1  37409154.533   196586435.417         523.920          47.000  
G30  22824695.224   119944576.556       -1958.506          46.000  
R 2  22439171.455   119739708.001        4260.562          46.000  
R18  22964244.272                        2779.561          32.000  
R15  20171790.798   107791932.574         801.912          51.000  
R 1  22072681.402   117991159.765        1411.211          48.000  
R24  21636573.192   115700493.053       -1058.863          45.000  
R14  20554361.711   109566311.771       -2457.092          41.000  
R17  20547319.284   109952898.797        1089.819          52.000  
R 8  24239769.324   129802884.4332      -1372.634          40.000  
G 8  24715321.423   129879952.268       -1414.216          42.000  
> 2016  5 20 10 23 35.0000000  0 18                     
G 1  21500263.921   112984652.475       -1654.666          49.000  
G 3  21599576.408   113506532.831        2258.585          48.000  
G 7  24057387.802   126422427.815       -2553.700          41.000  
G11  22318908.603   117286660.808       -1849.374          47.000  
G17  22379952.379   117607435.119        2344.322          48.000  
G22  22125341.853   116269452.357         388.292          48.000  
G28  20755816.133   109072552.510        2257.959          49.000  
J 1  37409054.892   196585911.797         523.415          47.000  
G30  22825067.961   119946536.347       -1960.613          45.000  
R 2  22438373.596   119735447.636        4260.993          46.000  
R18  22963726.262                        2784.899          32.000  
R15  20171641.162   107791131.898         800.009          50.000  
R 1  22072417.416   117989749.172        1410.435          48.000  
R24  21636771.182   115701551.777       -1058.156          45.000  
R14  20554822.710   109568770.393       -2459.584          41.000  
R17  20547115.500   109951809.268        1089.643          52.000  
R 8  24240025.459   129804256.3752      -1372.087          41.000  
G 8  24715590.261   129881366.490       -1415.816          41.000  
> 2016  5 20 10 23 36.0000000  0 19                     
G 1  21500579.002   112986307.228       -1654.725          49.000  
G 3  21599146.941   113504274.704        2257.475          49.000  
G 7  24057873.930   126424982.637       -2556.177          43.000  
G11  22319260.434   117288509.931       -1848.786          47.000  
G17  22379506.404   117605091.354        2343.577          48.000  
G19  23847997.788   125322073.5243       3138.275          41.000  
G22  22125268.161   116269064.380         388.255          47.000  
G28  20755386.404   109070295.237        2256.787          49.000  
J 1  37408955.548   196585388.907         522.256          47.000  
G30  22825441.116   119948498.277       -1962.934          46.000  
R 2  22437575.423   119731188.414        4258.035          48.000  
R18  22963202.895   122579130.5873       2784.586          40.000  
R15  20171491.561   107790333.033         797.891          50.000  
R 1  22072153.865   117988338.805        1409.325          49.000  
R24  21636969.067   115702609.682       -1057.319          45.000  
R14  20555284.321   109571231.256       -2461.957          41.000  
R17  20546912.187   109950720.066        1088.885          52.000  
R 8  24240281.384   129805627.9762      -1371.710          40.000  
G 8  24715859.396   129882780.171       -1414.557          43.000  
> 2016  5 20 10 23 37.0000000  0 19                     
G 1  21500893.769   112987961.464       -1654.290          49.000  
G 3  21598717.386   113502017.222        2257.349          49.000  
G 7  24058360.110   126427539.020       -2556.389          45.000  
G11  22319612.213   117290358.210       -1847.907          47.000  
G17  22379060.394   117602747.931        2343.773          48.000  
G19  23847401.060   125318935.3572       3138.757          43.000  
G22  22125194.608   116268676.347         388.316          48.000  
G28  20754957.129   109068038.502        2256.616          49.000  
J 1  37408856.169   196584866.471         522.658          46.000  
G30  22825815.075   119950462.147       -1964.554          46.000  
R 2  22436777.599   119726929.794        4258.114          49.000  
R18  22962669.547   122576347.0772       2783.989          43.000  
R15  20171342.746   107789535.807         796.724          50.000  
R 1  22071890.157   117986928.221        1410.230          48.000  
R24  21637166.656   115703666.586       -1056.181          45.000  
R14  20555746.420   109573694.170       -2463.820          41.000  
R17  20546708.578   109949631.015        1089.223          52.000  
R 8  24240537.500   129806998.9742      -1370.115          40.000  
G 8  24716128.251   129884193.344       -1412.463          42.000  
> 2016  5 20 10 23 38.0000000  0 19                     
G 1  21501208.693   112989615.596       -1653.997          49.000  
G 3  21598287.901   113499760.778        2255.734          48.000  
G 7  24058846.780   126430097.178       -2558.677          43.000  
G11  22319963.922   117292206.197       -1848.016          47.000  
G17  22378614.348   117600404.983        2342.947          48.000  
G19  23846803.198   125315798.1252       3137.024          44.000  
G22  22125120.515   116268288.754         387.280          48.000  
G28  20754527.888   109065782.572        2255.444          49.000  
J 1  37408756.965   196584344.802         521.412          47.000  
G30  22826189.225   119952427.892       -1965.960          45.000  
R 2  22435979.793   119722672.147        4257.003          49.000  
R18  22962146.162   122573489.8513       2782.310          47.000  
R15  20171193.965   107788740.307         795.062          50.000  
R 1  22071625.961   117985518.195        1409.355          48.000  
R24  21637363.983   115704722.975       -1056.357          45.000  
R14  20556208.729   109576159.165       -2466.058          41.000  
R17  20546505.353   109948542.335        1088.609          52.000  
R 8  24240793.670   129808369.9472      -1370.912          40.000  
G 8  24716397.421   129885606.582       -1412.648          43.000  
> 2016  5 20 10 23 39.0000000  0 19                     
G 1  21501523.687   112991270.885       -1656.469          49.000  
G 3  21597858.748   113497505.490        2254.555          49.000  
G 7  24059333.641   126432655.427       -2557.873          42.000  
G11  22320315.719   117294055.196       -1850.057          47.000  
G17  22378168.740   117598062.547        2342.400          48.000  
G19  23846206.942   125312661.2172       3136.951          43.000  
G22  22125047.119   116267902.553         385.041          49.000  
G28  20754098.700   109063527.616        2254.419          49.000  
J 1  37408657.656   196583823.737         520.958          47.000  
G30  22826563.392   119954394.012       -1965.518          46.000  
R 2  22435181.882   119718415.313        4256.124          50.000  
R18  22961627.123   122570707.9822       2781.879          48.000  
R15  20171045.254   107787946.128         793.667          50.000  
R 1  22071362.428   117984109.801        1407.183          48.000  
R24  21637561.607   115705780.280       -1058.281          45.000  
R14  20556671.072   109578624.938       -2465.605          41.000  
R17  20546301.849   109947454.420        1087.379          52.000  
R 8  24241049.804   129809742.4852      -1373.403          40.000  
G 8  24716666.416   129887020.696       -1416.191          39.000  
> 2016  5 20 10 23 40.0000000  0 19                     
G 1  21501839.152   112992927.812       -1657.529          49.000  
G 3  21597429.752   113495251.003        2254.445          49.000  
G 7  24059820.519   126435212.170       -2556.086          41.000  
G11  22320668.091   117295905.945       -1850.970          47.000  
G17  22377723.026   117595720.499        2341.946          48.000  
G19  23845609.028   125309524.1522       3137.524          43.000  
G22  22124974.142   116267518.039         384.066          49.000  
G28  20753669.669   109061273.458        2254.156          49.000  
J 1  37408558.660   196583302.667         521.631          47.000  
G30  22826937.228   119956358.943       -1964.753          46.000  
R 2  22434384.232   119714158.573        4257.358          49.000  
R18  22961107.403   122567925.6302       2782.367          48.000  
R15  20170896.561   107787152.632         793.359          50.000  
R 1  22071099.261   117982703.700        1405.406          48.000  
R24  21637759.894   115706839.347       -1059.158          46.000  
R14  20557133.276   109581090.164       -2465.169          41.000  
R17  20546098.693   109946367.295        1087.146          52.000  
R 8  24241306.863   129811117.2741      -1376.087          41.000  
G 8  24716935.708   129888435.974       -1415.940          41.000  
> 2016  5 20 10 23 41.0000000  0 19                     
G 1  21502154.425   112994585.875       -1658.736          49.000  
G 3  21597000.860   113492997.221        2253.382          49.000  
G 7  24060306.700   126437767.861       -2555.605          44.000  
G11  22321020.271   117297757.829       -1852.597          47.000  
G17  22377277.452   117593378.758        2341.154          48.000  
G19  23845012.841   125306387.0792       3136.627          43.000  
G22  22124901.148   116267134.789         382.846          48.000  
G28  20753240.882   109059020.031        2252.899          49.000  
J 1  37408459.404   196582781.667         520.574          47.000  
G30  22827310.803   119958323.195       -1964.355          46.000  
R 2  22433586.583   119709901.940        4256.863          49.000  
R18  22960587.666   122565143.1402       2782.465          48.000  
R15  20170748.042   107786359.993         791.850          50.000  
R 1  22070836.653   117981299.256        1403.484          49.000  
R24  21637958.146   115707899.563       -1060.482          45.000  
R14  20557595.655   109583555.267       -2465.529          41.000  
R17  20545895.468   109945280.809        1086.022          52.000  
R 8  24241563.887   129812494.449       -1377.949          42.000  
G 8  24717205.192   129889852.074       -1415.928          41.000  
> 2016  5 20 10 23 42.0000000  0 19                     
G 1  21502470.117   112996245.114       -1660.001          48.000  
G 3  21596572.301   113490744.446        2252.209          49.000  
G 7  24060792.706   126440323.308       -2555.559          43.000  
G11  22321372.644   117299610.795       -1853.645          47.000  
G17  22376831.931   117591037.560        2340.838          48.000  
G19  23844415.921   125303250.3892       3136.255          43.000  
G22  22124828.503   116266752.845         382.399          47.000  
G28  20752812.218   109056767.559        2252.020          49.000  
J 1  37408360.339   196582261.062         520.223          47.000  
G30  22827684.621   119960287.641       -1964.663          46.000  
R 2  22432788.794   119705646.004        4256.176          49.000  
R18  22960064.439   122562361.0162       2782.187          48.000  
R15  20170600.012   107785568.612         790.550          50.000  
R 1  22070574.097   117979896.522        1400.998          47.000  
R24  21638156.502   115708960.799       -1061.680          45.000  
R14  20558058.452   109586020.971       -2466.107          41.000  
R17  20545693.045   109944195.189        1085.154          51.000  
R 8  24241821.243   129813873.382       -1379.466          42.000  
G 8  24717474.937   129891269.776       -1418.455          31.000  
> 2016  5 20 10 23 43.0000000  0 19                     
G 1  21502786.088   112997904.875       -1659.617          49.000  
G 3  21596143.758   113488492.559        2251.678          49.000  
G 7  24061278.834   126442879.217       -2555.886          42.000  
G11  22321725.539   117301464.225       -1853.692          47.000  
G17  22376386.636   117588696.782        2340.499          48.000  
G19  23843819.403   125300114.1572       3135.809          44.000  
G22  22124755.980   116266371.810         381.013          48.000  
G28  20752383.798   109054515.785        2251.526          49.000  
J 1  37408261.413   196581740.824         519.588          47.000  
G30  22828058.754   119962252.722       -1965.093          46.000  
R 2  22431991.703   119701390.889        4256.436          47.000  
R18  22959543.672   122559579.5052       2781.296          48.000  
R15  20170452.575   107784778.498         789.398          51.000  
R 1  22070311.994   117978494.848        1401.563          48.000  
R24  21638354.842   115710022.377       -1061.320          45.000  
R14  20558521.162   109588487.617       -2467.187          41.000  
R17  20545490.169   109943110.096        1084.958          52.000  
R 8  24242078.931   129815253.308       -1380.383          42.000  
G 8  24717746.201   129892632.1403      -1417.773          42.000  
> 2016  5 20 10 23 44.0000000  0 19                     
G 1  21503101.937   112999565.089       -1660.412          48.000  
G 3  21595715.530   113486241.633        2250.268          49.000  
G 7  24061764.910   126445436.056       -2557.528          44.000  
G11  22322078.138   117303317.806       -1853.806          47.000  
G17  22375941.289   117586356.677        2339.728          48.000  
G19  23843223.356   125296978.7832       3134.918          44.000  
G22  22124683.317   116265991.497         379.800          48.000  
G28  20751955.342   109052265.088        2250.122          49.000  
J 1  37408162.383   196581221.276         519.360          47.000  
G30  22828433.096   119964219.084       -1967.068          46.000  
R 2  22431194.210   119697136.065        4253.590          48.000  
R18  22959022.190   122556799.0562       2779.669          48.000  
R15  20170304.964   107783990.145         787.529          50.000  
R 1  22070049.979   117977094.058        1400.068          48.000  
R24  21638553.600   115711084.016       -1061.685          45.000  
R14  20558984.448   109590955.893       -2468.575          41.000  
R17  20545287.363   109942025.731        1084.003          52.000  
R 8  24242336.635   129816633.731       -1381.225          41.000  
G 8  24718014.829   129894049.7252      -1418.327          42.000  
> 2016  5 20 10 23 45.0000000  0 19                     
G 1  21503417.856   113001225.554       -1661.006          49.000  
G 3  21595287.057   113483991.628        2249.298          48.000  
G 7  24062251.701   126447993.703       -2558.917          41.000  
G11  22322430.999   117305171.466       -1854.344          47.000  
G17  22375496.064   117584016.925        2339.669          48.000  
G19  23842626.611   125293843.9712       3133.826          44.000  
G22  22124610.968   116265611.827         379.104          48.000  
G28  20751527.079   109050015.084        2249.524          49.000  
J 1  37408063.860   196580702.225         518.590          47.000  
G30  22828807.420   119966186.538       -1968.107          46.000  
R 2  22430396.962   119692882.059        4253.410          50.000  
R18  22958501.423   122554019.3462       2778.400          47.000  
R15  20170157.876   107783203.201         786.007          50.000  
R 1  22069788.209   117975694.008        1398.977          48.000  
R24  21638752.113   115712145.564       -1061.880          45.000  
R14  20559447.803   109593425.554       -2470.129          41.000  
R17  20545085.045   109940941.707        1083.836          52.000  
R 8  24242594.375   129818014.595       -1381.577          43.000  
G 8  24718283.702   129895467.3372      -1417.240          37.000  
> 2016  5 20 10 23 46.0000000  0 19                     
G 1  21503733.931   113002885.879       -1660.179          49.000  
G 3  21594859.021   113481742.094        2249.320          49.000  
G 7  24062738.422   126450551.741       -2558.867          42.000  
G11  22322783.878   117307024.824       -1853.471          47.000  
G17  22375050.822   117581677.296        2339.535          48.000  
G19  23842030.232   125290709.4932       3134.113          44.000  
G22  22124538.567   116265232.411         379.022          48.000  
G28  20751099.130   109047765.482        2249.384          49.000  
J 1  37407965.109   196580183.296         518.748          47.000  
G30  22829181.815   119968154.773       -1967.870          45.000  
R 2  22429599.889   119688628.406        4253.246          48.000  
R18  22957980.848   122551240.120        2778.497          47.000  
R15  20170010.997   107782417.381         785.047          50.000  
R 1  22069526.613   117974294.341        1398.947          48.000  
R24  21638950.470   115713206.668       -1060.632          45.000  
R14  20559911.543   109595896.257       -2471.740          41.000  
R17  20544882.500   109939857.788        1083.789          52.000  
R 8  24242852.359   129819395.647       -1380.934          43.000  
G 8  24718554.408   129896884.8052      -1416.465          40.000  
> 2016  5 20 10 23 47.0000000  0 19                     
G 1  21504049.972   113004546.129       -1660.103          49.000  
G 3  21594431.106   113479493.102        2248.168          48.000  
G 7  24063225.336   126453110.604       -2559.745          40.000  
G11  22323136.546   117308877.880       -1852.744          46.000  
G17  22374605.423   117579337.760        2339.604          48.000  
G19  23841433.731   125287575.3972       3134.113          44.000  
G22  22124466.882   116264853.247         378.937          48.000  
G28  20750671.163   109045516.338        2248.914          49.000  
J 1  37407866.428   196579664.573         518.217          47.000  
G30  22829556.523   119970123.959       -1969.130          44.000  
R 2  22428802.745   119684375.420        4253.915          46.000  
R18  22957460.221   122548461.490        2778.408          48.000  
R15  20169864.154   107781632.738         784.131          50.000  
R 1  22069264.789   117972895.078        1398.572          49.000  
R24  21639148.635   115714267.341       -1060.356          45.000  
R14  20560375.125   109598368.092       -2472.478          41.000  
R17  20544679.833   109938773.984        1083.743          51.000  
R 8  24243110.256   129820776.827       -1380.688          41.000  
G 8  24718824.502   129898302.0752      -1416.850          42.000  
> 2016  5 20 10 23 48.0000000  0 19                     
G 1  21504365.699   113006206.100       -1659.869          49.000  
G 3  21594003.157   113477244.521        2248.129          48.000  
G 7  24063713.349   126455669.919       -2559.650          41.000  
G11  22323488.919   117310730.463       -1852.445          47.000  
G17  22374160.146   117576998.253        2339.293          48.000  
G19  23840837.213   125284441.4962       3133.960          45.000  
G22  22124394.673   116264474.226         377.784          49.000  
G28  20750243.371   109043267.491        2248.346          48.000  
J 1  37407767.572   196579145.903         518.429          47.000  
G30  22829931.755   119972093.915       -1970.549          46.000  
R 2  22428005.654   119680122.145        4252.625          48.000  
R18  22956939.576   122545683.289        2777.894          47.000  
R15  20169717.537   107780849.156         782.930          50.000  
R 1  22069003.106   117971495.970        1399.138          49.000  
R24  21639346.712   115715327.404       -1060.579          45.000  
R14  20560838.795   109600840.957       -2473.463          41.000  
R17  20544477.306   109937690.150        1083.551          52.000  
R 8  24243368.135   129822157.953       -1381.617          37.000  
G 8  24719093.916   129899718.9072      -1416.815          43.000  
> 2016  5 20 10 23 49.0000000  0 19                     
G 1  21504681.705   113007866.066       -1659.764          49.000  
G 3  21593575.522   113474996.429        2248.119          49.000  
G 7  24064201.117   126458229.602       -2559.913          38.000  
G11  22323841.343   117312582.813       -1851.815          47.000  
G17  22373715.060   117574658.892        2339.642          48.000  
G19  23840240.712   125281308.0162       3133.221          44.000  
G22  22124322.499   116264095.466         378.757          48.000  
G28  20749815.335   109041019.108        2248.541          48.000  
J 1  37407668.804   196578627.350         518.973          47.000  
G30  22830306.830   119974064.657       -1971.457          46.000  
R 2  22427208.912   119675869.486        4252.603          48.000  
R18  22956419.333   122542905.671        2777.688          48.000  
R15  20169570.990   107780066.755         782.039          50.000  
R 1  22068741.213   117970097.335        1399.200          49.000  
R24  21639544.999   115716387.074       -1059.265          45.000  
R14  20561303.215   109603314.862       -2474.448          41.000  
R17  20544274.727   109936606.514        1083.812          52.000  
R 8  24243626.084   129823539.290       -1380.748          39.000  
G 8  24719363.487   129901135.4892      -1415.915          40.000  
> 2016  5 20 10 23 50.0000000  0 19                     
G 1  21504997.519   113009525.876       -1660.177          49.000  
G 3  21593147.713   113472748.825        2247.010          49.000  
G 7  24064688.135   126460789.689       -2561.072          43.000  
G11  22324193.733   117314434.841       -1852.200          47.000  
G17  22373269.992   117572319.480        2339.052          48.000  
G19  23839644.421   125278174.6022       3132.855          43.000  
G22  22124250.395   116263716.950         378.009          48.000  
G28  20749387.421   109038771.060        2247.516          48.000  
J 1  37407570.053   196578108.913         518.153          47.000  
G30  22830681.993   119976035.944       -1972.090          46.000  
R 2  22426412.275   119671617.027        4251.459          48.000  
R18  22955899.211   122540128.354        2776.868          48.000  
R15  20169424.443   107779285.332         780.580          50.000  
R 1  22068479.757   117968699.037        1398.387          47.000  
R24  21639742.884   115717446.281       -1059.718          45.000  
R14  20561767.426   109605789.656       -2475.195          41.000  
R17  20544072.304   109935522.884        1083.138          52.000  
R 8  24243884.190   129824920.642       -1382.008          38.000  
G 8  24719632.726   129902551.7422      -1416.332          42.000  
> 2016  5 20 10 23 51.0000000  0 19                     
G 1  21505313.246   113011185.868       -1660.023          49.000  
G 3  21592719.903   113470501.899        2246.442          49.000  
G 7  24065175.921   126463350.331       -2560.565          36.000  
G11  22324546.192   117316286.874       -1852.638          47.000  
G17  22372824.803   117569980.386        2338.813          48.000  
G19  23839048.042   125275041.6572       3132.977          43.000  
G22  22124178.604   116263338.936         377.836          48.000  
G28  20748959.803   109036523.677        2246.967          49.000  
J 1  37407471.617   196577590.778         517.961          47.000  
G30  22831057.155   119978008.081       -1972.438          46.000  
R 2  22425615.236   119667364.940        4252.977          48.000  
R18  22955378.916   122537351.622        2776.276          49.000  
R15  20169278.368   107778505.258         779.365          50.000  
R 1  22068218.492   117967301.350        1397.390          48.000  
R24  21639941.066   115718505.327       -1058.541          45.000  
R14  20562231.881   109608265.640       -2476.145          41.000  
R17  20543869.916   109934439.625        1083.067          52.000  
R 8  24244142.314   129826302.330       -1381.962          38.000  
G 8  24719902.123   129903967.9282      -1415.428          42.000  
> 2016  5 20 10 23 52.0000000  0 19                     
G 1  21505629.008   113012845.803       -1659.810          49.000  
G 3  21592292.635   113468255.610        2246.182          49.000  
G 7  24065663.655   126465911.571       -2561.399          45.000  
G11  22324898.704   117318138.578       -1851.084          47.000  
G17  22372379.979   117567641.525        2338.644          48.000  
G19  23838452.449   125271909.1432       3132.581          44.000  
G22  22124106.919   116262961.260         377.755          48.000  
G28  20748532.430   109034276.872        2246.997          49.000  
J 1  37407373.093   196577072.937         517.905          47.000  
G30  22831432.614   119979981.268       -1973.448          45.000  
R 2  22424818.372   119663113.287        4251.463          50.000  
R18  22954858.986   122534575.572        2775.695          47.000  
R15  20169132.728   107777726.501         778.145          50.000  
R 1  22067956.721   117965904.092        1397.328          49.000  
R24  21640138.830   115719563.951       -1058.156          45.000  
R14  20562696.790   109610742.957       -2477.889          41.000  
R17  20543667.668   109933356.561        1083.297          52.000  
R 8  24244400.263   129827684.119       -1382.581          41.000  
G 8  24720171.484   129905383.8552      -1415.535          41.000  
> 2016  5 20 10 23 53.0000000  0 19                     
G 1  21505944.961   113014505.421       -1659.796          49.000  
G 3  21591865.366   113466009.599        2245.685          48.000  
G 7  24066150.254   126468473.264       -2561.584          44.000  
G11  22325250.832   117319989.818       -1851.281          46.000  
G17  22371934.824   117565302.491        2339.146          48.000  
G19  23837856.367   125268776.8582       3131.775          45.000  
G22  22124035.059   116262583.629         377.601          48.000  
G28  20748104.812   109032030.194        2246.155          48.000  
J 1  37407274.569   196576555.003         517.612          47.000  
G30  22831808.020   119981955.107       -1974.520          45.000  
R 2  22424021.787   119658861.836        4251.229          49.000  
R18  22954338.970   122531799.883        2775.531          48.000  
R15  20168987.019   107776948.595         777.207          50.000  
R 1  22067695.526   117964507.030        1396.653          49.000  
R24  21640336.645   115720621.950       -1058.180          44.000  
R14  20563161.506   109613221.080       -2478.591          41.000  
R17  20543464.949   109932273.344        1083.146          52.000  
R 8  24244658.334   129829065.964       -1382.124          41.000  
G 8  24720441.003   129906799.4702      -1415.649          41.000  
> 2016  5 20 10 23 54.0000000  0 19                     
G 1  21506260.705   113016164.895       -1659.878          49.000  
G 3  21591437.993   113463763.973        2244.880          48.000  
G 7  24066637.691   126471035.017       -2561.931          43.000  
G11  22325603.100   117321840.809       -1852.241          45.000  
G17  22371489.547   117562963.489        2338.666          47.000  
G19  23837260.529   125265644.5992       3131.964          44.000  
G22  22123963.338   116262206.212         376.601          48.000  
G28  20747677.334   109029783.814        2245.886          48.000  
J 1  37407176.062   196576037.032         517.623          47.000  
G30  22832183.724   119983929.347       -1974.533          45.000  
R 2  22423224.783   119654610.445        4251.156          50.000  
R18  22953818.988   122529024.480        2774.802          48.000  
R15  20168841.833   107776171.665         776.193          50.000  
R 1  22067434.139   117963110.316        1395.979          48.000  
R24  21640534.548   115721679.492       -1058.098          45.000  
R14  20563626.537   109615700.010       -2479.567          41.000  
R17  20543262.562   109931190.162        1082.602          52.000  
R 8  24244916.161   129830447.920       -1382.323          40.000  
G 8  24720710.417   129908214.7402      -1415.708          41.000  
> 2016  5 20 10 23 55.0000000  0 19                     
G 1  21506576.973   113017825.848       -1661.801          49.000  
G 3  21591010.742   113461519.255        2243.781          48.000  
G 7  24067124.727   126473596.010       -2560.760          44.000  
G11  22325955.629   117323693.136       -1852.959          43.000  
G17  22371044.392   117560624.996        2338.153          48.000  
G19  23836664.727   125262512.491        3131.933          45.000  
G22  22123891.670   116261830.319         374.642          48.000  
G28  20747250.153   109027538.416        2244.940          49.000  
J 1  37407077.346   196575519.333         517.253          47.000  
G30  22832559.549   119985903.157       -1974.020          46.000  
R 2  22422428.093   119650359.485        4250.323          49.000  
R18  22953299.111   122526249.067        2775.338          47.000  
R15  20168696.193   107775395.799         775.375          50.000  
R 1  22067173.294   117961715.587        1393.182          48.000  
R24  21640732.730   115722738.434       -1060.030          45.000  
R14  20564091.481   109618178.969       -2478.993          41.000  
R17  20543059.860   109930107.865        1081.800          52.000  
R 8  24245174.756   129831832.111       -1385.574          40.000  
G 8  24720979.778   129909630.5591      -1417.109          41.000  
> 2016  5 20 10 23 56.0000000  0 20                     
G 1  21506893.223   113019488.128       -1662.821          49.000  
G 3  21590583.700   113459275.354        2243.454          49.000  
G 7  24067611.675   126476155.850       -2560.217          44.000  
G11  22326308.507   117325546.848       -1854.299          45.000  
G17  22370599.463   117558286.838        2338.346          48.000  
G19  23836069.081   125259380.368        3132.342          45.000  
G22  22123820.142   116261455.856         373.670          48.000  
G28  20746823.198   109025293.817        2244.519          49.000  
J 1  37406979.049   196575001.725         517.487          47.000  
G30  22832935.078   119987876.193       -1973.312          45.000  
R 2  22421631.194   119646108.673        4249.775          50.000  
R18  22952778.990   122523473.449        2775.927          47.000  
R15  20168551.095   107774620.799         774.868          50.000  
R 1  22066912.552   117960322.730        1391.196          47.000  
R24  21640930.965   115723798.662       -1060.325          45.000  
R14  20564556.390   109620657.766       -2478.489          41.000  
R17  20542857.996   109929026.301        1081.526          52.000  
R 8  24245433.700   129833218.269       -1386.838          38.000  
G 8  24721249.419   129911047.795       -1418.542          42.000  
R16  23376899.453   124875188.8301       4265.815          43.000  
> 2016  5 20 10 23 57.0000000  0 20                     
G 1  21507209.613   113021151.304       -1663.511          49.000  
G 3  21590156.937   113457032.182        2242.857          48.000  
G 7  24068098.606   126478714.979       -2558.557          43.000  
G11  22326661.456   117327401.361       -1855.257          47.000  
G17  22370154.657   117555948.928        2337.952          48.000  
G19  23835472.772   125256248.166        3131.989          43.000  
G22  22123748.753   116261082.461         373.189          48.000  
G28  20746396.314   109023049.948        2243.500          49.000  
J 1  37406880.456   196574484.269         517.683          47.000  
G30  22833310.257   119989848.909       -1972.398          45.000  
R 2  22420834.732   119641858.035        4250.293          50.000  
R18  22952259.201   122520697.708        2775.961          49.000  
R15  20168406.467   107773846.740         773.484          50.000  
R 1  22066652.248   117958931.140        1390.140          48.000  
R24  21641129.287   115724859.680       -1061.168          45.000  
R14  20565021.560   109623136.758       -2478.848          41.000  
R17  20542656.009   109927945.287        1080.695          52.000  
R 8  24245692.679   129834605.884       -1388.577          36.000  
G 8  24721519.461   129912465.507       -1417.339          42.000  
R16  23376100.914   124870923.341        4265.468          43.000  
> 2016  5 20 10 23 58.0000000  0 20                     
G 1  21507526.422   113022815.265       -1665.065          49.000  
G 3  21589730.210   113454789.579        2242.037          48.000  
G 7  24068585.432   126481273.366       -2557.517          43.000  
G11  22327014.334   117329256.613       -1857.146          47.000  
G17  22369709.956   117553611.208        2337.635          48.000  
G19  23834876.376   125253115.960        3131.372          44.000  
G22  22123678.272   116260710.020         372.400          47.000  
G28  20745969.132   109020806.658        2242.609          49.000  
J 1  37406782.106   196573966.788         517.171          47.000  
G30  22833685.699   119991821.227       -1971.575          45.000  
R 2  22420038.181   119637607.465        4249.464          49.000  
R18  22951739.341   122517921.860        2775.837          47.000  
R15  20168261.735   107773073.519         772.609          50.000  
R 1  22066392.292   117957541.023        1388.600          45.000  
R24  21641327.696   115725921.375       -1062.404          45.000  
R14  20565486.835   109625615.778       -2478.834          41.000  
R17  20542454.268   109926864.737        1079.914          52.000  
R 8  24245952.059   129835994.968       -1390.968          39.000  
G 8  24721789.207   129913883.718       -1419.101          43.000  
R16  23375302.601   124866658.758        4263.662          44.000  
> 2016  5 20 10 23 59.0000000  0 20                     
G 1  21507843.248   113024480.577       -1665.564          49.000  
G 3  21589303.587   113452547.493        2242.391          48.000  
G 7  24069071.665   126483830.110       -2556.070          42.000  
G11  22327367.422   117331113.170       -1856.695          46.000  
G17  22369264.976   117551273.728        2337.710          47.000  
G19  23834280.067   125249983.395        3132.770          44.000  
G22  22123607.755   116260338.809         371.256          45.000  
G28  20745542.248   109018564.005        2243.030          49.000  
J 1  37406683.635   196573449.084         518.115          47.000  
G30  22834060.739   119993792.387       -1970.862          45.000  
R 2  22419241.736   119633356.704        4250.451          47.000  
R18  22951219.203   122515145.538        2777.159          48.000  
R15  20168117.247   107772300.917         772.916          50.000  
R 1  22066132.458   117956152.416        1388.018          47.000  
R24  21641526.646   115726984.421       -1063.263          45.000  
R14  20565951.587   109628094.190       -2477.472          41.000  
R17  20542252.369   109925784.841        1080.222          52.000  
R 8  24246211.945   129837386.192       -1391.860          41.000  
G 8  24722059.179   129915302.638       -1419.688          40.000  
R16  23374504.637   124862395.448        4263.451          41.000  
> 2016  5 20 10 24  0.0000000  0 20                     
G 1  21508160.388   113026146.919       -1667.336          49.000  
G 3  21588877.226   113450306.364        2241.218          49.000  
G 7  24069558.247   126486386.251       -2556.666          43.000  
G11  22327721.033   117332970.768       -1858.305          46.000  
G17  22368820.536   117548936.460        2337.092          47.000  
G19  23833684.003   125246850.842        3132.147          43.000  
G22  22123537.187   116259969.111         368.875          48.000  
G28  20745115.625   109016322.101        2241.174          49.000  
J 1  37406585.180   196572931.680         517.164          46.000  
G30  22834436.058   119995763.146       -1970.913          46.000  
R 2  22418445.727   119629106.298        4250.734          49.000  
R18  22950699.099   122512369.068        2776.576          47.000  
R15  20167972.847   107771529.256         770.547          50.000  
R 1  22065872.938   117954765.587        1385.987          49.000  
R24  21641725.421   115728048.408       -1064.401          45.000  
R14  20566416.530   109630572.824       -2479.006          41.000  
R17  20542051.010   109924705.451        1078.878          52.000  
R 8  24246471.901   129838779.027       -1393.749          41.000  
G 8  24722328.994   129916722.406       -1419.743          41.000  
R16  23373706.726   124858133.130        4261.638          41.000  
> 2016  5 20 10 24  1.0000000  0 20                     
G 1  21508477.511   113027814.104       -1667.203          49.000  
G 3  21588450.882   113448065.955        2241.944          44.000  
G 7  24070044.113   126488941.648       -2555.353          43.000  
G11  22328074.696   117334829.131       -1858.179          46.000  
G17  22368375.974   117546599.429        2337.083          49.000  
G19  23833087.833   125243718.201        3132.520          43.000  
G22  22123467.019   116259600.332         368.666          48.000  
G28  20744689.037   109014080.856        2241.663          49.000  
J 1  37406486.656   196572414.321         518.025          45.000  
G30  22834810.871   119997733.620       -1969.919          45.000  
R 2  22417649.212   119624856.166        4250.073          48.000  
R18  22950178.943   122509592.539        2777.441          46.000  
R15  20167828.307   107770758.465         770.679          50.000  
R 1  22065613.419   117953380.083        1385.289          49.000  
R24  21641924.842   115729113.124       -1064.876          45.000  
R14  20566881.579   109633051.619       -2478.882          41.000  
R17  20541849.216   109923626.564        1079.044          52.000  
R 8  24246732.275   129840173.182       -1394.917          40.000  
G 8  24722599.333   129918142.725       -1420.490          41.000  
R16  23372909.042   124853871.679        4261.407          42.000  
> 2016  5 20 10 24  2.0000000  0 20                     
G 1  21508794.983   113029481.870       -1668.475          49.000  
G 3  21588024.748   113445826.309        2238.843          49.000  
G 7  24070530.695   126491496.891       -2555.633          43.000  
G11  22328428.430   117336687.983       -1859.163          46.000  
G17  22367931.308   117544262.398        2336.820          48.000  
G19  23832491.751   125240585.409        3133.630          45.000  
G22  22123397.096   116259232.464         367.194          48.000  
G28  20744262.902   109011840.117        2240.198          49.000  
J 1  37406388.656   196571897.251         515.917          45.000  
G30  22835185.807   119999704.171       -1971.210          45.000  
R 2  22416852.731   119620606.438        4249.303          49.000  
R18  22949658.787   122506815.968        2775.626          48.000  
R15  20167684.290   107769988.548         768.777          50.000  
R 1  22065354.702   117951995.803        1383.126          49.000  
R24  21642123.809   115730178.201       -1065.749          45.000  
R14  20567346.592   109635530.894       -2480.011          41.000  
R17  20541647.544   109922547.874        1078.456          52.000  
R 8  24246992.859   129841568.283       -1395.156          41.000  
G 8  24722869.829   129919563.471       -1421.171          42.000  
R16  23372111.253   124849610.766        4260.582          39.000  
> 2016  5 20 10 24  3.0000000  0 20                     
G 1  21509112.525   113031150.038       -1668.296          49.000  
G 3  21587598.613   113443587.606        2238.080          48.000  
G 7  24071016.875   126494052.653       -2556.233          43.000  
G11  22328781.954   117338547.096       -1858.946          46.000  
G17  22367486.624   117541925.705        2336.278          47.000  
G19  23831895.512   125237453.067        3133.423          44.000  
G22  22123327.208   116258865.409         367.057          48.000  
G28  20743836.733   109009600.144        2239.606          49.000  
J 1  37406290.097   196571380.783         516.117          47.000  
G30  22835560.637   120001675.506       -1971.674          44.000  
R 2  22416056.164   119616357.394        4249.165          47.000  
R18  22949138.735   122504039.874        2775.752          48.000  
R15  20167540.431   107769219.960         767.563          50.000  
R 1  22065096.072   117950612.467        1383.400          49.000  
R24  21642322.812   115731243.370       -1064.738          45.000  
R14  20567811.815   109638011.396       -2480.982          41.000  
R17  20541446.203   109921469.668        1077.960          52.000  
R 8  24247253.356   129842964.078       -1395.952          42.000  
G 8  24723140.255   129920984.457       -1419.957          40.000  
R16  23371313.883   124845350.472        4259.701          40.000  
> 2016  5 20 10 24  4.0000000  0 20                     
G 1  21509430.049   113032818.108       -1667.540          49.000  
G 3  21587172.549   113441349.663        2237.710          48.000  
G 7  24071503.562   126496609.225       -2556.919          44.000  
G11  22329135.827   117340405.994       -1858.406          45.000  
G17  22367041.626   117539588.849        2337.538          48.000  
G19  23831299.500   125234320.760        3132.288          45.000  
G22  22123257.268   116258498.809         366.919          48.000  
G28  20743410.634   109007360.501        2240.106          48.000  
J 1  37406191.852   196570864.630         516.302          47.000  
G30  22835935.782   120003647.757       -1972.402          44.000  
R 2  22415260.085   119612109.156        4247.498          47.000  
R18  22948619.417   122501264.000        2776.685          49.000  
R15  20167397.182   107768452.361         767.325          50.000  
R 1  22064837.512   117949229.729        1382.458          48.000  
R24  21642522.163   115732308.080       -1064.226          45.000  
R14  20568277.369   109640493.097       -2482.683          41.000  
R17  20541244.653   109920391.314        1079.001          51.000  
R 8  24247513.923   129844359.813       -1394.833          42.000  
G 8  24723406.912   129922379.5103      -1421.162          33.000  
R16  23370516.320   124841090.065        4261.104          41.000  
> 2016  5 20 10 24  5.0000000  0 20                     
G 1  21509747.311   113034485.466       -1667.550          49.000  
G 3  21586746.886   113439112.145        2236.554          48.000  
G 7  24071990.336   126499166.751       -2558.917          39.000  
G11  22329489.228   117342263.990       -1858.310          47.000  
G17  22366596.890   117537251.617        2336.664          47.000  
G19  23830703.750   125231188.434        3131.946          45.000  
G22  22123187.589   116258132.090         365.653          47.000  
G28  20742984.604   109005120.884        2238.922          49.000  
J 1  37406093.678   196570348.600         515.231          47.000  
G30  22836311.503   120005621.106       -1975.533          44.000  
R 2  22414464.163   119607861.218        4247.182          46.000  
R18  22948099.418   122498488.512        2774.800          47.000  
R15  20167253.479   107767685.651         765.628          50.000  
R 1  22064578.656   117947846.820        1382.550          48.000  
R24  21642721.602   115733371.658       -1063.546          45.000  
R14  20568743.150   109642976.032       -2485.101          41.000  
R17  20541043.313   109919312.506        1078.423          52.000  
R 8  24247774.455   129845755.015       -1395.345          42.000  
G 8  24723682.049   129923799.9182      -1421.875          40.000  
R16  23369718.549   124836829.400        4260.087          40.000  
> 2016  5 20 10 24  6.0000000  0 20                     
G 1  21510064.486   113036152.540       -1667.098          49.000  
G 3  21586321.257   113436875.464        2235.952          48.000  
G 7  24072477.057   126501725.142       -2560.114          40.000  
G11  22329842.735   117344121.454       -1857.345          47.000  
G17  22366152.136   117534914.310        2337.440          48.000  
G19  23830107.720   125228056.299        3132.513          44.000  
G22  22123117.841   116257765.583         366.194          48.000  
G28  20742558.348   109002881.724        2238.757          49.000  
J 1  37405995.764   196569833.100         515.249          46.000  
G30  22836687.276   120007595.684       -1975.468          45.000  
R 2  22413668.119   119603614.176        4247.229          48.000  
R18  22947579.349   122495713.461        2774.365          47.000  
R15  20167110.405   107766920.169         764.715          50.000  
R 1  22064319.921   117946464.236        1382.390          48.000  
R24  21642920.342   115734434.453       -1062.142          45.000  
R14  20569209.351   109645460.486       -2485.188          41.000  
R17  20540841.641   109918233.634        1078.702          52.000  
R 8  24248034.969   129847149.703       -1394.882          42.000  
G 8  24723950.521   129925220.0642      -1420.149          43.000  
R16  23368920.847   124832568.546        4260.697          40.000  
> 2016  5 20 10 24  7.0000000  0 20                     
G 1  21510381.627   113037819.241       -1666.590          49.000  
G 3  21585895.891   113434639.279        2236.020          48.000  
G 7  24072964.407   126504284.802       -2561.931          36.000  
G11  22330196.224   117345978.241       -1856.417          46.000  
G17  22365707.347   117532577.427        2336.593          48.000  
G19  23829511.621   125224924.980        3130.865          44.000  
G22  22123048.424   116257399.076         366.746          48.000  
G28  20742132.074   109000643.168        2238.165          48.000  
J 1  37405897.659   196569317.886         515.166          46.000  
G30  22837063.206   120009571.865       -1977.786          44.000  
R 2  22412872.215   119599367.296        4246.982          47.000  
R18  22947059.577   122492939.524        2773.623          47.000  
R15  20166967.278   107766156.282         762.856          50.000  
R 1  22064061.012   117945081.628        1382.984          48.000  
R24  21643118.681   115735496.428       -1061.454          45.000  
R14  20569675.481   109647946.704       -2487.288          40.000  
R17  20540640.003   109917154.973        1078.104          52.000  
R 8  24248295.309   129848544.044       -1393.822          43.000  
G 8  24724220.214   129926653.5933      -1420.227          38.000  
R16  23368123.267   124828308.046        4259.709          40.000  
> 2016  5 20 10 24  8.0000000  0 20                     
G 1  21510698.505   113039485.339       -1665.573          48.000  
G 3  21585470.245   113432403.253        2235.667          48.000  
G 7  24073451.425   126506845.551       -2560.992          38.000  
G11  22330549.434   117347834.049       -1855.428          46.000  
G17  22365262.402   117530240.938        2336.481          48.000  
G19  23828915.992   125221794.566        3130.194          45.000  
G22  22122978.570   116257032.196         367.249          48.000  
G28  20741706.027   108998405.136        2237.811          48.000  
J 1  37405799.624   196568802.663         515.122          46.000  
G30  22837439.659   120011549.438       -1979.008          45.000  
R 2  22412076.589   119595120.557        4246.605          50.000  
R18  22946539.735   122490166.891        2771.735          47.000  
R15  20166824.640   107765393.991         761.679          50.000  
R 1  22063802.278   117943698.617        1383.266          49.000  
R24  21643316.776   115736557.326       -1060.198          45.000  
R14  20570142.117   109650434.470       -2488.861          41.000  
R17  20540438.924   109916076.526        1078.328          52.000  
R 8  24248555.614   129849937.786       -1393.217          43.000  
G 8  24724493.607                       -1415.869          34.000  
R16  23367325.845   124824048.023        4260.043          39.000  
> 2016  5 20 10 24  9.0000000  0 20                     
G 1  21511015.349   113041150.731       -1665.177          49.000  
G 3  21585044.704   113430167.619        2235.227          49.000  
G 7  24073939.159   126509407.647       -2563.112          41.000  
G11  22330902.522   117349688.755       -1854.109          47.000  
G17  22364818.119   117527904.652        2336.583          49.000  
G19  23828320.800   125218664.888        3130.023          45.000  
G22  22122908.455   116256665.036         367.014          48.000  
G28  20741280.556   108996167.554        2237.323          49.000  
J 1  37405701.309   196568287.699         514.738          46.000  
G30  22837816.462   120013528.738       -1980.294          45.000  
R 2  22411280.807   119590874.093        4246.906          49.000  
R18  22946020.521   122487395.305        2770.820          47.000  
R15  20166682.229   107764633.225         759.981          50.000  
R 1  22063543.683   117942315.223        1383.530          49.000  
R24  21643515.098   115737616.980       -1059.295          45.000  
R14  20570609.015   109652924.115       -2490.358          41.000  
R17  20540237.305   109914998.121        1078.672          52.000  
R 8  24248815.570   129851330.717       -1392.563          43.000  
G 8  24724759.321   129929487.1562      -1417.032          39.000  
R16  23366528.422   124819787.956        4260.266          42.000  
> 2016  5 20 10 24 10.0000000  0 20                     
G 1  21511332.035   113042815.302       -1664.049          49.000  
G 3  21584619.250   113427932.425        2234.734          48.000  
G 7  24074427.119   126511971.225       -2564.895          41.000  
G11  22331255.121   117351542.383       -1852.599          46.000  
G17  22364373.645   117525568.352        2336.105          48.000  
G19  23827725.155   125215535.709        3129.102          45.000  
G22  22122838.532   116256297.579         367.077          47.000  
G28  20740854.631   108993930.255        2237.109          48.000  
J 1  37405603.501   196567772.972         514.365          46.000  
G30  22838193.596   120015509.651       -1981.964          45.000  
R 2  22410485.130   119586628.175        4244.627          48.000  
R18  22945501.290   122484624.622        2770.091          47.000  
R15  20166540.411   107763873.789         758.530          50.000  
R 1  22063284.914   117940931.513        1383.974          47.000  
R24  21643712.739   115738675.345       -1057.665          45.000  
R14  20571076.349   109655415.482       -2492.066          41.000  
R17  20540035.423   109913919.534        1078.872          52.000  
R 8  24249075.630   129852722.702       -1391.541          42.000  
G 8  24725031.405   129930916.1873      -1414.376          39.000  
R16  23365730.825   124815527.793        4260.910          41.000  
> 2016  5 20 10 24 11.0000000  0 21                     
G 1  21511648.774   113044479.422       -1663.859          48.000  
G 3  21584194.215   113425697.979        2234.224          48.000  
G 7  24074915.219   126514536.020       -2566.605          40.000  
G11  22331607.685   117353395.367       -1852.765          46.000  
G17  22363928.751   117523231.951        2336.272          47.000  
G19  23827129.928   125212406.865        3128.320          45.000  
G22  22122768.592   116255930.250         367.406          48.000  
G28  20740428.915   108991693.285        2236.786          48.000  
J 1  37405505.413   196567258.741         513.848          46.000  
G30  22838570.521   120017492.144       -1983.662          44.000  
R 2  22409689.557   119582397.4503       4244.495          45.000  
R18  22944982.495   122481854.531        2769.928          48.000  
R15  20166398.418   107763115.553         758.011          51.000  
R 1  22063025.935   117939547.981        1383.527          47.000  
R24  21643910.502   115739732.778       -1057.017          46.000  
R14  20571544.050   109657908.618       -2494.253          41.000  
R17  20539833.768   109912840.714        1079.019          51.000  
R 8  24249335.796   129854114.245       -1391.419          43.000  
G 8  24725299.807   129932332.6962      -1415.702          42.000  
R16  23364933.577   124811267.377        4260.967          44.000  
R13  24566278.257                       -3657.738          38.000  
> 2016  5 20 10 24 12.0000000  0 21                     
G 1  21511965.356   113046143.204       -1663.185          49.000  
G 3  21583769.093   113423464.443        2233.569          48.000  
G 7  24075403.721   126517102.299       -2566.920          40.000  
G11  22331960.144   117355247.745       -1851.669          46.000  
G17  22363484.137   117520895.737        2336.367          48.000  
G19  23826534.526   125209278.533        3127.966          45.000  
G22  22122698.459   116255563.167         367.404          48.000  
G28  20740003.339   108989456.940        2236.249          48.000  
J 1  37405407.587   196566745.168         513.711          47.000  
G30  22838948.074   120019476.342       -1985.551          45.000  
R 2  22408894.176   119578152.1862       4246.686          44.000  
R18  22944463.874   122479085.353        2768.619          47.000  
R15  20166256.513   107762358.908         756.050          50.000  
R 1  22062767.288   117938164.662        1383.519          49.000  
R24  21644108.109   115740789.376       -1055.368          45.000  
R14  20572012.170   109660403.654       -2495.828          40.000  
R17  20539631.974   109911762.000        1078.919          52.000  
R 8  24249595.559   129855505.312       -1390.439          43.000  
G 8  24725569.570   129933748.8642      -1415.379          42.000  
R16  23364136.032   124807007.092        4261.031          43.000  
R13  24566956.058                       -3659.413          37.000  
> 2016  5 20 10 24 13.0000000  0 21                     
G 1  21512281.990   113047806.452       -1662.960          49.000  
G 3  21583344.268   113421231.619        2232.559          48.000  
G 7  24075892.519   126519670.077       -2569.223          37.000  
G11  22332312.360   117357099.338       -1851.213          47.000  
G17  22363039.802   117518559.471        2336.258          48.000  
G19  23825939.142   125206150.561        3127.783          45.000  
G22  22122628.624   116255196.123         367.015          48.000  
G28  20739577.885   108987220.957        2235.736          49.000  
J 1  37405310.006   196566232.097         512.862          47.000  
G30  22839326.150   120021462.090       -1986.609          45.000  
R 2  22408098.952   119573908.6462       4245.936          48.000  
R18  22943945.184   122476316.903        2767.351          48.000  
R15  20166115.079   107761603.531         754.639          51.000  
R 1  22062508.449   117936781.349        1383.408          49.000  
R24  21644305.331   115741844.982       -1054.844          45.000  
R14  20572480.324   109662900.494       -2497.879          41.000  
R17  20539430.389   109910683.178        1079.036          52.000  
R 8  24249855.184   129856895.674       -1390.372          43.000  
G 8  24725837.081   129935164.4682      -1414.329          40.000  
R16  23363338.662   124802746.704        4260.204          40.000  
R13  24567636.320   131189791.1993      -3662.492          39.000  
> 2016  5 20 10 24 14.0000000  0 21                     
G 1  21512598.485   113049469.384       -1663.547          48.000  
G 3  21582919.320   113418999.501        2231.796          48.000  
G 7  24076381.020   126522238.623       -2568.729          41.000  
G11  22332664.836   117358950.464       -1851.333          47.000  
G17  22362595.136   117516222.931        2336.519          48.000  
G19  23825343.688   125203022.625        3128.167          45.000  
G22  22122559.015   116254829.360         366.085          49.000  
G28  20739152.432   108984985.176        2235.419          48.000  
J 1  37405212.651   196565719.359         512.656          47.000  
G30  22839704.279   120023448.826       -1986.275          44.000  
R 2  22407303.850   119569665.9622       4245.615          48.000  
R18  22943426.302   122473548.730        2768.329          47.000  
R15  20165973.959   107760849.077         754.251          51.000  
R 1  22062249.994   117935398.506        1381.521          49.000  
R24  21644502.780   115742899.894       -1055.378          44.000  
R14  20572949.176   109665398.557       -2497.934          41.000  
R17  20539228.525   109909604.019        1079.155          52.000  
R 8  24250114.756   129858285.834       -1391.212          43.000  
G 8  24726108.712   129936580.0742      -1415.680          42.000  
R16  23362541.047   124798486.032        4260.436          42.000  
R13  24568321.869   131193453.8832      -3661.750          39.000  
> 2016  5 20 10 24 15.0000000  0 21                     
G 1  21512915.346   113051133.840       -1664.986          49.000  
G 3  21582494.791   113416768.314        2230.758          49.000  
G 7  24076869.364   126524805.668       -2565.537          42.000  
G11  22333017.418   117360803.303       -1854.018          47.000  
G17  22362150.696   117513886.367        2336.500          48.000  
G19  23824748.584   125199894.085        3128.497          44.000  
G22  22122489.650   116254464.335         364.277          49.000  
G28  20738727.554   108982749.994        2234.912          49.000  
J 1  37405115.296   196565206.676         512.722          47.000  
G30  22840082.111   120025434.282       -1984.502          43.000  
R 2  22406508.574   119565423.3512       4244.444          47.000  
R18  22942907.786   122470779.726        2769.363          46.000  
R15  20165832.543   107760095.081         753.997          50.000  
R 1  22061991.539   117934017.767        1379.390          49.000  
R24  21644700.125   115743956.397       -1057.558          44.000  
R14  20573417.540   109667895.967       -2496.522          41.000  
R17  20539027.708   109908525.390        1078.392          51.000  
R 8  24250374.677   129859678.420       -1394.143          44.000  
G 8  24726377.829   129937992.3833      -1416.928          42.000  
R16  23361743.311   124794226.612        4258.182          42.000  
R13  24569008.344   131197115.0912      -3657.655          33.000  
> 2016  5 20 10 24 16.0000000  0 21                     
G 1  21513232.539   113052800.333       -1667.670          49.000  
G 3  21582070.524   113414537.899        2230.172          48.000  
G 7  24077357.709   126527370.853       -2564.435          43.000  
G11  22333370.192   117362658.174       -1855.517          47.000  
G17  22361705.733   117511550.386        2336.036          48.000  
G19  23824153.566   125196765.385        3129.022          45.000  
G22  22122420.774   116254101.238         361.845          48.000  
G28  20738302.135   108980515.760        2233.844          49.000  
J 1  37405017.627   196564693.969         511.622          47.000  
G30  22840459.611   120027418.240       -1983.712          45.000  
R 2  22405713.385   119561180.8302       4241.044          47.000  
R18  22942388.834   122468010.273        2769.823          46.000  
R15  20165691.458   107759341.769         752.985          50.000  
R 1  22061734.061   117932639.663        1376.525          50.000  
R24  21644898.150   115745015.065       -1059.958          45.000  
R14  20573885.852   109670392.543       -2496.233          41.000  
R17  20538826.018   109907447.822        1077.087          52.000  
R 8  24250635.261   129861074.168       -1397.505          43.000  
G 8  24726647.208   129939410.8002      -1419.254          40.000  
R16  23360946.115   124789969.040        4256.707          41.000  
R13  24569693.544                       -3658.918          30.000  
> 2016  5 20 10 24 17.0000000  0 21                     
G 1  21513549.958   113054468.811       -1668.755          49.000  
G 3  21581646.047   113412308.627        2229.266          48.000  
G 7  24077845.495   126529934.622       -2563.687          42.000  
G11  22333723.628   117364515.204       -1857.713          47.000  
G17  22361261.486   117509215.070        2335.460          47.000  
G19  23823558.636   125193636.803        3128.851          44.000  
G22  22122351.654   116253740.149         360.785          48.000  
G28  20737877.048   108978282.624        2233.209          49.000  
J 1  37404920.081   196564181.486         512.586          46.000  
G30  22840837.095   120029401.166       -1983.052          45.000  
R 2  22404918.545   119556938.5712       4241.934          50.000  
R18  22941870.161   122465240.609        2769.823          47.000  
R15  20165550.792   107758589.417         752.323          49.000  
R 1  22061476.932   117931264.119        1374.883          48.000  
R24  21645096.768   115746075.831       -1059.887          45.000  
R14  20574354.216   109672888.759       -2496.060          41.000  
R17  20538625.253   109906371.406        1076.425          52.000  
R 8  24250896.857   129862472.971       -1399.352          44.000  
G 8  24726916.500   129940830.7652      -1420.046          42.000  
R16  23360149.006   124785713.255        4255.961          38.000  
R13  24570375.708                       -3657.493          33.000  
> 2016  5 20 10 24 18.0000000  0 21                     
G 1  21513867.325   113056137.782       -1669.326          48.000  
G 3  21581221.763   113410079.678        2228.774          49.000  
G 7  24078333.368   126532497.670       -2562.518          42.000  
G11  22334077.030   117366372.613       -1857.749          46.000  
G17  22360817.220   117506879.853        2334.969          48.000  
G19  23822962.432   125190508.279        3128.015          44.000  
G22  22122283.249   116253379.702         360.086          48.000  
G28  20737452.187   108976049.918        2232.239          49.000  
J 1  37404822.551   196563668.786         512.501          46.000  
G30  22841214.107   120031383.716       -1982.938          45.000  
R 2  22404123.356   119552696.3672       4241.869          49.000  
R18  22941351.349   122462470.995        2769.031          46.000  
R15  20165410.474   107757837.876         750.934          50.000  
R 1  22061219.611   117929889.496        1374.159          48.000  
R24  21645295.334   115747136.974       -1061.090          45.000  
R14  20574822.580   109675385.026       -2496.505          41.000  
R17  20538424.052   109905295.333        1075.790          53.000  
R 8  24251158.261   129863872.918       -1401.072          44.000  
G 8  24727188.199   129942250.9422      -1419.514          42.000  
R16  23359352.631   124781458.366        4254.520          43.000  
R13  24571064.939   131208099.0343      -3654.927          35.000  
> 2016  5 20 10 24 19.0000000  0 21                     
G 1  21514184.849   113057807.495       -1670.498          49.000  
G 3  21580797.984   113407851.379        2227.640          49.000  
G 7  24078820.787   126535060.528       -2562.877          43.000  
G11  22334430.519   117368230.528       -1858.091          46.000  
G17  22360372.973   117504545.187        2334.462          48.000  
G19  23822367.606   125187380.129        3127.649          45.000  
G22  22122214.757   116253020.087         358.925          48.000  
G28  20737027.466   108973818.017        2231.293          49.000  
J 1  37404725.005   196563156.216         512.137          47.000  
G30  22841591.450   120033366.450       -1982.868          44.000  
R 2  22403328.307   119548454.2292       4241.573          48.000  
R18  22940832.676   122459701.747        2769.082          47.000  
R15  20165270.035   107757087.588         749.516          51.000  
R 1  22060962.813   117928515.985        1372.916          49.000  
R24  21645493.534   115748198.709       -1062.145          43.000  
R14  20575291.100   109677881.833       -2497.363          41.000  
R17  20538222.782   109904219.948        1074.948          52.000  
R 8  24251419.648   129865274.079       -1402.286          43.000  
G 8  24727458.573   129943671.4982      -1420.896          43.000  
R16  23358556.517   124777204.617        4252.977          40.000  
R13  24571747.661   131211756.2352      -3655.366          34.000  
> 2016  5 20 10 24 20.0000000  0 21                     
G 1  21514502.810   113059477.847       -1670.345          49.000  
G 3  21580374.241   113405623.584        2227.253          48.000  
G 7  24079308.120   126537622.706       -2562.167          43.000  
G11  22334784.200   117370089.020       -1858.161          46.000  
G17  22359929.057   117502210.854        2333.813          49.000  
G19  23821771.856   125184252.191        3127.625          42.000  
G22  22122146.422   116252661.304         358.195          48.000  
G28  20736602.833   108971586.760        2230.872          49.000  
J 1  37404627.528   196562643.622         512.417          46.000  
G30  22841968.532   120035349.129       -1982.859          45.000  
R 2  22402533.641   119544211.6881       4241.348          49.000  
R18  22940313.689   122456932.881        2766.703          46.000  
R15  20165130.049   107756338.337         748.577          50.000  
R 1  22060705.929   117927143.594        1371.580          49.000  
R24  21645692.187   115749260.894       -1062.457          45.000  
R14  20575759.429   109680378.972       -2497.958          41.000  
R17  20538021.965   109903145.051        1074.508          51.000  
R 8  24251681.192   129866676.469       -1402.702          43.000  
G 8  24727728.284   129945092.1832      -1422.391          38.000  
R16  23357760.281   124772951.851        4252.217          42.000  
R13  24572434.676   131215413.1742      -3657.179          34.000  
> 2016  5 20 10 24 21.0000000  0 21                     
G 1  21514820.892   113061148.813       -1671.154          49.000  
G 3  21579950.567   113403396.393        2227.123          48.000  
G 7  24079795.993   126540184.593       -2561.584          38.000  
G11  22335137.969   117371948.074       -1858.552          46.000  
G17  22359484.826   117499876.624        2333.857          48.000  
G19  23821176.960   125181124.349        3128.204          45.000  
G22  22122078.296   116252303.362         357.566          48.000  
G28  20736178.339   108969356.028        2230.817          48.000  
J 1  37404530.033   196562131.096         512.519          47.000  
G30  22842345.823   120037331.590       -1982.004          44.000  
R 2  22401738.662   119539969.793        4241.929          48.000  
R18  22939794.824   122454163.882        2768.584          48.000  
R15  20164989.994   107755589.906         748.145          50.000  
R 1  22060449.341   117925772.274        1371.079          49.000  
R24  21645890.997   115750323.536       -1062.375          45.000  
R14  20576227.915   109682876.375       -2497.695          41.000  
R17  20537820.921   109902070.540        1074.340          52.000  
R 8  24251943.294   129868079.970       -1403.661          44.000  
G 8  24727999.844   129946513.1242      -1422.724          39.000  
R16  23356964.446   124768699.857        4251.742          42.000  
R13  24573122.163   131219069.1952      -3654.724          33.000  
> 2016  5 20 10 24 22.0000000  0 21                     
G 1  21515138.923   113062820.512       -1672.043          49.000  
G 3  21579526.771   113401169.927        2225.756          49.000  
G 7  24080283.412   126542746.048       -2561.187          43.000  
G11  22335491.999   117373807.829       -1860.128          46.000  
G17  22359040.684   117497542.502        2334.012          49.000  
G19  23820581.123   125177996.474        3127.374          43.000  
G22  22122010.554   116251946.385         356.379          48.000  
G28  20735754.141   108967125.867        2229.651          49.000  
J 1  37404432.504   196561618.682         512.577          47.000  
G30  22842723.062   120039313.996       -1982.290          45.000  
R 2  22400943.839   119535728.656        4239.158          46.000  
R18  22939276.029   122451394.875        2768.894          48.000  
R15  20164850.026   107754842.385         747.310          51.000  
R 1  22060193.207   117924402.299        1369.027          49.000  
R24  21646089.877   115751386.763       -1063.295          44.000  
R14  20576696.454   109685374.098       -2497.908          41.000  
R17  20537620.069   109900996.395        1073.765          51.000  
R 8  24252205.623   129869484.667       -1405.238          41.000  
G 8  24728270.287   129947934.6272      -1422.510          43.000  
R16  23356168.455   124764448.713        4251.119          39.000  
R13  24573805.129   131222731.9763      -3655.852          28.000  
> 2016  5 20 10 24 23.0000000  0 21                     
G 1  21515457.476   113064492.823       -1672.705          49.000  
G 3  21579103.219   113398944.145        2225.140          49.000  
G 7  24080770.710   126545307.060       -2560.514          43.000  
G11  22335845.976   117375668.120       -1860.877          45.000  
G17  22358596.087   117495208.354        2334.451          48.000  
G19  23819986.000   125174868.332        3128.576          44.000  
G22  22121943.022   116251590.354         355.475          48.000  
G28  20735329.874   108964896.068        2229.462          49.000  
J 1  37404334.975   196561106.387         512.093          47.000  
G30  22843100.405   120041296.129       -1982.697          44.000  
R 2  22400148.964   119531487.224        4240.076          49.000  
R18  22938757.164   122448625.626        2769.852          46.000  
R15  20164710.250   107754095.526         746.635          50.000  
R 1  22059936.845   117923033.610        1367.845          48.000  
R24  21646288.932   115752450.546       -1063.990          46.000  
R14  20577165.271   109687871.977       -2497.659          41.000  
R17  20537419.601   109899922.448        1074.001          52.000  
R 8  24252468.424   129870890.691       -1406.463          42.000  
G 8  24728540.644   129949356.7442      -1423.302          44.000  
R16  23355372.603   124760198.161        4250.263          41.000  
R13  24574491.027   131226387.3902      -3656.187          28.000  
> 2016  5 20 10 24 24.0000000  0 21                     
G 1  21515775.594   113066166.150       -1674.072          48.000  
G 3  21578679.947   113396719.287        2224.978          48.000  
G 7  24081257.885   126547867.320       -2558.705          42.000  
G11  22336200.128   117377529.498       -1861.810          47.000  
G17  22358152.101   117492874.140        2334.745          48.000  
G19  23819390.110   125171739.785        3128.235          44.000  
G22  22121875.211   116251235.706         353.941          49.000  
G28  20734905.572   108962666.798        2228.955          48.000  
J 1  37404237.638   196560594.276         512.287          46.000  
G30  22843477.661   120043277.711       -1980.807          45.000  
R 2  22399354.403   119527246.605        4240.938          51.000  
R18  22938239.155   122445856.041        2769.741          47.000  
R15  20164570.456   107753349.225         746.052          50.000  
R 1  22059681.304   117921666.681        1366.352          49.000  
R24  21646487.865   115753515.281       -1065.306          43.000  
R14  20577633.775   109690369.886       -2497.480          41.000  
R17  20537219.028   109898848.740        1073.410          52.000  
R 8  24252731.503   129872298.366       -1408.100          42.000  
G 8  24728811.419   129950779.8942      -1422.923          43.000  
R16  23354576.960   124755948.221        4250.249          43.000  
R13  24575173.785   131230040.0523      -3654.425          29.000  
> 2016  5 20 10 24 25.0000000  0 21                     
G 1  21516094.444   113067840.430       -1674.515          49.000  
G 3  21578256.552   113394495.167        2224.113          49.000  
G 7  24081744.868   126550426.486       -2558.918          43.000  
G11  22336554.699   117379391.899       -1862.454          49.000  
G17  22357707.801   117490539.804        2334.890          47.000  
G19  23818794.988   125168610.821        3129.504          44.000  
G22  22121807.992   116250882.237         353.204          48.000  
G28  20734481.584   108960437.916        2228.943          49.000  
J 1  37404140.073   196560082.171         512.259          47.000  
G30  22843854.743   120045258.436       -1979.880          46.000  
R 2  22398559.721   119523006.281        4240.980          50.000  
R18  22937720.203   122443085.755        2769.909          46.000  
R15  20164431.098   107752603.396         745.698          50.000  
R 1  22059425.449   117920301.407        1364.849          49.000  
R24  21646687.408   115754580.885       -1065.916          46.000  
R14  20578102.069   109692867.493       -2497.323          41.000  
R17  20537018.088   109897775.285        1073.516          51.000  
R 8  24252994.565   129873707.807       -1410.197          40.000  
G 8  24729082.211   129952203.3521      -1423.979          42.000  
R16  23353781.649   124751699.205        4249.003          42.000  
R13  24575859.788   131233703.2793      -3651.408          30.000  
> 2016  5 20 10 24 26.0000000  0 21                     
G 1  21516413.033   113069515.286       -1674.905          49.000  
G 3  21577833.314   113392271.595        2223.438          48.000  
G 7  24082231.886   126552984.965       -2557.575          44.000  
G11  22336909.270   117381254.887       -1862.798          45.000  
G17  22357263.728   117488205.385        2335.245          48.000  
G19  23818199.482   125165481.516        3130.084          44.000  
G22  22121740.949   116250529.675         352.321          49.000  
G28  20734057.474   108958209.401        2228.607          49.000  
J 1  37404042.544   196559570.036         512.314          46.000  
G30  22844231.424   120047238.718       -1979.793          45.000  
R 2  22397765.125   119518766.202        4239.411          49.000  
R18  22937201.338   122440315.198        2771.001          46.000  
R15  20164291.846   107751858.164         745.054          50.000  
R 1  22059170.432   117918937.343        1363.839          48.000  
R24  21646886.742   115755646.985       -1066.702          45.000  
R14  20578570.939   109695365.083       -2497.054          41.000  
R17  20536817.638   109896701.993        1073.363          52.000  
R 8  24253258.098   129875118.325       -1411.533          39.000  
G 8  24729353.353   129953627.717       -1425.240          42.000  
R16  23352986.373   124747450.688        4248.652          41.000  
R13  24576543.958   131237356.5772      -3652.549          33.000  
> 2016  5 20 10 24 27.0000000  0 21                     
G 1  21516731.935   113071190.885       -1676.228          49.000  
G 3  21577410.182   113390048.626        2222.144          48.000  
G 7  24082718.346   126555542.892       -2557.731          46.000  
G11  22337263.894   117383118.567       -1863.980          45.000  
G17  22356819.166   117485871.068        2334.101          48.000  
G19  23817604.552   125162352.200        3128.662          45.000  
G22  22121674.167   116250178.032         350.958          47.000  
G28  20733633.626   108955981.401        2227.594          49.000  
J 1  37403945.067   196559057.877         511.899          47.000  
G30  22844608.383   120049218.695       -1980.289          45.000  
R 2  22396970.494   119514525.959        4239.959          48.000  
R18  22936681.967   122437544.496        2770.508          46.000  
R15  20164152.436   107751113.689         744.000          50.000  
R 1  22058915.432   117917574.569        1361.834          49.000  
R24  21647086.093   115756713.703       -1066.830          44.000  
R14  20579039.494   109697862.818       -2497.798          41.000  
R17  20536617.414   109895629.090        1072.666          52.000  
R 8  24253522.033   129876530.232       -1413.205          39.000  
G 8  24729624.267   129955052.522       -1422.496          38.000  
R16  23352190.939   124743203.053        4247.546          42.000  
R13  24577224.063   131241009.2522      -3652.611          36.000  
> 2016  5 20 10 24 28.0000000  0 21                     
G 1  21517051.117   113072867.085       -1676.698          49.000  
G 3  21576987.241   113387826.365        2221.766          49.000  
G 7  24083204.840   126558100.413       -2557.729          45.000  
G11  22337618.674   117384982.751       -1863.812          45.000  
G17  22356375.390   117483536.820        2334.357          48.000  
G19  23817009.011   125159222.770        3130.090          43.000  
G22  22121607.559   116249827.263         350.809          49.000  
G28  20733209.219   108953753.873        2227.246          49.000  
J 1  37403847.520   196558545.836         511.963          47.000  
G30  22844984.784   120051198.540       -1979.635          45.000  
R 2  22396175.934   119510286.263        4239.047          48.000  
R18  22936162.980   122434773.799        2770.034          47.000  
R15  20164013.445   107750370.038         743.196          50.000  
R 1  22058660.868   117916212.982        1361.374          49.000  
R24  21647285.566   115757780.915       -1068.068          44.000  
R14  20579507.736   109700360.839       -2497.916          41.000  
R17  20536416.859   109894556.464        1072.608          51.000  
R 8  24253785.706   129877943.173       -1414.153          40.000  
G 8  24729895.740   129956478.051       -1424.197          38.000  
R16  23351395.942   124738956.164        4246.789          43.000  
R13  24577911.078   131244661.3822      -3651.082          39.000  
> 2016  5 20 10 24 29.0000000  0 21                     
G 1  21517369.968   113074543.880       -1676.129          48.000  
G 3  21576564.684   113385604.844        2221.689          48.000  
G 7  24083691.789   126560657.594       -2556.760          46.000  
G11  22337973.332   117386847.444       -1863.596          45.000  
G17  22355931.020   117481202.636        2334.470          48.000  
G19  23816413.644   125156093.273        3130.273          43.000  
G22  22121540.655   116249477.418         350.048          49.000  
G28  20732785.877   108951526.888        2227.203          49.000  
J 1  37403750.026   196558033.973         512.326          47.000  
G30  22845361.552   120053178.358       -1980.016          45.000  
R 2  22395381.460   119506046.916        4238.854          47.000  
R18  22935643.679   122432002.945        2771.487          46.000  
R15  20163874.279   107749627.231         742.741          50.000  
R 1  22058406.566   117914852.648        1360.191          44.000  
R24  21647484.900   115758848.504       -1067.537          44.000  
R14  20579976.589   109702859.277       -2498.266          41.000  
R17  20536216.443   109893484.139        1072.662          52.000  
R 8  24254049.762   129879357.237       -1414.333          39.000  
G 8  24730167.388   129957903.785       -1425.745          45.000  
R16  23350601.329   124734709.876        4246.600          43.000  
R13  24578593.364   131248313.2592      -3650.796          32.000  
> 2016  5 20 10 24 30.0000000  0 21                     
G 1  21517689.219   113076221.452       -1678.151          49.000  
G 3  21576141.952   113383384.032        2220.455          49.000  
G 7  24084178.667   126563214.323       -2557.333          44.000  
G11  22338328.532   117388712.948       -1866.319          47.000  
G17  22355487.051   117478868.522        2333.535          48.000  
G19  23815817.981   125152963.673        3129.199          44.000  
G22  22121474.327   116249128.700         348.522          49.000  
G28  20732362.360   108949300.432        2225.800          49.000  
J 1  37403652.793   196557522.271         511.250          47.000  
G30  22845738.337   120055157.947       -1979.757          45.000  
R 2  22394587.109   119501807.988        4238.371          50.000  
R18  22935124.849   122429232.027        2772.043          45.000  
R15  20163735.393   107748885.243         741.052          50.000  
R 1  22058151.967   117913493.500        1359.351          46.000  
R24  21647684.915   115759916.749       -1068.951          44.000  
R14  20580445.476   109705357.951       -2499.084          41.000  
R17  20536016.289   109892412.099        1071.593          51.000  
R 8  24254314.168   129880772.568       -1416.518          37.000  
G 8  24730438.913   129959330.399       -1426.322          37.000  
R16  23349806.402   124730464.357        4244.779          43.000  
R13  24579278.407   131251964.7972      -3650.901          33.000  
> 2016  5 20 10 24 31.0000000  0 21                     
G 1  21518008.698   113077899.647       -1678.361          49.000  
G 3  21575719.674   113381163.895        2221.147          44.000  
G 7  24084664.883   126565770.585       -2556.505          44.000  
G11  22338683.748   117390578.938       -1866.260          47.000  
G17  22355042.699   117476534.568        2334.073          48.000  
G19  23815222.335   125149834.136        3129.443          45.000  
G22  22121408.208   116248780.740         347.579          48.000  
G28  20731938.564   108947074.522        2225.708          48.000  
J 1  37403555.456   196557010.534         512.747          46.000  
G30  22846114.930   120057137.330       -1978.802          45.000  
R 2  22393792.792   119497569.248        4237.808          45.000  
R18  22934605.897   122426461.204        2770.792          48.000  
R15  20163596.699   107748144.132         740.547          51.000  
R 1  22057897.857   117912135.648        1357.063          49.000  
R24  21647884.807   115760985.477       -1068.506          45.000  
R14  20580914.014   109707856.865       -2499.092          41.000  
R17  20535815.454   109891340.482        1071.532          52.000  
R 8  24254578.713   129882189.155       -1416.132          34.000  
G 8  24730710.247   129960756.948       -1427.731          42.000  
R16  23349011.946   124726219.655        4244.830          42.000  
R13  24579962.281   131255615.6672      -3651.395          36.000  
> 2016  5 20 10 24 32.0000000  0 21                     
G 1  21518328.194   113079578.367       -1678.732          49.000  
G 3  21575297.362   113378944.304        2219.670          48.000  
G 7  24085151.168   126568326.578       -2555.058          46.000  
G11  22339038.843   117392445.351       -1866.084          47.000  
G17  22354598.643   117474200.911        2333.793          48.000  
G19  23814626.498   125146704.803        3129.242          44.000  
G22  22121341.862   116248433.556         347.505          48.000  
G28  20731514.995   108944849.244        2225.330          49.000  
J 1  37403457.927   196556499.035         511.668          48.000  
G30  22846491.803   120059116.954       -1979.338          44.000  
R 2  22392998.546   119493330.677        4238.629          51.000  
R18  22934086.526   122423690.547        2770.966          47.000  
R15  20163458.004   107747404.067         740.025          50.000  
R 1  22057644.253   117910778.771        1356.838          48.000  
R24  21648084.629   115762054.537       -1068.800          45.000  
R14  20581383.006   109710356.345       -2499.895          41.000  
R17  20535615.754   109890269.242        1071.319          52.000  
R 8  24254843.433   129883606.760       -1417.762          34.000  
G 8  24730982.016   129962183.943       -1426.558          42.000  
R16  23348217.263   124721975.614        4245.178          40.000  
R13  24580643.922                       -3648.629          35.000  
> 2016  5 20 10 24 33.0000000  0 21                     
G 1  21518647.533   113081256.940       -1678.428          49.000  
G 3  21574874.647   113376725.046        2218.990          48.000  
G 7  24085637.436   126570882.770       -2556.989          45.000  
G11  22339393.989   117394311.477       -1865.939          47.000  
G17  22354154.623   117471867.182        2333.626          48.000  
G19  23814031.358   125143575.526        3129.602          43.000  
G22  22121276.110   116248086.562         346.891          49.000  
G28  20731091.443   108942624.187        2224.847          48.000  
J 1  37403360.624   196555987.315         511.778          47.000  
G30  22846868.727   120061096.961       -1980.571          45.000  
R 2  22392204.020   119489092.215        4237.299          50.000  
R18  22933567.836   122420920.207        2769.726          47.000  
R15  20163320.078   107746664.878         738.878          51.000  
R 1  22057390.597   117909422.251        1356.382          47.000  
R24  21648284.452   115763123.177       -1068.599          45.000  
R14  20581852.016   109712856.497       -2500.887          41.000  
R17  20535415.652   109889198.000        1071.480          52.000  
R 8  24255108.328   129885024.512       -1417.881          37.000  
G 8  24731253.559   129963610.574       -1427.140          41.000  
R16  23347422.807   124717732.061        4243.414          42.000  
R13  24581326.976   131262898.4963      -3649.364          39.000  
> 2016  5 20 10 24 34.0000000  0 21                     
G 1  21518966.418   113082935.355       -1678.786          48.000  
G 3  21574452.876   113374506.454        2218.090          49.000  
G 7  24086124.157   126573439.826       -2558.301          46.000  
G11  22339748.700   117396177.175       -1865.813          45.000  
G17  22353710.602   117469533.629        2332.817          49.000  
G19  23813435.677   125140446.764        3127.759          44.000  
G22  22121210.270   116247739.827         346.124          49.000  
G28  20730667.996   108940399.667        2223.639          48.000  
J 1  37403263.392   196555475.983         510.690          47.000  
G30  22847245.722   120063078.158       -1982.366          44.000  
R 2  22391409.948   119484854.206        4236.153          47.000  
R18  22933048.936   122418150.568        2769.144          47.000  
R15  20163182.134   107745927.047         736.769          49.000  
R 1  22057136.679   117908066.032        1355.246          48.000  
R24  21648484.588   115764191.215       -1068.527          45.000  
R14  20582321.165   109715358.070       -2502.819          42.000  
R17  20535215.237   109888126.935        1070.328          51.000  
R 8  24255373.937   129886442.126       -1418.458          35.000  
G 8  24731524.858   129965036.974       -1426.019          42.000  
R16  23346628.456   124713488.674        4241.847          39.000  
R13  24582014.881   131266571.8833      -3651.222          35.000  
> 2016  5 20 10 24 35.0000000  0 21                     
G 1  21519285.914   113084613.362       -1677.653          49.000  
G 3  21574030.633   113372288.451        2217.773          49.000  
G 7  24086610.896   126575997.742       -2558.059          47.000  
G11  22340103.812   117398042.352       -1865.151          47.000  
G17  22353266.407   117467199.874        2334.192          48.000  
G19  23812840.468   125137318.093        3128.784          44.000  
G22  22121144.256   116247393.215         346.548          49.000  
G28  20730244.706   108938175.375        2224.158          49.000  
J 1  37403166.142   196554964.934         510.976          46.000  
G30  22847622.943   120065060.349       -1982.166          45.000  
R 2  22390615.614   119480616.794        4236.740          49.000  
R18  22932530.089   122415381.338        2768.923          50.000  
R15  20163044.085   107745190.204         736.608          51.000  
R 1  22056882.865   117906710.093        1355.083          48.000  
R24  21648684.271   115765258.467       -1066.857          45.000  
R14  20582790.663   109717860.885       -2503.629          42.000  
R17  20535015.118   109887055.622        1071.533          52.000  
R 8  24255635.656   129887859.543       -1418.004          37.000  
G 8  24731796.296   129966463.156       -1426.204          43.000  
R16  23345834.139   124709245.269        4243.653          39.000  
R13  24582691.513   131270224.0782      -3652.269          33.000  
> 2016  5 20 10 24 36.0000000  0 21                     
G 1  21519605.445   113086291.173       -1677.554          48.000  
G 3  21573608.599   113370071.204        2216.897          48.000  
G 7  24087098.036   126578556.708       -2559.351          42.000  
G11  22340458.627   117399907.035       -1863.052          46.000  
G17  22352822.089   117464866.130        2333.904          48.000  
G19  23812244.979   125134189.714        3128.796          42.000  
G22  22121078.102   116247046.886         346.237          48.000  
G28  20729821.748   108935951.535        2223.761          49.000  
J 1  37403069.066   196554454.233         510.670          47.000  
G30  22848000.112   120067043.676       -1983.267          45.000  
R 2  22389821.698   119476380.042        4237.427          50.000  
R18  22932011.189   122412612.604        2768.235          47.000  
R15  20162906.438   107744454.561         735.101          50.000  
R 1  22056629.331   117905354.506        1355.536          48.000  
R24  21648883.535   115766325.157       -1066.509          45.000  
R14  20583260.336   109720365.124       -2505.135          40.000  
R17  20534815.190   109885984.256        1071.560          53.000  
R 8  24255901.580   129889276.699       -1417.064          35.000  
G 8  24732067.821   129967889.293       -1425.177          40.000  
R16  23345039.735   124705001.947        4243.707          38.000  
R13  24583380.081   131273876.9662      -3654.166          35.000  
> 2016  5 20 10 24 37.0000000  0 21                     
G 1  21519924.784   113087968.719       -1677.250          49.000  
G 3  21573186.967   113367854.663        2216.372          48.000  
G 7  24087585.194   126581116.507       -2559.472          41.000  
G11  22340813.303   117401771.350       -1863.589          46.000  
G17  22352378.190   117462532.437        2333.667          48.000  
G19  23811649.682   125131061.621        3128.192          43.000  
G22  22121012.018   116246700.833         346.365          48.000  
G28  20729398.859   108933728.156        2223.474          49.000  
J 1  37402972.026   196553943.984         510.607          47.000  
G30  22848377.613   120069028.339       -1985.444          45.000  
R 2  22389028.010   119472144.162        4237.047          49.000  
R18  22931492.203   122409844.492        2767.764          48.000  
R15  20162768.599   107743720.199         733.970          50.000  
R 1  22056376.041   117903999.210        1355.396          47.000  
R24  21649082.956   115767391.136       -1065.264          45.000  
R14  20583730.253   109722870.895       -2506.252          41.000  
R17  20534615.193   109884912.877        1071.591          52.000  
R 8  24256167.189   129890693.693       -1416.985          36.000  
G 8  24732339.015   129969314.764       -1428.157          39.000  
R16  23344245.436   124700758.702        4243.354          42.000  
R13  24584062.664   131277530.8792      -3654.558          38.000  
> 2016  5 20 10 24 38.0000000  0 21                     
G 1  21520244.001   113089645.908       -1676.920          49.000  
G 3  21572765.143   113365638.701        2215.714          49.000  
G 7  24088072.387   126583677.460       -2560.769          44.000  
G11  22341167.822   117403635.064       -1863.155          46.000  
G17  22351934.327   117460198.761        2333.891          48.000  
G19  23811054.909   125127934.041        3127.228          42.000  
G22  22120946.370   116246354.930         346.132          47.000  
G28  20728975.744   108931505.167        2223.126          49.000  
J 1  37402874.584   196553434.070         510.346          46.000  
G30  22848755.480   120071014.172       -1986.027          45.000  
R 2  22388233.973   119467908.980        4236.054          46.000  
R18  22930973.809   122407077.013        2767.724          49.000  
R15  20162631.248   107742987.078         732.626          49.000  
R 1  22056122.437   117902644.078        1355.292          48.000  
R24  21649282.395   115768456.367       -1064.637          45.000  
R14  20584200.676   109725378.100       -2507.595          41.000  
R17  20534414.725   109883841.489        1071.581          52.000  
R 8  24256432.537   129892110.387       -1416.299          34.000  
G 8  24732610.314   129970739.959       -1425.245          44.000  
R16  23343451.260   124696515.485        4242.496          43.000  
R13  24584748.614   131281185.6232      -3657.792          36.000  
> 2016  5 20 10 24 39.0000000  0 21                     
G 1  21520562.939   113091322.789       -1676.453          49.000  
G 3  21572343.511   113363423.358        2215.245          48.000  
G 7  24088559.632   126586239.366       -2561.771          43.000  
G11  22341522.462   117405498.243       -1862.844          46.000  
G17  22351489.974   117457865.198        2333.380          48.000  
G19  23810459.927   125124806.725        3126.550          43.000  
G22  22120880.531   116246009.140         345.939          48.000  
G28  20728553.135   108929282.613        2222.290          49.000  
J 1  37402777.735   196552924.446         509.440          46.000  
G30  22849133.696   120073001.288       -1987.649          44.000  
R 2  22387440.564   119463673.619        4234.355          48.000  
R18  22930455.328   122404310.251        2766.822          48.000  
R15  20162494.124   107742255.237         731.222          50.000  
R 1  22055868.886   117901289.167        1354.893          48.000  
R24  21649481.624   115769520.888       -1063.712          45.000  
R14  20584671.587   109727886.755       -2509.031          41.000  
R17  20534214.222   109882770.106        1071.376          52.000  
R 8  24256697.938   129893526.968       -1417.221          35.000  
G 8  24732881.211   129972164.918       -1424.407          44.000  
R16  23342656.908   124692272.416        4244.119          42.000  
R13  24585435.298   131284841.0672      -3658.721          31.000  
> 2016  5 20 10 24 40.0000000  0 21                     
G 1  21520881.754   113092999.408       -1675.831          48.000  
G 3  21571921.914   113361208.682        2214.688          49.000  
G 7  24089047.470   126588802.264       -2563.359          42.000  
G11  22341877.208   117407360.923       -1862.080          47.000  
G17  22351046.006   117455531.639        2334.231          48.000  
G19  23809864.752   125121679.758        3127.655          43.000  
G22  22120814.778   116245663.565         345.687          48.000  
G28  20728130.159   108927060.534        2222.308          49.000  
J 1  37402680.781   196552415.186         509.388          46.000  
G30  22849511.982   120074989.513       -1988.524          44.000  
R 2  22386646.736   119459439.099        4235.162          48.000  
R18  22929937.196   122401544.082        2766.306          48.000  
R15  20162357.297   107741524.681         730.103          50.000  
R 1  22055615.596   117899934.520        1355.199          48.000  
R24  21649680.661   115770584.767       -1063.329          45.000  
R14  20585142.726   109730396.861       -2510.511          41.000  
R17  20534013.911   109881698.764        1071.541          52.000  
R 8  24256961.419   129894943.086       -1415.091          32.000  
G 8  24733152.195   129973589.533       -1422.171          37.000  
R16  23341862.330   124688029.571        4243.454          40.000  
R13  24586118.090   131288482.7423      -3655.676          38.000  
> 2016  5 20 10 24 41.0000000  0 21                     
G 1  21521200.884   113094675.922       -1677.336          48.000  
G 3  21571500.910   113358994.457        2213.866          49.000  
G 7  24089535.273   126591365.394       -2562.862          46.000  
G11  22342231.500   117409223.372       -1863.302          47.000  
G17  22350601.793   117453198.117        2332.941          48.000  
G19  23809269.560   125118553.076        3126.025          42.000  
G22  22120749.165   116245318.251         344.786          48.000  
G28  20727707.375   108924838.793        2220.837          49.000  
J 1  37402583.793   196551906.025         508.966          47.000  
G30  22849890.320   120076978.386       -1988.274          44.000  
R 2  22385853.379   119455204.881        4234.600          50.000  
R18  22929419.274   122398778.300        2765.908          48.000  
R15  20162220.801   107740795.101         728.889          50.000  
R 1  22055362.445   117898580.341        1353.167          50.000  
R24  21649879.262   115771648.220       -1064.372          44.000  
R14  20585613.724   109732907.863       -2511.285          41.000  
R17  20533813.670   109880627.411        1070.641          52.000  
R 8  24257221.217   129896359.545       -1417.254          33.000  
G 8  24733423.197   129975015.6473      -1424.923          39.000  
R16  23341068.205   124683786.993        4240.919          42.000  
R13  24586799.190   131292139.2142      -3655.250          38.000  
> 2016  5 20 10 24 42.0000000  0 21                     
G 1  21521520.153   113096353.750       -1678.065          48.000  
G 3  21571079.696   113356780.956        2213.539          48.000  
G 7  24090022.902   126593927.353       -2561.201          47.000  
G11  22342585.983   117411087.075       -1863.836          47.000  
G17  22350157.895   117450864.997        2333.210          48.000  
G19  23808674.438   125115426.321        3126.904          42.000  
G22  22120683.884   116244974.311         343.960          48.000  
G28  20727284.504   108922617.824        2220.972          49.000  
J 1  37402487.049   196551396.799         509.578          48.000  
G30  22850268.745   120078966.463       -1987.174          45.000  
R 2  22385060.005   119450970.753        4233.701          48.000  
R18  22928900.967   122396012.276        2766.574          47.000  
R15  20162084.463   107740066.385         728.397          51.000  
R 1  22055109.086   117897227.877        1352.619          48.000  
R24  21650078.264   115772712.971       -1064.719          45.000  
R14  20586084.776   109735418.580       -2510.645          41.000  
R17  20533613.499   109879556.840        1070.557          52.000  
R 8  24257486.059   129897778.035       -1417.638          34.000  
G 8  24733694.147   129976440.8272      -1426.494          37.000  
R16  23340274.186   124679545.758        4241.428          43.000  
R13  24587484.599   131295778.9803      -3655.622          40.000  
> 2016  5 20 10 24 43.0000000  0 21                     
G 1  21521839.544   113098032.152       -1678.672          48.000  
G 3  21570658.483   113354567.786        2213.129          48.000  
G 7  24090510.112   126596488.484       -2561.327          44.000  
G11  22342940.886   117412951.268       -1864.629          47.000  
G17  22349714.223   117448531.958        2332.912          48.000  
G19  23808079.612   125112299.453        3127.539          44.000  
G22  22120618.167   116244631.073         342.650          48.000  
G28  20726862.121   108920397.297        2220.117          49.000  
J 1  37402390.043   196550887.364         509.424          48.000  
G30  22850647.275   120080954.097       -1987.536          45.000  
R 2  22384266.631   119446736.628        4235.538          46.000  
R18  22928382.766   122393246.241        2766.016          47.000  
R15  20161948.316   107739338.397         727.336          51.000  
R 1  22054856.563   117895876.488        1350.993          49.000  
R24  21650278.017   115773778.186       -1065.586          46.000  
R14  20586555.792   109737929.248       -2511.226          41.000  
R17  20533413.694   109878486.639        1069.932          51.000  
R 8  24257750.762   129899197.848       -1420.085          33.000  
G 8  24733965.812   129977866.7523      -1427.002          43.000  
R16  23339480.410   124675305.371        4240.064          40.000  
R13  24588172.469   131299433.3992      -3653.424          39.000  
> 2016  5 20 10 24 44.0000000  0 21                     
G 1  21522159.005   113099710.992       -1679.397          48.000  
G 3  21570237.514   113352355.031        2212.261          48.000  
G 7  24090997.532   126599048.960       -2560.712          45.000  
G11  22343295.614   117414815.768       -1864.446          47.000  
G17  22349270.045   117446198.971        2332.837          48.000  
G19  23807484.315   125109172.639        3126.776          44.000  
G22  22120553.618   116244288.453         342.256          48.000  
G28  20726439.843   108918177.156        2219.727          49.000  
J 1  37402293.439   196550377.766         509.396          48.000  
G30  22851025.474   120082941.427       -1987.741          46.000  
R 2  22383472.838   119442502.244        4234.847          50.000  
R18  22927864.390   122390480.092        2766.720          47.000  
R15  20161812.117   107738611.200         726.560          50.000  
R 1  22054603.780   117894526.030        1349.773          48.000  
R24  21650477.473   115774843.605       -1065.535          46.000  
R14  20587026.773   109740440.055       -2511.321          41.000  
R17  20533213.592   109877416.683        1069.538          52.000  
R 8  24258015.063   129900618.611       -1420.979          35.000  
G 8  24734238.820   129979292.2892      -1425.441          41.000  
R16  23338686.670   124671065.657        4238.950          41.000  
R13  24588855.331   131303086.9882      -3653.438          38.000  
> 2016  5 20 10 24 45.0000000  0 21                     
G 1  21522478.589   113101390.663       -1680.367          48.000  
G 3  21569816.719   113350143.135        2211.122          48.000  
G 7  24091484.567   126601609.287       -2560.471          42.000  
G11  22343650.604   117416681.075       -1865.826          47.000  
G17  22348826.268   117443866.394        2332.605          48.000  
G19  23806889.088   125106046.107        3126.617          45.000  
G22  22120488.093   116243946.928         340.745          48.000  
G28  20726017.653   108915957.833        2218.805          49.000  
J 1  37402196.520   196549868.499         508.922          48.000  
G30  22851403.742   120084928.921       -1987.752          45.000  
R 2  22382679.534   119438268.478        4232.858          48.000  
R18  22927346.240   122387714.196        2766.311          46.000  
R15  20161676.616   107737885.164         725.273          51.000  
R 1  22054351.083   117893176.922        1348.359          49.000  
R24  21650676.510   115775909.716       -1066.329          45.000  
R14  20587497.912   109742951.451       -2511.683          41.000  
R17  20533013.857   109876347.299        1069.009          52.000  
R 8  24258282.627   129902040.665       -1423.998          35.000  
G 8  24734507.309   129980718.3832      -1425.649          41.000  
R16  23337892.964   124666826.990        4238.264          43.000  
R13  24589539.886   131306740.5372      -3653.853          40.000  
> 2016  5 20 10 24 46.0000000  0 21                     
G 1  21522798.469   113103070.895       -1680.515          48.000  
G 3  21569395.663   113347931.936        2210.848          48.000  
G 7  24091971.969   126604169.402       -2560.266          47.000  
G11  22344005.838   117418546.857       -1866.113          47.000  
G17  22348382.370   117441533.929        2332.210          48.000  
G19  23806294.542   125102919.477        3126.892          43.000  
G22  22120423.108   116243606.246         340.486          48.000  
G28  20725594.939   108913739.041        2218.365          48.000  
J 1  37402099.393   196549359.395         508.930          47.000  
G30  22851781.889   120086916.440       -1987.767          45.000  
R 2  22381885.863   119434035.033        4233.195          47.000  
R18  22926828.265   122384948.417        2765.418          48.000  
R15  20161541.150   107737160.005         724.527          51.000  
R 1  22054098.840   117891828.956        1347.720          48.000  
R24  21650876.088   115776976.236       -1066.427          45.000  
R14  20587969.417   109745463.274       -2512.333          41.000  
R17  20532813.895   109875278.205        1068.595          51.000  
R 8  24258551.936   129903463.776       -1425.217          38.000  
G 8  24734778.939   129982144.9522      -1426.141          42.000  
R16  23337100.008   124662588.991        4237.499          42.000  
R13  24590223.324   131310393.8242      -3653.115          41.000  
> 2016  5 20 10 24 47.0000000  0 21                     
G 1  21523117.982   113104751.500       -1680.403          48.000  
G 3  21568975.130   113345721.555        2210.143          48.000  
G 7  24092459.005   126606729.631       -2560.476          45.000  
G11  22344360.688   117420412.872       -1866.045          46.000  
G17  22347937.983   117439201.472        2332.612          48.000  
G19  23805699.786   125099792.924        3126.727          44.000  
G22  22120358.839   116243266.370         339.409          48.000  
G28  20725172.835   108911520.724        2218.353          48.000  
J 1  37402002.666   196548850.573         508.913          47.000  
G30  22852160.174   120088904.339       -1987.961          46.000  
R 2  22381092.384   119429802.296        4230.441          47.000  
R18  22926310.709   122382182.665        2765.130          48.000  
R15  20161405.510   107736435.782         723.990          51.000  
R 1  22053846.807   117890481.989        1345.750          45.000  
R24  21651075.370   115778042.872       -1066.022          45.000  
R14  20588440.921   109747975.803       -2512.888          41.000  
R17  20532613.898   109874209.245        1069.221          51.000  
R 8  24258817.110   129904887.544       -1422.688          36.000  
G 8  24735050.290   129983571.8412      -1427.400          42.000  
R16  23336306.914   124658351.392        4238.101          42.000  
R13  24590905.906   131314047.1852      -3652.851          39.000  
> 2016  5 20 10 24 48.0000000  0 21                     
G 1  21523438.124   113106432.199       -1680.720          48.000  
G 3  21568554.580   113343511.811        2209.889          48.000  
G 7  24092946.110   126609290.410       -2561.153          44.000  
G11  22344715.922   117422278.894       -1866.056          47.000  
G17  22347494.171   117436869.082        2331.979          48.000  
G19  23805105.257   125096666.563        3126.538          44.000  
G22  22120294.064   116242926.969         338.671          48.000  
G28  20724750.715   108909302.913        2217.395          49.000  
J 1  37401905.538   196548342.062         508.021          47.000  
G30  22852538.652   120090892.927       -1988.949          46.000  
R 2  22380299.516   119425569.842        4231.287          48.000  
R18  22925792.019   122379417.301        2765.165          48.000  
R15  20161270.236   107735712.686         722.480          51.000  
R 1  22053594.808   117889135.656        1345.833          48.000  
R24  21651274.756   115779109.355       -1066.567          45.000  
R14  20588912.356   109750489.370       -2514.386          41.000  
R17  20532413.953   109873140.484        1068.516          51.000  
R 8  24259082.876   129906311.834       -1425.196          35.000  
G 8  24735321.851   129984998.7762      -1426.714          43.000  
R16  23335513.609   124654114.217        4237.180          40.000  
R13  24591591.613   131317700.9232      -3653.076          40.000  
> 2016  5 20 10 24 49.0000000  0 21                     
G 1  21523757.794   113108112.898       -1680.992          48.000  
G 3  21568134.379   113341302.804        2208.646          48.000  
G 7  24093433.373   126611851.480       -2561.307          45.000  
G11  22345070.894   117424144.781       -1866.301          47.000  
G17  22347050.290   117434536.641        2332.311          49.000  
G19  23804510.292   125093540.274        3126.251          44.000  
G22  22120229.777   116242588.009         338.014          48.000  
G28  20724329.013   108907085.473        2216.754          49.000  
J 1  37401808.916   196547833.748         507.948          47.000  
G30  22852917.147   120092882.168       -1989.729          46.000  
R 2  22379506.386   119421337.854        4231.218          49.000  
R18  22925274.289   122376652.250        2764.732          48.000  
R15  20161135.572   107734990.574         721.250          51.000  
R 1  22053343.106   117887789.908        1344.830          49.000  
R24  21651474.020   115780175.510       -1066.499          45.000  
R14  20589383.984   109753003.882       -2515.293          41.000  
R17  20532214.462   109872071.772        1068.276          52.000  
R 8  24259349.202   129907736.191       -1423.883          33.000  
G 8  24735592.259   129986426.1772      -1424.666          43.000  
R16  23334720.759   124649877.215        4236.676          43.000  
R13  24592277.563   131321354.9042      -3653.268          37.000  
> 2016  5 20 10 24 50.0000000  0 21                     
G 1  21524077.779   113109793.540       -1680.281          48.000  
G 3  21567714.212   113339094.346        2208.284          48.000  
G 7  24093920.862   126614413.028       -2562.224          42.000  
G11  22345425.867   117426010.426       -1865.562          46.000  
G17  22346607.002   117432204.177        2332.435          49.000  
G19  23803914.559   125090414.044        3126.471          44.000  
G22  22120165.456   116242249.386         338.860          48.000  
G28  20723907.241   108904868.400        2217.004          49.000  
J 1  37401712.225   196547325.650         507.873          47.000  
G30  22853295.957   120094872.040       -1989.978          45.000  
R 2  22378713.413   119417106.328        4231.575          49.000  
R18  22924757.186   122373887.508        2764.742          49.000  
R15  20161000.246   107734269.454         720.955          50.000  
R 1  22053091.736   117886444.655        1345.807          49.000  
R24  21651673.528   115781241.291       -1066.107          45.000  
R14  20589855.942   109755519.362       -2516.191          41.000  
R17  20532014.884   109871003.029        1069.032          52.000  
R 8  24259615.125   129909160.800       -1424.936          33.000  
G 8  24735868.165   129987863.9753      -1427.056          36.000  
R16  23333927.611   124645640.429        4236.957          40.000  
R13  24592961.158   131325009.343       -3653.182          40.000  
> 2016  5 20 10 24 51.0000000  0 21                     
G 1  21524397.589   113111474.217       -1680.767          48.000  
G 3  21567293.819   113336886.594        2207.379          48.000  
G 7  24094408.404   126616975.120       -2563.082          43.000  
G11  22345780.944   117427875.932       -1865.726          47.000  
G17  22346163.034   117429871.767        2332.443          48.000  
G19  23803319.978   125087288.167        3125.427          42.000  
G22  22120101.378   116241911.254         337.852          48.000  
G28  20723485.574   108902651.862        2216.333          49.000  
J 1  37401615.655   196546817.884         507.368          47.000  
G30  22853674.644   120096862.786       -1990.983          45.000  
R 2  22377920.685   119412875.337        4230.209          49.000  
R18  22924238.897   122371123.040        2765.049          48.000  
R15  20160865.338   107733549.472         719.423          50.000  
R 1  22052839.981   117885099.970        1344.646          46.000  
R24  21651872.374   115782306.695       -1064.938          45.000  
R14  20590328.023   109758036.023       -2517.182          41.000  
R17  20531815.079   109869934.344        1068.829          52.000  
R 8  24259881.643   129910585.594       -1425.081          36.000  
G 8  24736139.044   129989290.8252      -1429.740          38.000  
R16  23333134.342   124641403.855        4236.407          42.000  
R13  24593644.509   131328673.2213      -3654.774          32.000  
> 2016  5 20 10 24 52.0000000  0 21                     
G 1  21524717.626   113113154.504       -1680.626          49.000  
G 3  21566873.949   113334679.180        2207.111          48.000  
G 7  24094896.085   126619537.469       -2562.964          43.000  
G11  22346135.933   117429740.931       -1865.133          46.000  
G17  22345719.275   117427539.053        2332.583          48.000  
G19  23802725.152   125084162.059        3125.482          43.000  
G22  22120036.690   116241573.202         337.411          47.000  
G28  20723063.401   108900435.371        2215.979          48.000  
J 1  37401519.103   196546310.030         507.615          48.000  
G30  22854053.122   120098853.960       -1991.886          44.000  
R 2  22377127.677                        4231.885          47.000  
R18  22923720.940   122368358.758        2764.254          48.000  
R15  20160730.815   107732830.257         718.409          51.000  
R 1  22052588.786   117883755.527        1343.849          49.000  
R24  21652071.166   115783371.430       -1063.867          45.000  
R14  20590800.592   109760553.393       -2517.763          41.000  
R17  20531615.501   109868865.350        1068.784          52.000  
R 8  24260144.984   129912010.211       -1424.073          37.000  
G 8  24736406.870   129990695.4683      -1425.057          42.000  
R16  23332341.439   124637167.299        4236.817          33.000  
R13  24594326.515                       -3654.552          32.000  
> 2016  5 20 10 24 53.0000000  0 21                     
G 1  21525036.983   113114834.828       -1680.270          48.000  
G 3  21566453.940   113332472.311        2206.176          48.000  
G 7  24095384.045   126622100.195       -2562.894          42.000  
G11  22346490.906   117431605.761       -1864.798          46.000  
G17  22345276.039   117425206.493        2332.121          49.000  
G19  23802130.414   125081036.278        3125.482          42.000  
G22  22119972.317   116241235.456         337.587          47.000  
G28  20722641.193   108898219.326        2215.820          48.000  
J 1  37401422.307   196545802.315         507.511          47.000  
G30  22854431.983   120100845.759       -1991.762          44.000  
R 2  22376334.896   119404409.6463       4229.166          45.000  
R18  22923203.419   122365594.850        2764.405          45.000  
R15  20160596.657   107732112.123         717.494          50.000  
R 1  22052337.153   117882411.593        1343.151          48.000  
R24  21652270.116   115784435.943       -1064.000          44.000  
R14  20591272.970   109763071.735       -2518.972          41.000  
R17  20531415.923   109867796.550        1068.751          52.000  
R 8  24260413.124   129913435.233       -1425.220          38.000  
G 8  24736679.303   129992121.7102      -1426.023          41.000  
R16  23331548.867                        4234.237          34.000  
R13  24595012.955   131335980.6292      -3653.480          35.000  
> 2016  5 20 10 24 54.0000000  0 21                     
G 1  21525356.758   113116515.168       -1679.901          48.000  
G 3  21566033.722   113330265.902        2206.656          48.000  
G 7  24095871.447   126624663.307       -2562.807          42.000  
G11  22346845.599   117433470.413       -1864.072          47.000  
G17  22344831.634   117422874.059        2332.804          48.000  
G19  23801535.885   125077910.757        3126.385          44.000  
G22  22119908.309   116240898.095         337.513          48.000  
G28  20722219.752   108896003.802        2215.332          48.000  
J 1  37401326.104   196545294.703         508.356          47.000  
G30  22854811.473   120102838.290       -1992.180          44.000  
R 2  22375542.098   119400179.3342       4230.884          49.000  
R18  22922685.619   122362831.498        2763.975          45.000  
R15  20160462.203   107731395.174         716.688          51.000  
R 1  22052085.905   117881068.109        1343.618          49.000  
R24  21652469.084   115785500.107       -1063.484          45.000  
R14  20591745.696   109765591.009       -2519.268          41.000  
R17  20531216.380   109866727.987        1068.654          52.000  
R 8  24260675.767   129914860.404       -1424.516          38.000  
G 8  24736950.061   129993547.7522      -1426.308          39.000  
R16  23330754.027   124628689.5793       4236.741          40.000  
R13  24595696.986   131339632.8412      -3655.793          32.000  
> 2016  5 20 10 24 55.0000000  0 21                     
G 1  21525676.551   113118195.504       -1680.542          49.000  
G 3  21565613.991   113328059.896        2206.396          49.000  
G 7  24096359.582   126627226.528       -2563.104          42.000  
G11  22347200.501   117435334.873       -1864.370          46.000  
G17  22344387.718   117420541.788        2331.968          48.000  
G19  23800941.566   125074785.579        3124.561          43.000  
G22  22119844.092   116240560.977         336.962          47.000  
G28  20721798.400   108893788.694        2214.838          48.000  
J 1  37401229.290   196544787.172         507.550          48.000  
G30  22855190.981   120104831.318       -1993.329          44.000  
R 2  22374749.806   119395949.2842       4230.016          49.000  
R18  22922167.871   122360068.633        2762.596          49.000  
R15  20160328.203   107730679.358         715.071          50.000  
R 1  22051834.535   117879725.065        1343.220          49.000  
R24  21652667.946   115786564.048       -1063.936          44.000  
R14  20592218.230   109768111.155       -2520.583          41.000  
R17  20531016.330   109865659.610        1068.070          51.000  
R 8  24260944.937   129916285.908       -1425.768          39.000  
G 8  24737222.808   129994973.3932      -1424.983          42.000  
R16  23329961.753   124624454.4692       4234.317          42.000  
R13  24596382.378   131343288.1232      -3653.252          35.000  
> 2016  5 20 10 24 56.0000000  0 21                     
G 1  21525996.413   113119875.774       -1680.549          48.000  
G 3  21565194.523   113325854.442        2205.187          49.000  
G 7  24096847.281   126629790.148       -2563.696          45.000  
G11  22347555.334   117437199.015       -1863.296          46.000  
G17  22343943.663   117418209.600        2332.746          48.000  
G19  23800346.880   125071660.725        3124.908          39.000  
G22  22119780.137   116240224.125         336.716          49.000  
G28  20721376.628   108891574.083        2214.728          48.000  
J 1  37401132.633   196544279.699         507.554          47.000  
G30  22855570.558   120106825.077       -1993.969          45.000  
R 2  22373957.112   119391719.4462       4229.839          49.000  
R18  22921650.245   122357306.108        2762.416          47.000  
R15  20160194.622   107729964.657         714.127          51.000  
R 1  22051583.496   117878382.451        1342.240          49.000  
R24  21652866.635   115787627.516       -1063.232          42.000  
R14  20592690.887   109770632.261       -2521.769          41.000  
R17  20530816.717   109864591.296        1068.433          52.000  
R 8  24261211.122   129917711.543       -1426.223          40.000  
G 8  24737494.804   129996398.9592      -1426.031          39.000  
R16  23329166.581   124620219.6622       4233.042          39.000  
R13  24597067.351   131346944.4242      -3657.093          38.000  
> 2016  5 20 10 24 57.0000000  0 21                     
G 1  21526316.241   113121555.870       -1680.266          48.000  
G 3  21564774.514   113323649.318        2204.578          49.000  
G 7  24097335.084   126632354.199       -2564.261          46.000  
G11  22347909.818   117439062.864       -1863.828          46.000  
G17  22343499.502   117415877.605        2331.247          47.000  
G19  23799752.089   125068536.244        3123.950          43.000  
G22  22119716.095   116239887.458         336.071          49.000  
G28  20720955.554   108889359.837        2213.953          48.000  
J 1  37401036.064   196543772.234         507.399          46.000  
G30  22855949.681   120108819.559       -1994.817          44.000  
R 2  22373164.122   119387489.6602       4229.213          47.000  
R18  22921132.567   122354544.126        2762.503          45.000  
R15  20160061.285   107729251.086         713.108          50.000  
R 1  22051332.126   117877040.040        1342.114          47.000  
R24  21653065.567   115788690.522       -1063.280          46.000  
R14  20593164.032   109773154.360       -2522.665          41.000  
R17  20530617.628   109863523.090        1067.602          52.000  
R 8  24261478.442   129919137.220       -1426.514          41.000  
G 8  24737766.120   129997824.2122      -1426.142          41.000  
R16  23328375.545   124615985.3442       4234.943          42.000  
R13  24597757.176   131350600.2902      -3657.802          37.000  
> 2016  5 20 10 24 58.0000000  0 21                     
G 1  21526635.772   113123236.234       -1681.316          49.000  
G 3  21564354.714   113321444.635        2204.266          49.000  
G 7  24097823.027   126634917.880       -2563.591          45.000  
G11  22348264.354   117440926.918       -1865.020          47.000  
G17  22343056.005   117413545.519        2331.557          48.000  
G19  23799157.403   125065411.638        3123.846          45.000  
G22  22119651.913   116239551.340         335.048          48.000  
G28  20720534.253   108887145.966        2213.080          48.000  
J 1  37400939.546   196543264.736         507.000          46.000  
G30  22856329.485   120110814.013       -1994.484          45.000  
R 2  22372371.533   119383260.1442       4228.107          51.000  
R18  22920615.464   122351782.223        2761.014          48.000  
R15  20159927.599   107728538.337         712.152          50.000  
R 1  22051081.157   117875698.513        1340.716          48.000  
R24  21653264.726   115789753.619       -1064.407          44.000  
R14  20593637.108   109775676.783       -2522.506          41.000  
R17  20530417.980   109862454.980        1067.605          52.000  
R 8  24261743.965   129920563.661       -1427.788          39.000  
G 8  24738036.494   129999249.0432      -1425.385          42.000  
R16  23327581.543   124611751.4402       4233.578          41.000  
R13  24598436.373   131354261.7183      -3654.840          34.000  
> 2016  5 20 10 24 59.0000000  0 21                     
G 1  21526955.861   113124917.576       -1681.612          48.000  
G 3  21563935.769   113319240.858        2202.949          49.000  
G 7  24098310.988   126637481.100       -2563.802          44.000  
G11  22348619.675   117442791.849       -1865.840          44.000  
G17  22342612.316   117411213.664        2331.659          48.000  
G19  23798562.822   125062287.067        3124.103          43.000  
G22  22119587.836   116239216.438         334.273          48.000  
G28  20720113.162   108884932.767        2212.799          49.000  
J 1  37400843.064   196542757.509         506.902          45.000  
G30  22856709.097   120112808.211       -1994.062          45.000  
R 2  22371579.014   119379031.0532       4228.301          49.000  
R18  22920097.856   122349020.169        2762.136          49.000  
R15  20159794.017   107727826.481         711.063          50.000  
R 1  22050830.554   117874358.539        1339.646          49.000  
R24  21653463.868   115790817.574       -1065.208          45.000  
R14  20594110.183   109778199.502       -2522.973          41.000  
R17  20530218.280   109861387.429        1067.099          52.000  
R 8  24262010.569   129921991.684       -1427.728          37.000  
G 8  24738308.316   130000674.9332      -1425.793          42.000  
R16  23326792.113   124607518.5532       4231.972          43.000  
R13  24599124.121                       -3663.522          29.000  
> 2016  5 20 10 25  0.0000000  0 21                     
G 1  21527275.776   113126599.121       -1681.323          48.000  
G 3  21563516.824   113317037.498        2202.754          49.000  
G 7  24098798.617   126640044.180       -2564.121          46.000  
G11  22348974.316   117444656.872       -1864.287          44.000  
G17  22342168.749   117408881.901        2331.845          49.000  
G19  23797967.857   125059162.605        3124.396          42.000  
G22  22119524.317   116238881.991         334.096          48.000  
G28  20719691.914   108882720.054        2212.360          48.000  
J 1  37400746.721   196542250.191         507.155          47.000  
G30  22857088.604   120114802.615       -1994.580          45.000  
R 2  22370786.722   119374801.5421       4228.813          50.000  
R18  22919580.701   122346258.480        2759.818          50.000  
R15  20159661.012   107727115.620         710.428          50.000  
R 1  22050580.126   117873019.270        1339.002          48.000  
R24  21653662.975   115791881.396       -1064.099          46.000  
R14  20594583.555   109780722.764       -2523.862          41.000  
R17  20530018.946   109860320.163        1067.137          52.000  
R 8  24262277.540   129923420.283       -1428.212          39.000  
G 8  24738579.457   130002100.7442      -1424.809          41.000  
R16  23326000.239   124603286.1862       4232.688          43.000  
R13  24599810.142   131361596.7583      -3651.785          30.000  
> 2016  5 20 10 25  1.0000000  0 21                     
G 1  21527595.586   113128280.490       -1681.350          45.000  
G 3  21563097.513   113314834.780        2201.735          49.000  
G 7  24099286.525   126642608.110       -2564.670          45.000  
G11  22349329.358   117446522.244       -1860.960          39.000  
G17  22341724.850   117406550.256        2331.373          48.000  
G19  23797373.589   125056038.489        3123.425          45.000  
G22  22119460.851   116238547.779         333.260          47.000  
G28  20719271.311   108880507.768        2211.414          48.000  
J 1  37400650.100   196541743.234         506.342          47.000  
G30  22857468.199   120116798.165       -1997.019          45.000  
R 2  22369994.360   119370573.064        4227.620          49.000  
R18  22919063.617   122343497.395        2759.851          48.000  
R15  20159528.669   107726405.987         708.674          50.000  
R 1  22050329.942   117871680.309        1337.736          41.000  
R24  21653861.873   115792944.688       -1062.539          43.000  
R14  20595056.945   109783247.377       -2525.933          41.000  
R17  20529819.577   109859252.906        1066.905          52.000  
R 8  24262544.214   129924848.765       -1428.316          40.000  
G 8  24738850.267   130003526.386       -1423.391          41.000  
R16  23325206.987   124599054.0932       4230.772          42.000  
R13  24600493.719   131365247.5243      -3656.183          35.000  
> 2016  5 20 10 25  3.0000000  0 21                     
G 1  21528235.451   113131641.967       -1680.728          49.000  
G 3  21562259.292   113310431.180        2198.138          43.000  
G 7  24100262.830   126647739.012       -2565.277          45.000  
G11  22350038.518   117450249.752       -1863.458          47.000  
G17  22340837.698   117401886.967        2331.386          48.000  
G19  23796184.776   125049791.401        3122.644          44.000  
G22  22119333.743   116237879.605         333.849          49.000  
G28  20718429.042   108876084.383        2210.901          48.000  
J 1  37400457.327   196540730.164         506.123          46.000  
G30  22858228.226   120120793.009       -1998.273          43.000  
R 2  22368409.688   119362117.599        4227.613          49.000  
R18  22918029.063   122337976.853        2759.285          47.000  
R15  20159263.653   107724990.453         706.443          50.000  
R 1  22049829.086   117869002.830        1339.679          45.000  
R24  21654258.987   115795068.868       -1061.542          45.000  
R14  20596004.666   109788301.009       -2528.610          41.000  
R17  20529420.752   109857118.082        1067.512          52.000  
R 8  24263077.423   129927704.541       -1427.750          40.000  
G 8  24739392.655   130006386.0423      -1424.302          38.000  
R16  23323622.490   124590589.955        4231.579          41.000  
R13  24601862.724   131372557.9092      -3654.532          35.000  
> 2016  5 20 10 25  4.0000000  0 21                     
G 1  21528555.261   113133322.201       -1680.704          49.000  
G 3  21561840.678   113308230.205        2199.928          49.000  
G 7  24100751.418   126650305.951       -2567.776          40.000  
G11  22350392.984   117452112.588       -1863.258          47.000  
G17  22340394.009   117399555.222        2331.667          48.000  
G19  23795590.282   125046668.120        3123.914          45.000  
G22  22119270.521   116237545.830         333.258          48.000  
G28  20718008.387   108873873.208        2210.773          49.000  
J 1  37400361.194   196540224.160         505.711          46.000  
G30  22858608.937   120122792.152       -1999.948          45.000  
R 2  22367617.762   119357893.3063       4225.166          48.000  
R18  22917512.257   122335217.402        2758.455          48.000  
R15  20159131.712   107724284.430         705.130          51.000  
R 1  22049578.832   117867664.440        1338.013          49.000  
R24  21654457.222   115796129.830       -1061.307          45.000  
R14  20596478.788   109790829.862       -2529.204          41.000  
R17  20529221.418   109856050.523        1067.262          52.000  
R 8  24263343.923   129929132.020       -1427.845          37.000  
G 8  24739663.953   130007810.6062      -1425.365          41.000  
R16  23322830.512   124586357.901        4231.579          42.000  
R13  24602545.516   131376215.9002      -3658.265          35.000  
> 2016  5 20 10 25  5.0000000  0 21                     
G 1  21528874.949   113135003.373       -1682.472          49.000  
G 3  21561422.065   113306030.142        2199.681          48.000  
G 7  24101239.536   126652872.262       -2564.624          44.000  
G11  22350747.747   117453976.411       -1865.788          46.000  
G17  22339950.320   117397223.601        2331.073          48.000  
G19  23794995.962   125043544.800        3124.072          44.000  
G22  22119207.072   116237213.228         331.431          48.000  
G28  20717587.994   108871662.628        2209.991          49.000  
J 1  37400264.886   196539718.305         505.662          47.000  
G30  22858989.265   120124790.866       -1997.449          46.000  
R 2  22366825.871   119353666.8742       4225.122          50.000  
R18  22916995.713   122332457.793        2759.861          48.000  
R15  20158999.753   107723579.168         704.938          51.000  
R 1  22049328.753   117866327.578        1335.540          46.000  
R24  21654655.683   115797191.692       -1063.684          45.000  
R14  20596953.207   109793358.837       -2528.802          41.000  
R17  20529021.945   109854983.414        1066.349          52.000  
R 8  24263610.841   129930561.198       -1432.125          41.000  
G 8  24739935.147   130009235.8312      -1425.445          40.000  
R16  23322038.411   124582126.860        4228.726          38.000  
R13  24603232.007   131379873.3182      -3654.990          32.000  
> 2016  5 20 10 25  6.0000000  0 22                     
G 1  21529195.492   113136686.263       -1683.666          48.000  
G 3  21561003.382   113303830.936        2198.528          49.000  
G 7  24101727.322   126655436.798       -2563.543          43.000  
G11  22351102.632   117455842.008       -1866.306          47.000  
G17  22339506.631   117394892.397        2330.498          47.000  
G19  23794401.538   125040421.275        3125.024          45.000  
G22  22119144.059   116236882.383         329.997          49.000  
G28  20717167.478   108869452.909        2209.369          49.000  
J 1  37400168.770   196539212.454         505.620          47.000  
G30  22859369.383   120126788.408       -1997.569          45.000  
R 2  22366034.015                        4222.980          45.000  
R18  22916478.576   122329697.776        2759.842          49.000  
R15  20158867.620   107722874.579         703.862          50.000  
R 1  22049079.163   117864993.027        1334.460          48.000  
R24  21654854.686   115798255.332       -1064.277          44.000  
R14  20597427.784   109795887.222       -2528.979          41.000  
R17  20528822.349   109853917.227        1065.578          51.000  
R 8  24263878.092   129931992.938       -1432.425          35.000  
G 8  24740206.620   130010662.3972      -1427.911          39.000  
R16  23321246.957   124577897.275        4228.785          43.000  
G 6  23633994.286   124197478.2152       3681.907          43.000  
R13  24603913.002   131383529.0832      -3655.300          35.000  
> 2016  5 20 10 25  7.0000000  0 22                     
G 1  21529515.668   113138369.749       -1684.099          48.000  
G 3  21560585.031   113301632.038        2198.812          48.000  
G 7  24102214.933   126658000.487       -2562.357          40.000  
G11  22351457.622   117457708.112       -1866.493          47.000  
G17  22339062.976   117392561.186        2330.579          48.000  
G19  23793807.149   125037297.696        3122.913          42.000  
G22  22119081.413   116236552.257         329.802          48.000  
G28  20716747.015   108867243.556        2208.649          48.000  
J 1  37400072.340   196538706.357         506.121          47.000  
G30  22859749.222   120128785.260       -1996.658          46.000  
R 2  22365242.124   119345216.4323       4226.255          49.000  
R18  22915961.352   122326937.471        2759.034          47.000  
R15  20158735.749   107722170.663         703.288          51.000  
R 1  22048829.695   117863659.616        1331.638          47.000  
R24  21655053.653   115799319.465       -1064.359          44.000  
R14  20597902.168   109798415.347       -2528.401          40.000  
R17  20528623.556   109852851.265        1065.434          52.000  
R 8  24264145.167   129933425.955       -1434.172          40.000  
G 8  24740478.128   130012089.1562      -1427.878          41.000  
R16  23320455.694   124573668.542        4227.370          42.000  
G 6  23633293.502   124193795.8482       3681.618          44.000  
R13  24604597.714   131387183.9012      -3653.974          34.000  
> 2016  5 20 10 25  8.0000000  0 22                     
G 1  21529836.264   113140053.954       -1684.670          48.000  
G 3  21560166.470   113299433.882        2196.899          49.000  
G 7  24102702.981   126660563.610       -2562.752          42.000  
G11  22351812.978   117459574.847       -1866.792          47.000  
G17  22338619.636   117390230.183        2331.544          48.000  
G19  23793212.899   125034174.017        3122.906          44.000  
G22  22119018.872   116236223.072         328.152          49.000  
G28  20716326.692   108865034.796        2208.411          48.000  
J 1  37399976.085   196538200.305         505.797          47.000  
G30  22860129.427   120130781.930       -1996.890          45.000  
R 2  22364450.077   119340990.1013       4224.943          47.000  
R18  22915444.145   122324177.060        2761.870          48.000  
R15  20158604.314   107721467.635         702.644          50.000  
R 1  22048580.348   117862327.363        1330.713          48.000  
R24  21655252.777   115800384.186       -1065.451          44.000  
R14  20598376.377   109800943.761       -2528.990          41.000  
R17  20528424.205   109851785.746        1065.480          51.000  
R 8  24264411.772   129934860.349       -1435.681          40.000  
G 8  24740750.003   130013518.4283      -1427.929          42.000  
R16  23319664.100   124569440.598        4227.988          42.000  
G 6  23632592.754   124190113.2992       3683.122          44.000  
R13  24605284.240                       -3635.140          30.000  
> 2016  5 20 10 25  9.0000000  0 22                     
G 1  21530156.842   113141738.846       -1685.409          49.000  
G 3  21559748.642   113297236.364        2196.711          49.000  
G 7  24103190.872   126663126.338       -2563.348          39.000  
G11  22352168.526   117461442.248       -1867.807          47.000  
G17  22338176.226   117387899.290        2331.341          49.000  
G19  23792618.423   125031050.216        3124.292          44.000  
G22  22118956.190   116235894.865         327.547          48.000  
G28  20715906.403   108862826.564        2207.892          48.000  
J 1  37399879.358   196537694.398         505.624          46.000  
G30  22860509.493   120132778.489       -1996.989          45.000  
R 2  22363658.064   119336764.0882       4225.779          49.000  
R18  22914926.973   122321416.696        2760.135          49.000  
R15  20158473.437   107720765.449         701.636          51.000  
R 1  22048331.508   117860996.400        1329.983          48.000  
R24  21655451.867   115801449.427       -1065.331          45.000  
R14  20598850.849   109803472.455       -2528.950          41.000  
R17  20528224.941   109850720.489        1064.985          52.000  
R 8  24264678.865   129936295.722       -1435.665          38.000  
G 8  24741019.766   130014936.2702      -1429.057          42.000  
R16  23318872.750   124565213.449        4226.455          41.000  
G 6  23631891.988   124186430.6172       3682.648          43.000  
R13  24605972.005                       -3656.769          28.000  
> 2016  5 20 10 25 10.0000000  0 22                     
G 1  21530477.559   113143424.878       -1686.997          48.000  
G 3  21559330.308   113295039.620        2196.099          48.000  
G 7  24103678.343   126665687.944       -2561.176          44.000  
G11  22352524.039   117463310.807       -1870.082          47.000  
G17  22337732.327   117385568.660        2329.904          48.000  
G19  23792023.771   125027926.356        3124.323          44.000  
G22  22118894.015   116235567.940         326.215          48.000  
G28  20715485.975   108860618.975        2207.062          48.000  
J 1  37399783.330   196537188.541         505.688          46.000  
G30  22860888.843   120134774.287       -1995.329          45.000  
R 2  22362866.382   119332538.4142       4225.100          47.000  
R18  22914409.818   122318656.053        2761.182          50.000  
R15  20158342.438   107720063.958         701.089          51.000  
R 1  22048082.773   117859667.177        1328.402          48.000  
R24  21655651.532   115802515.789       -1066.831          45.000  
R14  20599325.163   109806000.954       -2528.733          41.000  
R17  20528026.026   109849655.805        1064.422          52.000  
R 8  24264949.081   129937733.158       -1438.694          42.000  
G 8  24741290.977   130016360.8912      -1429.549          40.000  
R16  23318081.191   124560987.399        4226.242          41.000  
G 6  23631191.187   124182747.2842       3683.999          45.000  
R13  24606655.391   131398150.1293      -3653.244          36.000  
> 2016  5 20 10 25 11.0000000  0 22                     
G 1  21530798.678   113145112.170       -1688.270          49.000  
G 3  21558912.532   113292843.555        2195.676          49.000  
G 7  24104165.553   126668248.406       -2560.412          45.000  
G11  22352879.867   117465180.625       -1870.566          46.000  
G17  22337289.005   117383238.260        2329.471          48.000  
G19  23791429.365   125024802.366        3123.816          44.000  
G22  22118831.910   116235242.394         324.816          48.000  
G28  20715066.489   108858412.068        2206.293          48.000  
J 1  37399687.197   196536682.609         505.942          47.000  
G30  22861268.665   120136769.190       -1994.721          46.000  
R 2  22362074.718   119328312.7772       4225.366          49.000  
R18  22913892.594   122315895.105        2760.210          48.000  
R15  20158211.736   107719363.223         699.917          51.000  
R 1  22047834.125   117858339.758        1326.662          48.000  
R24  21655851.320   115803583.476       -1069.154          45.000  
R14  20599799.338   109808529.116       -2528.478          41.000  
R17  20527827.251   109848591.828        1063.282          52.000  
R 8  24265219.245   129939172.718       -1440.668          42.000  
G 8  24741565.050   130017790.4502      -1428.744          37.000  
R16  23317290.120   124556762.717        4223.264          42.000  
G 6  23630490.055   124179063.0982       3684.880          43.000  
R13  24607337.153                       -3647.126          23.000  
> 2016  5 20 10 25 12.0000000  0 22                     
G 1  21531119.972   113146800.680       -1688.965          49.000  
G 3  21558494.826   113290648.177        2195.002          49.000  
G 7  24104652.572   126670807.564       -2559.088          43.000  
G11  22353235.938   117467051.617       -1871.351          47.000  
G17  22336845.909   117380908.161        2329.619          48.000  
G19  23790834.940   125021678.317        3123.352          44.000  
G22  22118769.944   116234918.124         323.844          48.000  
G28  20714646.655   108856205.898        2205.505          48.000  
J 1  37399591.116   196536176.673         505.666          47.000  
G30  22861648.015   120138763.278       -1994.039          45.000  
R 2  22361282.810   119324087.2552       4225.095          50.000  
R18  22913375.317   122313134.009        2760.704          48.000  
R15  20158080.633   107718663.248         699.307          51.000  
R 1  22047586.035   117857014.079        1324.619          49.000  
R24  21656051.474   115804652.240       -1069.357          45.000  
R14  20600273.705   109811056.995       -2528.171          41.000  
R17  20527628.493   109847528.559        1062.642          52.000  
R 8  24265488.380   129940614.326       -1443.620          38.000  
G 8  24741835.319   130019220.7782      -1430.625          38.000  
R16  23316499.311   124552539.219        4222.395          39.000  
G 6  23629788.591   124175378.1942       3684.674          44.000  
R13  24608012.337   131405396.4572      -3648.979          34.000  
> 2016  5 20 10 25 13.0000000  0 22                     
G 1  21531441.596   113148490.269       -1689.974          48.000  
G 3  21558077.365   113288453.382        2194.280          49.000  
G 7  24105139.241   126673365.544       -2557.866          44.000  
G11  22353592.481   117468923.665       -1871.926          48.000  
G17  22336402.202   117378578.212        2330.166          48.000  
G19  23790240.377   125018554.053        3124.469          45.000  
G22  22118708.519   116234595.031         322.690          47.000  
G28  20714226.366   108854000.243        2205.377          48.000  
J 1  37399494.790   196535670.600         505.963          46.000  
G30  22862027.417   120140756.506       -1993.140          46.000  
R 2  22360490.901   119319861.8072       4225.604          51.000  
R18  22912857.988   122310372.491        2761.465          49.000  
R15  20157949.320   107717963.916         698.913          49.000  
R 1  22047338.521   117855689.975        1323.954          48.000  
R24  21656251.802   115805722.115       -1070.873          44.000  
R14  20600747.897   109813584.498       -2527.471          41.000  
R17  20527430.119   109846465.760        1062.667          53.000  
R 8  24265758.195   129942057.615       -1444.708          39.000  
G 8  24742109.322   130020661.8353      -1431.974          40.000  
R16  23315709.008   124548316.750        4222.774          40.000  
G 6  23629087.459   124171692.4222       3686.146          45.000  
R13  24608695.199                       -3646.772          33.000  
> 2016  5 20 10 25 14.0000000  0 22                     
G 1  21531763.326   113150180.719       -1690.382          49.000  
G 3  21557659.519   113286259.172        2194.247          48.000  
G 7  24105625.892   126675922.673       -2556.522          44.000  
G11  22353948.466   117470796.584       -1872.247          46.000  
G17  22335958.966   117376248.557        2329.488          48.000  
G19  23789645.778   125015429.804        3124.432          45.000  
G22  22118647.234   116234273.000         321.835          48.000  
G28  20713806.758   108851795.239        2204.596          48.000  
J 1  37399398.343   196535164.480         506.325          47.000  
G30  22862406.768   120142749.247       -1992.206          45.000  
R 2  22359699.010   119315636.4912       4225.372          49.000  
R18  22912340.641   122307610.909        2761.476          49.000  
R15  20157818.286   107717265.462         697.908          50.000  
R 1  22047091.112   117854367.285        1322.793          49.000  
R24  21656452.026   115806792.731       -1070.907          43.000  
R14  20601222.054   109816112.012       -2527.164          41.000  
R17  20527231.675   109845403.521        1061.957          52.000  
R 8  24266027.557   129943502.531       -1445.181          39.000  
G 8  24742380.708                       -1432.207          36.000  
R16  23314918.426   124544095.391        4220.974          43.000  
G 6  23628386.082   124168006.3102       3686.680          44.000  
R13  24609382.563   131412713.3753      -3646.151          37.000  
> 2016  5 20 10 25 15.0000000  0 22                     
G 1  21532085.143   113151871.881       -1691.110          49.000  
G 3  21557242.564   113284065.336        2193.453          48.000  
G 7  24106112.230   126678479.103       -2555.240          44.000  
G11  22354304.869   117472670.062       -1874.574          46.000  
G17  22335515.696   117373919.353        2329.316          48.000  
G19  23789051.336   125012305.842        3126.031          45.000  
G22  22118586.141   116233951.617         320.909          48.000  
G28  20713387.517   108849590.855        2204.059          49.000  
J 1  37399301.966   196534658.135         506.831          47.000  
G30  22862785.839   120144741.758       -1992.668          46.000  
R 2  22358906.910   119311410.7872       4226.020          50.000  
R18  22911823.033   122304849.726        2760.946          47.000  
R15  20157687.776   107716568.010         696.868          51.000  
R 1  22046844.087   117853045.627        1321.313          49.000  
R24  21656652.407   115807863.953       -1071.491          45.000  
R14  20601696.299   109818639.690       -2527.647          41.000  
R17  20527033.109   109844341.922        1061.425          52.000  
R 8  24266297.599   129944948.726       -1446.004          39.000  
G 8  24742654.013   130023523.5572      -1433.203          41.000  
R16  23314128.437   124539875.236        4220.167          42.000  
G 6  23627684.514   124164320.1252       3686.170          45.000  
R13  24610065.617   131416361.2162      -3647.776          35.000  
> 2016  5 20 10 25 16.0000000  0 22                     
G 1  21532406.943   113153563.909       -1692.517          49.000  
G 3  21556824.997   113281872.224        2192.245          48.000  
G 7  24106598.637   126681034.984       -2555.164          43.000  
G11  22354661.900   117474544.325       -1875.326          46.000  
G17  22335072.635   117371590.541        2327.676          48.000  
G19  23788456.703   125009182.251        3124.542          43.000  
G22  22118525.571   116233631.305         319.348          49.000  
G28  20712968.677   108847387.256        2203.027          49.000  
J 1  37399205.658   196534152.013         505.887          47.000  
G30  22863164.892   120146734.167       -1992.640          44.000  
R 2  22358114.950   119307184.9441       4224.703          48.000  
R18  22911305.895   122302088.622        2760.819          48.000  
R15  20157557.458   107715871.639         695.820          51.000  
R 1  22046596.869   117851725.368        1318.957          48.000  
R24  21656852.823   115808935.895       -1072.698          45.000  
R14  20602170.718   109821167.728       -2527.902          39.000  
R17  20526834.525   109843280.949        1060.102          51.000  
R 8  24266567.920   129946396.426       -1449.119          41.000  
G 8  24742926.795   130024955.5492      -1432.594          41.000  
R16  23313338.501   124535656.119        4217.616          40.000  
G 6  23626982.875   124160633.8662       3686.854          44.000  
R13  24610747.746   131420003.4923      -3648.181          32.000  
> 2016  5 20 10 25 18.0000000  0 22                     
G 1  21533051.833   113156951.126       -1694.763          49.000  
G 3  21555990.598   113277488.176        2190.939          48.000  
G 7  24107571.016   126686143.697       -2554.208          42.000  
G11  22355376.033   117478295.974       -1877.062          47.000  
G17  22334186.304   117366933.030        2328.266          48.000  
G19  23787268.099   125002933.969        3123.950          42.000  
G22  22118404.205   116232994.447         316.776          49.000  
G28  20712129.827   108842981.720        2202.051          49.000  
J 1  37399013.130   196533139.775         505.407          47.000  
G30  22863922.947   120150716.550       -1991.236          45.000  
R 2  22356530.976   119298734.845        4223.749          48.000  
R18  22910271.028   122296565.154        2763.170          51.000  
R15  20157296.961   107714480.686         694.798          51.000  
R 1  22046103.848   117849089.752        1315.722          48.000  
R24  21657254.335   115811082.769       -1074.346          45.000  
R14  20603119.242   109826223.003       -2527.742          41.000  
R17  20526438.283   109841160.190        1059.923          51.000  
R 8  24267109.785   129949297.001       -1451.806          39.000  
G 8  24743472.847   130027822.1832      -1433.361          40.000  
R16  23311759.413   124527220.581        4216.896          42.000  
G 6  23625579.599   124153259.0942       3687.193          44.000  
R13  24612119.525                       -3641.821          24.000  
> 2016  5 20 10 25 19.0000000  0 21                     
G 1  21533374.103   113158645.562       -1694.666          49.000  
G 3  21555573.380   113275297.005        2190.597          49.000  
G 7  24108057.022   126688697.133       -2553.202          43.000  
G11  22355732.873   117480172.563       -1876.706          46.000  
G17  22333743.557   117364604.345        2328.226          49.000  
G19  23786673.378   124999809.677        3123.626          42.000  
G22  22118343.792   116232677.226         317.078          48.000  
G28  20711711.039   108840779.604        2201.581          49.000  
J 1  37398916.578   196532633.613         506.041          47.000  
G30  22864301.739   120152707.364       -1991.369          45.000  
R 2  22355739.137   119294510.111        4223.739          48.000  
R18  22909753.699   122293803.293        2761.194          46.000  
R15  20157167.201   107713786.324         693.629          50.000  
R 1  22045857.591   117847773.645        1315.369          49.000  
R24  21657454.873   115812156.853       -1073.880          45.000  
R14  20603593.783   109828750.925       -2528.406          41.000  
R17  20526240.537   109840100.244        1059.636          52.000  
R 8  24267381.048   129950748.936       -1452.537          41.000  
G 6  23624878.047   124149570.8471       3686.997          45.000  
R16  23310970.419   124523003.849        4216.973          42.000  
R13  24612798.792                       -3645.063          27.000  
> 2016  5 20 10 25 20.0000000  0 22                     
G 1  21533696.287   113160339.999       -1694.161          49.000  
G 3  21555156.809   113273106.294        2190.446          49.000  
G 7  24108542.993   126691250.809       -2554.002          44.000  
G11  22356089.730   117482048.998       -1875.913          46.000  
G17  22333300.129   117362275.634        2329.343          48.000  
G19  23786078.325   124996685.417        3124.426          42.000  
G22  22118283.240   116232360.379         316.865          48.000  
G28  20711291.938   108838577.825        2201.959          49.000  
J 1  37398820.235   196532127.504         506.121          47.000  
G30  22864680.758   120154698.613       -1991.578          45.000  
R 2  22354947.403   119290285.565        4223.945          50.000  
R18  22909236.352   122291041.726        2761.352          47.000  
R15  20157037.162   107713092.921         693.196          50.000  
R 1  22045611.525   117846458.034        1315.825          49.000  
R24  21657655.864   115813230.671       -1073.696          45.000  
R14  20604068.045   109831279.540       -2528.843          41.000  
R17  20526042.163   109839040.320        1060.226          51.000  
R 8  24267652.015   129952201.144       -1450.914          39.000  
G 6  23624175.955   124145883.572        3687.203          43.000  
G 8  24744018.010   130030696.8233      -1433.432          37.000  
R13  24613480.520   131434596.2303      -3644.598          41.000  
R16  23310181.041   124518787.541        4216.926          42.000  
> 2016  5 20 10 25 21.0000000  0 22                     
G 1  21534018.697   113162033.248       -1692.206          49.000  
G 3  21554740.133   113270915.804        2190.602          49.000  
G 7  24109029.034   126693805.718       -2555.304          45.000  
G11  22356446.709   117483923.954       -1873.836          46.000  
G17  22332857.190   117359946.557        2329.376          49.000  
G19  23785484.215   124993561.425        3123.382          43.000  
G22  22118223.351   116232042.943         317.637          48.000  
G28  20710873.028   108836376.090        2201.685          48.000  
J 1  37398723.665   196531621.438         506.003          47.000  
G30  22865059.829   120156691.368       -1993.636          45.000  
R 2  22354155.478   119286061.278        4223.596          50.000  
R18  22908719.354   122288280.584        2761.666          47.000  
R15  20156907.629   107712400.574         692.062          50.000  
R 1  22045365.146   117845141.751        1316.672          48.000  
R24  21657856.385   115814302.753       -1070.903          44.000  
R14  20604542.813   109833809.804       -2531.345          41.000  
R17  20525843.789   109837979.855        1060.804          51.000  
R 8  24267922.912   129953652.004       -1449.790          38.000  
G 6  23623474.614   124142197.794        3684.901          44.000  
G 8  24744289.518   130032129.3772      -1429.494          37.000  
R13  24614162.771   131438242.1412      -3646.973          40.000  
R16  23309392.099   124514570.604        4216.693          42.000  
> 2016  5 20 10 25 22.0000000  0 22                     
G 1  21534340.845   113163726.155       -1693.393          49.000  
G 3  21554323.282   113268726.188        2189.203          49.000  
G 7  24109515.406   126696362.151       -2555.967          43.000  
G11  22356803.356   117485798.353       -1874.916          46.000  
G17  22332414.112   117357617.521        2328.932          49.000  
G19  23784888.692   124990437.821        3123.676          43.000  
G22  22118162.746   116231725.693         316.796          48.000  
G28  20710454.030   108834174.781        2201.331          48.000  
J 1  37398628.003   196531115.999         505.282          47.000  
G30  22865439.354   120158685.735       -1994.334          45.000  
R 2  22353364.163   119281837.906        4223.082          49.000  
R18  22908201.641   122285520.337        2760.493          46.000  
R15  20156777.974   107711709.600         690.678          49.000  
R 1  22045118.504   117843825.693        1315.428          48.000  
R24  21658056.818   115815374.012       -1071.344          44.000  
R14  20605017.860   109836341.852       -2531.974          41.000  
R17  20525645.782   109836919.251        1060.553          51.000  
R 8  24268193.792   129955102.428       -1450.559          36.000  
G 6  23622773.673   124138513.581        3684.368          45.000  
G 8  24744564.201   130033561.9042      -1433.086          43.000  
R13  24614848.896   131441889.3922      -3646.436          40.000  
R16  23308602.721   124510353.625        4216.623          41.000  
> 2016  5 20 10 25 23.0000000  0 22                     
G 1  21534663.116   113165419.607       -1693.632          49.000  
G 3  21553906.658   113266537.479        2187.887          49.000  
G 7  24110001.622   126698918.418       -2557.135          44.000  
G11  22357159.951   117487673.303       -1875.527          46.000  
G17  22331971.243   117355288.391        2329.338          49.000  
G19  23784293.831   124987313.958        3123.468          43.000  
G22  22118102.456   116231409.476         315.656          48.000  
G28  20710035.400   108831973.970        2200.488          48.000  
J 1  37398531.870   196530610.859         504.924          47.000  
G30  22865819.001   120160680.162       -1995.025          44.000  
R 2  22352573.144   119277615.180        4222.290          46.000  
R18  22907684.190   122282759.829        2760.335          45.000  
R15  20156648.895   107711019.398         689.438          48.000  
R 1  22044872.840   117842510.953        1314.052          46.000  
R24  21658257.234   115816445.722       -1071.894          42.000  
R14  20605492.960   109838874.396       -2533.121          38.000  
R17  20525447.966   109835858.807        1060.319          49.000  
R 8  24268464.969   129956553.968       -1451.878          34.000  
G 6  23622072.785   124134829.383        3683.928          44.000  
G 8  24744836.582   130034994.9452      -1432.800          39.000  
R13  24615529.856   131445536.7102      -3646.660          37.000  
R16  23307813.657   124506137.104        4216.519          37.000  
> 2016  5 20 10 25 24.0000000  0 22                     
G 1  21534985.579   113167113.219       -1694.021          49.000  
G 3  21553490.243   113264349.613        2187.660          49.000  
G 7  24110488.169   126701475.064       -2556.593          45.000  
G11  22357516.913   117489548.298       -1875.049          46.000  
G17  22331527.292   117352958.961        2329.313          49.000  
G19  23783700.087   124984189.850        3124.176          43.000  
G22  22118042.619   116231093.948         315.532          48.000  
G28  20709616.594   108829773.427        2200.189          48.000  
J 1  37398435.737   196530106.112         504.501          47.000  
G30  22866198.508   120162674.975       -1994.988          44.000  
R 2  22351781.794   119273393.229        4221.852          47.000  
R18  22907167.227   122279999.247        2760.294          45.000  
R15  20156520.025   107710329.914         689.053          48.000  
R 1  22044627.281   117841197.094        1313.312          47.000  
R24  21658457.109   115817517.264       -1071.432          43.000  
R14  20605967.990   109841407.736       -2534.142          39.000  
R17  20525249.941   109834798.196        1060.286          51.000  
R 8  24268735.953   129958005.857       -1451.813          37.000  
G 6  23621371.950   124131145.501        3683.535          43.000  
G 8  24745108.264   130036428.3002      -1433.552          37.000  
R13  24616215.510   131449201.1333      -3647.725          34.000  
R16  23307024.523   124501920.692        4215.526          40.000  
> 2016  5 20 10 25 25.0000000  0 21                     
G 1  21535307.937   113168807.045       -1694.534          49.000  
G 3  21553074.317   113262162.468        2186.089          49.000  
G 7  24110974.908   126704031.862       -2556.670          44.000  
G11  22357873.805   117491423.390       -1875.662          46.000  
G17  22331083.864   117350629.674        2328.288          49.000  
G19  23783106.239   124981065.941        3123.499          45.000  
G22  22117982.433   116230779.027         314.004          48.000  
G28  20709197.911   108827573.428        2199.152          48.000  
J 1  37398339.569   196529601.602         503.935          47.000  
G30  22866577.911   120164670.344       -1995.628          45.000  
R 2  22350990.479   119269171.718        4220.973          49.000  
R18  22906649.968   122277238.899        2760.421          45.000  
R15  20156391.364   107709641.554         687.243          49.000  
R 1  22044381.774   117839884.039        1311.290          45.000  
R24  21658657.612   115818588.815       -1071.808          43.000  
R14  20606443.281   109843941.951       -2534.801          40.000  
R17  20525051.863   109833737.831        1059.404          51.000  
R 8  24269007.060   129959458.266       -1454.681          32.000  
G 6  23620670.678   124127462.115        3683.127          43.000  
R16  23306235.302   124497704.676        4214.327          40.000  
R13  24616900.431   131452848.9352      -3646.559          34.000  
> 2016  5 20 10 25 26.0000000  0 22                     
G 1  21535630.172   113170501.844       -1695.490          49.000  
G 3  21552658.322   113259975.814        2186.227          49.000  
G 7  24111461.158   126706587.747       -2554.972          45.000  
G11  22358230.644   117493299.383       -1877.028          46.000  
G17  22330640.873   117348300.749        2328.848          48.000  
G19  23782512.146   124977942.168        3123.273          45.000  
G22  22117922.946   116230465.112         313.036          48.000  
G28  20708779.490   108825374.140        2198.792          49.000  
J 1  37398243.313   196529096.976         504.728          47.000  
G30  22866957.767   120166665.182       -1994.441          46.000  
R 2  22350199.252   119264950.109        4221.219          49.000  
R18  22906132.953   122274478.638        2760.717          46.000  
R15  20156262.878   107708954.041         687.017          50.000  
R 1  22044136.598   117838572.389        1310.361          49.000  
R24  21658857.923   115819661.190       -1072.604          46.000  
R14  20606918.503   109846476.096       -2534.088          41.000  
R17  20524853.786   109832678.143        1059.165          52.000  
R 8  24269278.620   129960912.236       -1454.934          37.000  
G 6  23619969.964   124123778.354        3683.965          44.000  
G 8  24745653.845   130039311.4653      -1432.569          36.000  
R13  24617583.450   131456495.6022      -3645.434          39.000  
R16  23305446.099   124493489.843        4215.278          40.000  
> 2016  5 20 10 25 27.0000000  0 21                     
G 1  21535953.036   113172197.693       -1695.613          49.000  
G 3  21552242.221   113257789.968        2186.398          49.000  
G 7  24111947.618   126709142.806       -2554.162          46.000  
G11  22358587.816   117495176.403       -1876.886          47.000  
G17  22330197.707   117345972.059        2329.279          49.000  
G19  23781917.775   124974818.288        3123.895          44.000  
G22  22117862.917   116230152.493         312.900          46.000  
G28  20708361.051   108823175.509        2198.810          48.000  
J 1  37398147.546   196528592.491         504.984          47.000  
G30  22867337.571   120168659.481       -1993.532          46.000  
R 2  22349408.111   119260728.770        4220.949          49.000  
R18  22905615.990   122271718.132        2762.178          46.000  
R15  20156134.113   107708267.368         686.849          50.000  
R 1  22043891.614   117837262.358        1310.089          46.000  
R24  21659058.565   115820734.668       -1074.998          39.000  
R14  20607394.022   109849010.221       -2533.744          41.000  
R17  20524655.551   109831618.981        1059.768          52.000  
R16  23304657.035   124489276.104        4214.216          41.000  
G 6  23619268.710   124120094.070        3684.962          44.000  
G 8  24745930.553   130040746.1212      -1433.831          31.000  
R13  24618264.550                       -3644.189          29.000  
> 2016  5 20 10 25 28.0000000  0 22                     
G 1  21536275.778   113173893.731       -1696.296          50.000  
G 3  21551826.679   113255605.066        2184.279          49.000  
G 7  24112433.920   126711698.104       -2557.076          44.000  
G11  22358944.742   117497053.668       -1876.749          46.000  
G17  22329754.332   117343643.023        2328.778          48.000  
G19  23781323.368   124971694.079        3122.925          44.000  
G22  22117803.673   116229840.580         312.165          47.000  
G28  20707942.543   108820977.174        2198.053          48.000  
J 1  37398051.937   196528088.397         503.727          47.000  
G30  22867717.253   120170654.136       -1996.773          43.000  
R 2  22348617.232   119256508.250        4219.359          50.000  
R18  22905098.975   122268957.547        2760.562          47.000  
R15  20156005.749   107707581.387         684.695          49.000  
R 1  22043646.317   117835953.200        1311.648          46.000  
R24  21659259.278   115821808.4413      -1072.010          45.000  
R14  20607869.575   109851545.077       -2536.040          41.000  
R17  20524457.666   109830559.680        1059.405          52.000  
R16  23303868.215   124485062.437        4213.608          43.000  
G 6  23618567.543   124116409.976        3683.407          44.000  
G 8  24746205.202   130042185.8483      -1435.512          33.000  
R 8  24269822.578   129963819.2703      -1456.411          37.000  
R13  24618946.434   131463783.4623      -3646.154          32.000  
> 2016  5 20 10 25 29.0000000  0 22                     
G 1  21536598.380   113175588.623       -1694.495          49.000  
G 3  21551410.648   113253420.486        2184.552          49.000  
G 7  24112920.240   126714255.020       -2556.881          44.000  
G11  22359301.826   117498929.337       -1874.566          47.000  
G17  22329311.411   117341313.623        2329.681          49.000  
G19  23780728.420   124968569.958        3123.828          41.000  
G22  22117744.186   116229528.198         312.363          48.000  
G28  20707524.191   108818778.865        2198.096          48.000  
J 1  37397955.926   196527584.505         504.686          47.000  
G30  22868096.917   120172650.435       -1995.761          44.000  
R 2  22347826.737   119252288.175        4219.808          50.000  
R18  22904581.820   122266197.440        2760.480          49.000  
R15  20155877.682   107706896.506         684.863          49.000  
R 1  22043401.403   117834643.604        1309.213          47.000  
R24  21659459.798   115822879.9962      -1071.188          46.000  
R14  20608345.233   109854081.825       -2537.237          41.000  
R17  20524259.379   109829499.673        1059.902          52.000  
R16  23303078.924   124480847.996        4213.737          41.000  
G 6  23617866.812   124112727.683        3682.177          45.000  
R 8  24270092.306   129965273.8192      -1453.945          40.000  
G 8  24746473.552   130043595.9192      -1433.936          41.000  
R13  24619632.158   131467445.4973      -3648.110          32.000  
> 2016  5 20 10 25 30.0000000  0 21                     
G 1  21536920.825   113177283.982       -1696.140          49.000  
G 3  21550995.054   113251236.278        2183.806          49.000  
G 7  24113406.526   126716811.590       -2556.129          44.000  
G11  22359659.084   117500805.380       -1876.737          47.000  
G17  22328868.158   117338984.878        2328.033          48.000  
G19  23780134.240   124965446.601        3123.114          44.000  
G22  22117684.768   116229216.286         311.549          49.000  
G28  20707106.171   108816581.372        2196.533          49.000  
J 1  37397860.368   196527080.533         503.813          47.000  
G30  22868477.018   120174647.167       -1996.689          41.000  
R 2  22347035.754   119248068.067        4219.896          50.000  
R18  22904065.067   122263438.186        2758.703          48.000  
R15  20155750.086   107706213.056         682.303          50.000  
R 1  22043156.611   117833334.619        1308.645          48.000  
R24  21659660.022   115823951.8882      -1072.994          45.000  
R14  20608821.013   109856619.111       -2537.719          40.000  
R17  20524061.546   109828440.449        1058.454          52.000  
R16  23302290.052   124476634.848        4211.312          43.000  
G 6  23617166.290   124109045.799        3681.507          44.000  
G 8  24746746.979   130045029.8592      -1434.231          42.000  
R13  24620313.659                       -3631.685          25.000  
> 2016  5 20 10 25 31.0000000  0 22                     
G 1  21537243.619   113178980.725       -1697.843          49.000  
G 3  21550579.809   113249051.902        2184.326          49.000  
G 7  24113892.933   126719366.314       -2553.970          44.000  
G11  22360016.081   117502682.473       -1877.634          46.000  
G17  22328425.550   117336657.505        2326.317          48.000  
G19  23779540.514   124962324.395        3121.576          45.000  
G22  22117625.908   116228905.175         310.582          48.000  
G28  20706688.465   108814385.048        2195.453          49.000  
J 1  37397764.130   196526575.774         505.199          47.000  
G30  22868856.665   120176642.854       -1995.267          43.000  
R 2  22346244.718   119243846.747        4222.687          49.000  
R18  22903549.082   122260679.769        2757.451          50.000  
R15  20155622.630   107705531.077         680.634          49.000  
R 1  22042911.924   117832026.900        1307.560          48.000  
R24  21659860.769   115825025.0702      -1075.116          45.000  
R14  20609296.724   109859155.856       -2535.654          41.000  
R17  20523863.887   109827382.946        1056.252          52.000  
R16  23301501.931   124472424.307        4208.311          43.000  
G 6  23616465.367   124105363.461        3682.628          44.000  
G 8  24747020.529   130046463.8652      -1433.467          41.000  
R 8  24270637.974   129968170.6792      -1459.420          38.000  
R13  24620996.608                       -3642.396          24.000  
> 2016  5 20 10 25 32.0000000  0 22                     
G 1  21537567.251   113180679.509       -1699.612          48.000  
G 3  21550163.656   113246866.790        2185.264          48.000  
G 7  24114378.415   126721917.749       -2550.412          40.000  
G11  22360373.601   117504561.246       -1879.243          47.000  
G17  22327982.664   117334332.321        2324.416          48.000  
G19  23778946.107   124959203.972        3120.312          43.000  
G22  22117566.542   116228594.918         309.938          47.000  
G28  20706270.742   108812190.297        2194.208          49.000  
J 1  37397667.561   196526069.591         507.051          46.000  
G30  22869235.893   120178636.639       -1993.301          43.000  
R 2  22345453.770   119239623.257        4224.196          46.000  
R18  22903032.293   122257922.677        2756.576          47.000  
R15  20155495.208   107704850.847         679.549          50.000  
R 1  22042667.586   117830720.689        1305.103          49.000  
R24  21660061.918   115826100.5222      -1077.139          42.000  
R14  20609772.521   109861691.161       -2533.838          41.000  
R17  20523666.909   109826327.983        1054.285          52.000  
R16  23300714.647   124468217.649        4205.131          41.000  
G 6  23615764.235   124101679.990        3684.243          41.000  
R 8  24270913.496   129969632.7052      -1462.758          39.000  
G 8  24747291.810   130047895.3073      -1434.530          41.000  
R13  24621677.899   131478369.3812      -3641.389          33.000  
> 2016  5 20 10 25 33.0000000  0 21                     
G 1  21537890.796   113182380.341       -1702.611          49.000  
G 3  21549747.224   113244681.469        2184.365          48.000  
G 7  24114863.305   126724466.019       -2547.161          43.000  
G11  22360731.627   117506442.045       -1882.722          47.000  
G17  22327540.214   117332008.327        2323.659          47.000  
G19  23778352.573   124956084.134        3120.398          44.000  
G22  22117508.363   116228286.055         306.592          49.000  
G28  20705853.071   108809996.592        2192.737          48.000  
J 1  37397570.921   196525562.353         506.310          46.000  
G30  22869614.859   120180628.126       -1990.705          44.000  
R 2  22344661.861   119235398.298        4222.555          50.000  
R18  22902515.959   122255165.588        2756.881          48.000  
R15  20155367.961   107704171.462         679.341          49.000  
R 1  22042423.353   117829416.514        1301.579          49.000  
R24  21660263.258   115827178.1472      -1079.660          41.000  
R14  20610247.952   109864224.811       -2533.188          41.000  
R17  20523470.472   109825274.744        1052.228          52.000  
R16  23299927.869   124464013.852        4203.478          42.000  
G 6  23615062.841   124097994.766        3686.346          43.000  
G 8  24747566.180   130049329.4732      -1434.153          40.000  
R13  24622361.878   131482022.5402      -3637.719          28.000  
> 2016  5 20 10 25 34.0000000  0 22                     
G 1  21538214.689   113184084.350       -1705.070          49.000  
G 3  21549331.979   113242498.275        2182.494          48.000  
G 7  24115347.775   126727011.444       -2544.217          41.000  
G11  22361090.089   117508326.584       -1886.050          47.000  
G17  22327097.955   117329683.559        2326.034          47.000  
G19  23777758.620   124952961.954        3124.615          44.000  
G22  22117450.114   116227980.822         303.416          48.000  
G28  20705435.644   108807803.357        2193.683          48.000  
J 1  37397474.439   196525055.784         506.036          47.000  
G30  22869993.424   120182616.459       -1986.573          43.000  
R 2  22343870.197   119231174.637        4222.784          49.000  
R18  22901998.892   122252405.615        2761.825          47.000  
R15  20155240.016   107703491.330         681.487          50.000  
R 1  22042180.446   117828116.862        1297.649          48.000  
R24  21660465.594   115828259.4892      -1082.987          41.000  
R14  20610722.895   109866756.352       -2529.948          41.000  
R17  20523273.285   109824221.755        1053.775          52.000  
R16  23299140.724   124459811.077        4203.789          42.000  
G 6  23614360.714   124094305.963        3690.884          45.000  
G 8  24747836.344   130050767.4162      -1440.403          38.000  
R 8  24271458.658   129972568.1042      -1471.985          39.000  
R13  24623043.309                       -3631.797          27.000  
> 2016  5 20 10 25 35.0000000  0 22                     
G 1  21538539.455   113185791.122       -1707.954          49.000  
G 3  21548917.134   113240317.931        2178.735          48.000  
G 7  24115831.635   126729554.336       -2542.834          42.000  
G11  22361449.442   117510214.873       -1889.910          47.000  
G17  22326654.790   117327356.381        2328.763          48.000  
G19  23777163.794   124949835.686        3127.478          45.000  
G22  22117392.913   116227679.777         298.579          48.000  
G28  20705018.235   108805609.682        2193.811          48.000  
J 1  37397378.097   196524550.427         504.269          46.000  
G30  22870371.187   120184601.193       -1984.182          43.000  
R 2  22343079.371   119226953.639        4219.447          50.000  
R18  22901480.672   122249641.095        2766.628          48.000  
R15  20155112.508   107702809.044         683.263          49.000  
R 1  22041938.272   117826822.411        1291.767          45.000  
R24  21660668.226   115829344.0492      -1085.476          46.000  
R14  20611197.436   109869285.560       -2528.678          40.000  
R17  20523076.307   109823167.572        1055.199          51.000  
R16  23298353.580   124455607.286        4205.414          43.000  
G 6  23613658.133   124090612.588        3695.317          44.000  
G 8  24748113.890   130052209.8522      -1444.021          41.000  
R 8  24271734.686   129974041.7572      -1474.604          42.000  
R13  24623724.060                       -3636.068          24.000  
> 2016  5 20 10 25 36.0000000  0 22                     
G 1  21538864.919   113187499.941       -1709.901          49.000  
G 3  21548502.954   113238141.178        2175.073          48.000  
G 7  24116315.233   126732096.460       -2541.447          44.000  
G11  22361809.370   117512106.229       -1892.682          47.000  
G17  22326211.380   117325026.135        2332.465          48.000  
G19  23776568.026   124946704.946        3134.064          44.000  
G22  22117335.868   116227382.812         294.888          49.000  
G28  20704600.739   108803415.277        2195.032          48.000  
J 1  37397282.469   196524047.181         502.463          47.000  
G30  22870748.286   120186583.901       -1980.148          44.000  
R 2  22342288.719   119222736.632        4214.307          49.000  
R18  22900961.808   122246872.002        2771.749          48.000  
R15  20154984.440   107702124.632         686.158          50.000  
R 1  22041697.302   117825532.567        1287.241          45.000  
R24  21660871.643   115830430.5451      -1088.225          42.000  
R14  20611671.716   109871813.949       -2527.568          40.000  
R17  20522878.735   109822111.403        1057.029          51.000  
R16  23297566.017   124451401.365        4207.248          41.000  
G 6  23612954.732   124086916.052        3698.604          44.000  
G 8  24748389.167   130053657.2522      -1450.922          37.000  
R 8  24272010.172   129975517.9422      -1477.683          43.000  
R13  24624401.861                       -3633.284          23.000  
> 2016  5 20 10 25 37.0000000  0 22                     
G 1  21539190.784   113189211.989       -1714.186          48.000  
G 3  21548089.698   113235968.263        2171.265          49.000  
G 7  24116798.830   126734636.598       -2537.851          43.000  
G11  22362169.979   117514001.972       -1898.362          46.000  
G17  22325767.690   117322692.987        2334.238          48.000  
G19  23775971.334   124943569.403        3137.714          43.000  
G22  22117280.621   116227090.936         288.860          48.000  
G28  20704183.068   108801220.349        2194.904          48.000  
J 1  37397187.052   196523546.051         500.136          46.000  
G30  22871125.106   120188563.258       -1977.015          45.000  
R 2  22341499.114   119218523.531        4210.810          48.000  
R18  22900442.001   122244097.587        2776.728          47.000  
R15  20154855.972   107701437.712         688.242          50.000  
R 1  22041457.536   117824248.937        1280.779          49.000  
R24  21661075.671   115831521.378       -1092.823          45.000  
R14  20612145.803   109874340.314       -2524.858          41.000  
R17  20522680.815   109821053.668        1058.128          52.000  
R16  23296778.401   124447193.812        4207.129          41.000  
G 6  23612250.512   124083214.838        3704.079          43.000  
G 8  24748665.613   130055110.3862      -1455.493          42.000  
R 8  24272286.601   129976998.2212      -1484.253          40.000  
R13  24625084.863                       -3628.300          22.000  
> 2016  5 20 10 25 39.0000000  0 22                     
G 1  21539845.150   113192651.192       -1727.333          48.000  
G 3  21547264.547   113231631.833        2166.139          48.000  
G 7  24117762.484   126739702.015       -2524.657          42.000  
G11  22362895.419   117517812.244       -1913.561          46.000  
G17  22324878.811   117318021.961        2333.549          48.000  
G19  23774775.470   124937285.833        3142.743          43.000  
G22  22117173.127   116226524.605         277.048          47.000  
G28  20703348.005   108796831.452        2191.797          48.000  
J 1  37396997.054   196522546.797         499.518          47.000  
G30  22871875.430   120192504.763       -1964.111          45.000  
R 2  22339921.126   119210103.767        4210.389          49.000  
R18  22899399.612   122238533.296        2784.996          44.000  
R15  20154597.517   107700057.019         690.395          50.000  
R 1  22040981.197   117821703.271        1264.269          47.000  
R24  21661487.025   115833721.168       -1109.403          46.000  
R14  20613091.291   109879380.724       -2514.709          41.000  
R17  20522286.074   109818938.818        1053.118          52.000  
R16  23295203.693   124438781.608        4201.069          42.000  
G 6  23610837.986   124075792.933        3718.067          43.000  
G 8  24749221.699   130058035.5052      -1468.632          39.000  
R 8  24272843.752   129979979.577       -1500.902          41.000  
R13  24626449.731                       -3621.102          29.000  
> 2016  5 20 10 25 40.0000000  0 22                     
G 1  21540174.575   113194382.703       -1734.198          48.000  
G 3  21546852.093   113229465.756        2167.568          48.000  
G 7  24118242.295   126742221.930       -2514.499          43.000  
G11  22363260.233   117519730.049       -1920.330          44.000  
G17  22324435.419   117315690.912        2328.629          49.000  
G19  23774177.748   124934144.237        3140.369          40.000  
G22  22117120.899   116226250.768         273.042          47.000  
G28  20702931.346   108794641.506        2188.849          49.000  
J 1  37396901.915   196522046.030         503.035          47.000  
G30  22872248.394   120194464.564       -1955.723          45.000  
R 2  22339131.625   119205891.810        4215.399          49.000  
R18  22898877.990   122235748.665        2784.311          47.000  
R15  20154468.612   107699367.301         689.083          50.000  
R 1  22040745.009   117820442.379        1258.870          48.000  
R24  21661695.520   115834834.883       -1116.393          46.000  
R14  20613562.255   109881892.396       -2508.022          41.000  
R17  20522089.898   109817888.611        1047.245          52.000  
R16  23294418.503   124434586.302        4190.324          44.000  
G 6  23610129.804   124072071.922        3723.875          43.000  
G 8  24749500.903   130059506.0562      -1470.176          42.000  
R 8  24273125.032   129981487.577       -1512.488          38.000  
R13  24627127.899                       -3614.680          21.000  
> 2016  5 20 10 25 41.0000000  0 22                     
G 1  21540504.734   113196118.474       -1736.752          48.000  
G 3  21546439.570   113227296.217        2171.403          49.000  
G 7  24118720.082   126744733.044       -2508.444          40.000  
G11  22363625.746   117521651.414       -1921.239          44.000  
G17  22323992.898   117313364.791        2323.402          48.000  
G19  23773580.968   124931006.447        3136.249          40.000  
G22  22117069.089   116225977.543         273.528          47.000  
G28  20702515.124   108792454.203        2186.035          49.000  
J 1  37396805.834   196521540.725         507.472          47.000  
G30  22872620.258   120196418.506       -1953.075          43.000  
R 2  22338340.782   119201672.995        4222.773          48.000  
R18  22898356.822   122232966.533        2780.065          50.000  
R15  20154339.917   107698679.936         685.301          49.000  
R 1  22040509.553   117819183.329        1259.688          48.000  
R24  21661904.713   115835953.652       -1119.742          46.000  
R14  20614032.573   109884398.780       -2505.455          41.000  
R17  20521894.491   109816844.108        1041.677          52.000  
R16  23293634.832   124430399.877        4181.427          37.000  
G 6  23609420.819   124068347.071        3725.210          41.000  
G 8  24749780.839   130060975.1772      -1466.724          39.000  
R 8  24273408.319   129983003.388       -1517.808          40.000  
R13  24627803.345   131511079.6013      -3605.002          25.000  
> 2016  5 20 10 25 42.0000000  0 21                     
G 1  21540835.659   113197856.324       -1739.802          48.000  
G 3  21546026.297   113225123.859        2172.675          48.000  
G 7  24119196.962   126747238.752       -2503.584          44.000  
G11  22363991.642   117523574.024       -1923.917          46.000  
G17  22323550.692   117311042.432        2320.560          48.000  
G19  23772984.223   124927872.248        3133.704          45.000  
G22  22117016.913   116225703.898         272.545          46.000  
G28  20702099.320   108790268.891        2184.167          49.000  
J 1  37396708.846   196521031.988         509.631          46.000  
G30  22872991.913   120198369.471       -1949.909          43.000  
R 2  22337549.257   119197449.030        4225.168          49.000  
R18  22897836.299   122230187.335        2777.657          48.000  
R15  20154211.553   107697995.052         683.522          50.000  
R 1  22040273.905   117817924.583        1256.940          47.000  
R24  21662114.465   115837074.682       -1123.207          45.000  
R14  20614502.246   109886902.357       -2502.413          41.000  
R17  20521700.183   109815803.671        1038.427          52.000  
R16  23292852.538   124426219.381        4178.910          42.000  
G 6  23608711.869   124064620.926        3728.014          35.000  
R 8  24273695.375   129984523.540       -1522.725          32.000  
R13  24628478.790                       -3595.291          26.000  
> 2016  5 20 10 25 43.0000000  0 21                     
G 1  21541166.917   113199596.748       -1741.075          48.000  
G 3  21545612.482   113222950.929        2172.463          48.000  
G 8  24750339.613   130063912.2993      -1468.265          39.000  
G11  22364357.870   117525499.006       -1925.497          48.000  
G17  22323109.202   117308722.312        2319.607          48.000  
G19  23772388.298   124924739.703        3131.635          46.000  
G22  22116964.405   116225431.584         271.791          47.000  
G28  20701683.551   108788085.213        2183.075          49.000  
J 1  37396611.648   196520521.852         509.984          47.000  
G30  22873362.398   120200317.927       -1948.238          44.000  
R 2  22336757.419   119193222.897        4226.683          50.000  
R18  22897315.986   122227408.837        2778.537          48.000  
R15  20154083.835   107697311.684         683.421          50.000  
R 1  22040038.903   117816667.918        1255.837          49.000  
R24  21662324.618   115838198.545       -1124.481          45.000  
R14  20614971.482   109889404.012       -2501.510          41.000  
R17  20521506.223   109814765.966        1037.250          52.000  
R16  23292070.559   124422043.093        4174.901          40.000  
G 6  23608003.076   124060893.084        3728.750          43.000  
R 8  24273975.416   129986048.249       -1525.772          36.000  
R13  24629147.413   131518256.2692      -3598.425          27.000  
> 2016  5 20 10 25 44.0000000  0 22                     
G 1  21541498.227   113201338.684       -1742.749          48.000  
G 3  21545199.174   113220779.052        2170.657          48.000  
G 8  24750621.730   130065380.3832      -1467.092          37.000  
G11  22364724.429   117527425.255       -1926.642          46.000  
G17  22322667.677   117306403.467        2318.576          47.000  
G19  23771791.989   124921608.154        3133.209          40.000  
G22  22116913.520   116225160.749         269.463          48.000  
G28  20701268.358   108785902.955        2181.482          49.000  
J 1  37396514.852   196520012.193         508.494          47.000  
G30  22873733.163   120202266.855       -1950.194          45.000  
R 2  22335965.598   119188997.452        4224.002          49.000  
R18  22896795.847   122224631.497        2777.265          50.000  
R15  20153956.291   107696630.199         679.772          49.000  
R 1  22039804.180   117815413.126        1252.826          49.000  
R24  21662534.945   115839323.757       -1125.523          45.000  
R14  20615440.875   109891906.526       -2504.026          41.000  
R17  20521312.474   109813729.699        1036.107          51.000  
R16  23291289.243   124417875.3863       4172.933          41.000  
G 6  23607293.987   124057165.974        3725.890          43.000  
R 8  24274263.379   129987599.0793      -1528.092          38.000  
G 7  24120145.887   126752221.9693      -2503.330          43.000  
R13  24629815.390   131521823.1432      -3597.729          32.000  
> 2016  5 20 10 25 45.0000000  0 22                     
G 1  21541830.112   113203081.156       -1743.051          48.000  
G 3  21544786.319   113218608.667        2169.250          48.000  
G 8  24750897.775   130066848.9272      -1469.578          41.000  
G11  22365091.075   117529351.866       -1926.743          47.000  
G17  22322227.163   117304085.539        2317.825          49.000  
G19  23771196.396   124918478.107        3128.888          44.000  
G22  22116861.937   116224890.862         269.688          47.000  
G28  20700853.601   108783722.038        2179.913          49.000  
J 1  37396418.038   196519503.735         507.657          47.000  
G30  22874104.417   120204217.840       -1952.175          45.000  
R 2  22335174.056   119184773.408        4223.298          49.000  
R18  22896275.866   122221855.906        2773.655          46.000  
R15  20153829.393   107695950.836         678.342          50.000  
R 1  22039569.684   117814159.304        1253.036          49.000  
R24  21662745.430   115840449.121       -1125.182          46.000  
R14  20615910.792   109894411.343       -2506.673          41.000  
R17  20521118.619   109812694.422        1035.064          51.000  
R16  23290507.857   124413702.4422       4174.338          41.000  
G 6  23606584.496   124053440.954        3724.062          42.000  
R 8  24274548.254   129989126.5562      -1528.006          36.000  
G 7  24120623.936   126754725.5902      -2504.618          42.000  
R13  24630492.877   131525422.5142      -3600.919          31.000  
> 2016  5 20 10 25 46.0000000  0 22                     
G 1  21542161.667   113204823.670       -1742.753          48.000  
G 3  21544373.534   113216439.715        2168.102          48.000  
G 8  24751176.752   130068317.6002      -1468.300          40.000  
G11  22365457.792   117531278.251       -1926.379          47.000  
G17  22321786.022   117301768.238        2316.781          48.000  
G19  23770601.204   124915348.892        3128.308          40.000  
G22  22116810.965   116224621.729         268.792          47.000  
G28  20700438.391   108781542.115        2179.333          49.000  
J 1  37396321.468   196518996.439         506.692          47.000  
G30  22874475.862   120206171.214       -1954.355          45.000  
R 2  22334382.688   119180550.821        4221.063          48.000  
R18  22895756.216   122219081.422        2774.490          48.000  
R15  20153703.141   107695273.454         676.292          50.000  
R 1  22039335.328   117812906.211        1252.688          49.000  
R24  21662955.635   115841574.033       -1124.163          45.000  
R14  20616381.460   109896918.665       -2508.784          41.000  
R17  20520925.620   109811659.527        1034.486          53.000  
G 7  24121103.328   126757231.3982      -2505.500          42.000  
G 6  23605875.860   124049718.206        3721.235          42.000  
R 8  24274832.989   129990653.8972      -1526.759          40.000  
R13  24631167.886                       -3603.459          31.000  
R16  23289726.803   124409528.5923       4171.492          44.000  
> 2016  5 20 10 25 47.0000000  0 21                     
G 1  21542492.976   113206565.585       -1741.396          48.000  
G 3  21543960.924   113214271.541        2168.258          47.000  
R16  23288945.243   124405355.8042       4174.181          41.000  
G11  22365824.177   117533203.832       -1925.083          47.000  
G17  22321344.758   117299450.897        2317.607          45.000  
G19  23770005.314   124912220.217        3127.411          43.000  
G22  22116759.714   116224352.630         268.951          47.000  
G28  20700023.774   108779362.649        2179.352          48.000  
J 1  37396225.091   196518489.787         506.555          47.000  
G30  22874848.092   120208126.392       -1956.418          45.000  
R 2  22333591.757   119176329.140        4220.939          47.000  
R18  22895236.304   122216308.066        2773.028          49.000  
R15  20153576.330   107694597.515         675.706          49.000  
R 1  22039101.024   117811653.085        1252.968          49.000  
R24  21663165.840   115842697.865       -1122.799          46.000  
R14  20616852.075   109899428.007       -2510.434          41.000  
R17  20520732.359   109810624.461        1035.949          52.000  
G 7  24121579.195   126759738.9872      -2508.264          43.000  
G 6  23605167.555   124045997.246        3720.082          43.000  
R 8  24275117.637   129992180.4742      -1524.690          41.000  
R13  24631845.112                       -3603.173          30.000  
> 2016  5 20 10 25 49.0000000  0 22                     
G 1  21543155.579   113210047.186       -1741.219          48.000  
G 3  21543135.773   113209936.268        2167.343          48.000  
R16  23287379.278   124397008.9152       4175.744          38.000  
G11  22366556.300   117537052.076       -1925.077          47.000  
G17  22320462.580   117294815.193        2317.969          49.000  
G19  23768815.750   124905962.913        3128.857          44.000  
G22  22116657.054   116223813.746         268.832          47.000  
G28  20699194.068   108775003.832        2179.236          49.000  
J 1  37396032.196   196517476.574         506.477          46.000  
G30  22875592.955   120212039.783       -1957.049          45.000  
R 2  22332009.720   119167886.507        4221.310          48.000  
R18  22894197.004   122210762.128        2773.250          50.000  
R15  20153323.738   107693248.251         673.848          50.000  
R 1  22038631.840   117809146.318        1253.325          49.000  
R24  21663585.361   115844942.012       -1122.196          45.000  
R14  20617794.561   109904450.262       -2511.850          41.000  
R17  20520345.732   109808553.119        1036.096          51.000  
G 7  24122533.548   126764756.4202      -2508.188          42.000  
G 6  23603751.872   124038558.375        3719.725          42.000  
R 8  24275686.793   129995231.5212      -1526.224          42.000  
G 8  24752016.997   130072720.4132      -1468.210          40.000  
R13  24633189.424   131539865.6552      -3601.725          30.000  
> 2016  5 20 10 25 50.0000000  0 21                     
G 1  21543486.888   113211789.003       -1743.696          48.000  
G 3  21542723.354   113207769.428        2166.313          48.000  
R16  23286596.094   124392836.5842       4170.869          39.000  
G11  22366922.912   117538977.096       -1927.130          46.000  
G17  22320022.328   117292497.343        2317.236          48.000  
G19  23768220.627   124902833.841        3129.492          45.000  
G22  22116606.170   116223545.625         267.058          47.000  
G28  20698779.782   108772825.021        2178.302          49.000  
J 1  37395935.801   196516969.787         507.062          46.000  
G30  22875964.906   120213995.566       -1954.344          44.000  
R 2  22331218.440   119163665.343        4221.473          48.000  
R18  22893677.127   122207988.682        2774.166          49.000  
R15  20153198.149   107692574.502         673.794          50.000  
R 1  22038397.780   117807894.890        1249.757          48.000  
R24  21663795.374   115846064.889       -1125.136          46.000  
R14  20618265.664   109906961.155       -2509.417          41.000  
R17  20520152.261   109807517.848        1034.352          52.000  
G 8  24752295.398   130074188.2132      -1467.624          37.000  
G 6  23603043.375   124034838.129        3721.769          42.000  
R 8  24275971.407   129996758.8992      -1529.514          43.000  
R13  24633864.852   131543467.9542      -3598.913          29.000  
> 2016  5 20 10 25 51.0000000  0 22                     
G 1  21543819.001   113213533.973       -1746.456          48.000  
G 3  21542311.337   113205603.316        2165.862          48.000  
R16  23285819.193   124388666.7662       4167.868          41.000  
G11  22367290.047   117540905.612       -1929.978          46.000  
G17  22319581.326   117290179.830        2317.489          48.000  
G19  23767624.755   124899703.865        3130.560          43.000  
G22  22116555.704   116223280.376         263.892          47.000  
G28  20698365.165   108770646.990        2177.698          49.000  
J 1  37395839.232   196516462.395         507.725          46.000  
G30  22876336.334   120215947.551       -1950.341          45.000  
R 2  22330427.317   119159443.666        4221.498          49.000  
R18  22893156.971   122205213.523        2776.013          49.000  
R15  20153072.438   107691900.538         674.333          50.000  
R 1  22038164.436   117806647.229        1245.716          48.000  
R24  21664006.103   115847191.478       -1128.326          45.000  
R14  20618736.070   109909469.221       -2506.199          41.000  
R17  20519958.878   109806483.908        1033.380          52.000  
G 8  24752574.637   130075658.4332      -1471.510          39.000  
G 6  23602335.001   124031114.223        3725.786          42.000  
R 8  24276257.625   129998291.2332      -1534.805          43.000  
G 7  24123487.953   126769766.9592      -2500.940          42.000  
R13  24634535.569                       -3597.997          28.000  
> 2016  5 20 10 25 52.0000000  0 22                     
G 1  21544151.445   113215282.050       -1749.784          48.000  
G 3  21541899.163   113203438.052        2164.758          48.000  
R16  23285035.870   124384499.1572       4165.782          40.000  
G11  22367657.601   117542837.511       -1933.726          47.000  
G17  22319140.098   117287862.711        2317.032          49.000  
G19  23767029.074   124896572.912        3131.042          44.000  
G22  22116506.040   116223017.891         261.170          47.000  
G28  20697951.106   108768469.839        2176.642          49.000  
J 1  37395742.662   196515954.572         507.924          46.000  
G30  22876707.221   120217896.026       -1946.966          45.000  
R 2  22329636.089   119155221.598        4222.584          49.000  
R18  22892637.024   122202436.790        2777.019          50.000  
R15  20152945.766   107691226.427         674.046          50.000  
R 1  22037931.789   117805403.229        1241.945          49.000  
R24  21664217.111   115848321.562       -1131.474          45.000  
R14  20619206.161   109911974.707       -2504.448          41.000  
R17  20519765.774   109805451.323        1031.679          51.000  
G 8  24752854.992   130077130.8532      -1473.388          40.000  
G 6  23601626.295   124027386.939        3728.093          45.000  
R 8  24276544.925   129999828.220       -1538.103          44.000  
G 7  24123963.593   126772266.1502      -2497.635          42.000  
R13  24635213.039   131550647.0823      -3593.499          32.000  
> 2016  5 20 10 25 53.0000000  0 22                     
G 1  21544484.570   113217032.844       -1752.086          48.000  
G 3  21541487.634   113201273.642        2163.682          48.000  
R16  23284260.836   124380333.6982       4164.529          38.000  
G11  22368025.818   117544772.335       -1935.747          47.000  
G17  22318698.991   117285546.028        2316.126          48.000  
G19  23766432.434   124893441.269        3131.372          44.000  
G22  22116456.115   116222757.956         258.740          46.000  
G28  20697536.786   108766293.496        2175.592          50.000  
J 1  37395645.970   196515446.404         507.848          46.000  
G30  22877077.480   120219841.652       -1945.655          45.000  
R 2  22328844.966   119150999.393        4221.609          48.000  
R18  22892116.641   122199658.815        2778.033          48.000  
R15  20152819.811   107690552.421         673.207          50.000  
R 1  22037699.841   117804162.554        1239.623          48.000  
R24  21664428.974   115849454.776       -1134.636          45.000  
R14  20619675.747   109914478.145       -2503.654          41.000  
R17  20519572.670   109804419.939        1030.785          52.000  
G 8  24753135.504   130078605.3372      -1475.048          40.000  
G 6  23600916.717   124023656.851        3730.708          42.000  
R 8  24276832.819   130001369.555       -1542.666          42.000  
G 7  24124438.361   126774762.0112      -2495.249          43.000  
R13  24635882.726                       -3585.571          26.000  
> 2016  5 20 10 25 54.0000000  0 22                     
G 1  21544818.305   113218784.256       -1750.914          48.000  
G 3  21541075.862   113199110.049        2163.566          48.000  
R16  23283480.951   124376168.5181       4165.824          41.000  
G11  22368393.896   117546707.742       -1934.912          47.000  
G17  22318257.832   117283229.471        2316.759          48.000  
G19  23765836.317   124890309.672        3131.781          44.000  
G22  22116406.522   116222498.980         259.023          47.000  
G28  20697122.535   108764117.733        2176.013          49.000  
J 1  37395549.436   196514938.491         508.011          46.000  
G30  22877447.599   120221787.292       -1945.592          44.000  
R 2  22328053.913   119146777.628        4221.745          48.000  
R18  22891596.695   122196880.887        2779.534          49.000  
R15  20152693.698   107689879.323         672.840          50.000  
R 1  22037468.085   117802923.126        1239.173          49.000  
R24  21664641.152   115850588.398       -1132.995          45.000  
R14  20620145.664   109916982.053       -2503.840          41.000  
R17  20519380.106   109803388.912        1031.563          52.000  
G 8  24753416.261   130080080.3582      -1474.759          40.000  
G 6  23600206.860   124019926.907        3728.631          41.000  
R 8  24277120.835   130002911.831       -1541.858          44.000  
G 7  24124913.339   126777257.7902      -2495.826          41.000  
R13  24636555.868                       -3590.253          26.000  
> 2016  5 20 10 25 55.0000000  0 22                     
G 1  21545151.535   113220535.286       -1751.443          48.000  
G 3  21540663.897   113196946.602        2163.613          48.000  
R16  23282702.078   124372004.145        4164.358          43.000  
G11  22368762.235   117548642.475       -1934.477          46.000  
G17  22317817.005   117280912.905        2316.793          49.000  
G19  23765240.322   124887178.302        3130.700          42.000  
G22  22116357.260   116222239.874         258.976          47.000  
G28  20696708.913   108761942.201        2174.963          49.000  
J 1  37395452.639   196514430.395         508.194          46.000  
G30  22877817.928   120223733.581       -1946.618          45.000  
R 2  22327262.598   119142555.703        4222.061          48.000  
R18  22891076.312   122194103.494        2776.487          47.000  
R15  20152567.830   107689207.188         671.529          49.000  
R 1  22037236.014   117801683.652        1238.924          48.000  
R24  21664853.050   115851721.286       -1133.026          45.000  
R14  20620615.423   109919486.818       -2505.386          41.000  
R17  20519187.805   109802357.857        1030.686          52.000  
G 8  24753697.000   130081554.7042      -1474.268          40.000  
G 6  23599496.933   124016197.681        3728.482          37.000  
R 8  24277408.537   130004453.955       -1542.444          43.000  
G 7  24125388.124   126779753.7762      -2496.139          42.000  
R13  24637227.963                       -3590.310          26.000  
> 2016  5 20 10 25 56.0000000  0 22                     
G 1  21545484.781   113222286.524       -1751.938          48.000  
G 3  21540252.054   113194783.120        2163.401          48.000  
R16  23281922.629   124367840.617        4162.801          42.000  
G11  22369130.295   117550577.254       -1935.459          46.000  
G17  22317376.439   117278596.535        2316.044          47.000  
G19  23764644.397   124884047.132        3131.232          42.000  
G22  22116308.120   116221980.999         258.511          47.000  
G28  20696294.889   108759766.991        2174.969          49.000  
J 1  37395355.738   196513921.719         509.309          46.000  
G30  22878188.343   120225679.386       -1945.030          44.000  
R 2  22326471.143   119138333.234        4223.159          49.000  
R18  22890556.382   122191326.433        2774.903          45.000  
R15  20152442.153   107688535.852         671.292          50.000  
R 1  22037004.328   117800444.686        1238.263          49.000  
R24  21665064.878   115852854.179       -1133.716          44.000  
R14  20621085.305   109921991.412       -2503.663          41.000  
R17  20518995.678   109801327.191        1027.761          48.000  
G 8  24753977.529   130083028.5592      -1474.196          40.000  
G 6  23598787.005   124012468.191        3731.076          43.000  
G 7  24125862.892   126782248.7852      -2494.081          43.000  
R 8  24277696.867   130005996.842       -1543.934          42.000  
R13  24637900.372                       -3595.189          25.000  
> 2016  5 20 10 25 57.0000000  0 21                     
G 1  21545818.098   113224039.653       -1753.765          48.000  
G 3  21539840.543   113192620.203        2162.661          48.000  
R16  23281146.356   124363678.972        4160.550          42.000  
G11  22369499.332   117552513.952       -1937.463          47.000  
G17  22316935.943   117276280.802        2315.161          48.000  
R 8  24277985.755   130007542.870       -1546.580          43.000  
G22  22116259.242   116221723.860         256.147          47.000  
G28  20695881.231   108757592.658        2173.907          49.000  
J 1  37395258.977   196513412.729         508.898          46.000  
G30  22878558.044   120227623.572       -1943.727          45.000  
R 2  22325679.828   119134110.554        4222.742          48.000  
R18  22890032.178                        2783.568          38.000  
R15  20152316.704   107687865.193         670.101          51.000  
R 1  22036772.850   117799208.024        1235.851          49.000  
R24  21665276.985   115853989.076       -1135.056          45.000  
R14  20621554.943   109924495.011       -2503.580          41.000  
R17  20518803.115   109800297.537        1029.282          52.000  
G 8  24754258.181   130084503.5652      -1476.664          38.000  
G 6  23598077.340   124008737.355        3731.073          42.000  
G 7  24126337.189   126784741.6602      -2492.617          42.000  
R13  24638573.113                       -3582.981          26.000  
> 2016  5 20 10 25 58.0000000  0 22                     
G 1  21546152.095   113225794.059       -1754.994          48.000  
G 3  21539429.120   113190458.194        2161.423          48.000  
G19  23763454.851   124877797.6763       3131.812          44.000  
G11  22369868.107   117554451.869       -1938.486          46.000  
G17  22316495.761   117273965.439        2312.726          45.000  
R 8  24278274.835   130009090.805       -1550.594          39.000  
G22  22116210.748   116221468.127         255.059          47.000  
G28  20695467.679   108755419.047        2173.169          49.000  
J 1  37395162.250   196512903.882         508.969          46.000  
G30  22878927.622   120229566.923       -1943.079          44.000  
R 2  22324888.269   119129888.163        4222.427          48.000  
R18  22889511.394   122185760.6783       2777.422          47.000  
R15  20152190.992   107687195.206         669.733          50.000  
R 1  22036541.635   117797973.201        1233.452          48.000  
R24  21665489.634   115855125.239       -1137.087          45.000  
R14  20622024.546   109926998.349       -2502.802          41.000  
R17  20518610.587   109799268.558        1028.690          52.000  
G 8  24754539.112   130085979.3962      -1475.702          39.000  
G 6  23597366.767   124005005.718        3732.833          42.000  
G 7  24126811.085   126787233.3862      -2490.923          43.000  
R13  24639242.660                       -3581.627          25.000  
R16  23280361.725                        4156.543          34.000  
> 2016  5 20 10 25 59.0000000  0 22                     
G 1  21546486.424   113227549.302       -1755.640          48.000  
G 3  21539017.783   113188296.624        2161.143          48.000  
G19  23762856.273   124874665.7332       3132.697          47.000  
G11  22370236.604   117556390.719       -1938.388          46.000  
G17  22316054.166   117271649.566        2315.864          47.000  
R 8  24278564.090   130010640.168       -1548.870          43.000  
G22  22116162.480   116221213.506         254.109          47.000  
G28  20695054.021   108753245.630        2173.199          49.000  
J 1  37395065.245   196512394.756         509.093          46.000  
G30  22879297.462   120231509.167       -1942.484          44.000  
R 2  22324096.710   119125665.753        4221.958          49.000  
R18  22888993.820   122182982.0322       2778.281          47.000  
R15  20152065.595   107686525.461         669.365          50.000  
R 1  22036311.065   117796739.844        1233.237          48.000  
R24  21665702.264   115856262.240       -1137.341          46.000  
R14  20622493.922   109929501.081       -2503.212          41.000  
R17  20518417.884   109798239.792        1028.716          52.000  
G 8  24754819.939   130087455.8982      -1474.618          38.000  
G 6  23596656.700   124001272.984        3732.250          43.000  
G 7  24127285.085   126789723.7182      -2490.655          39.000  
R13  24639911.562                       -3604.104          23.000  
R16  23279584.894   124355353.0073       4160.110          40.000  
> 2016  5 20 10 26  0.0000000  0 22                     
G 1  21546820.351   113229304.150       -1753.706          48.000  
G 3  21538606.778   113186135.801        2160.948          48.000  
G19  23762258.167   124871534.2512       3129.321          38.000  
G11  22370605.693   117558328.965       -1936.877          46.000  
G17  22315613.129   117269333.760        2316.640          48.000  
R 8  24278853.467   130012189.320       -1546.603          41.000  
G22  22116113.829   116220959.008         255.209          46.000  
G28  20694640.346   108751072.583        2173.602          49.000  
J 1  37394968.344   196511886.042         508.903          47.000  
G30  22879667.127   120233452.613       -1944.107          45.000  
R 2  22323305.744   119121444.028        4221.756          49.000  
R18  22888474.676   122180203.9982       2778.834          47.000  
R15  20151940.634   107685856.855         668.700          50.000  
R 1  22036079.972   117795506.760        1233.944          49.000  
R24  21665914.860   115857398.400       -1135.107          45.000  
R14  20622963.891   109932005.288       -2505.068          41.000  
R17  20518225.722   109797210.871        1029.881          52.000  
G 8  24755100.852   130088932.1472      -1476.068          41.000  
G 6  23595946.878   123997541.461        3730.716          44.000  
G 7  24127759.155   126792215.2222      -2491.981          41.000  
R13  24640583.273                       -3586.890          24.000  
R16  23278804.310   124351183.0412       4160.547          43.000  
> 2016  5 20 10 26  1.0000000  0 22                     
G 1  21547153.790   113231057.997       -1754.065          48.000  
G 3  21538195.546   113183975.365        2159.833          48.000  
G19  23761665.139   124868402.6472       3129.822          42.000  
G11  22370974.172   117560265.954       -1936.944          47.000  
G17  22315173.140   117267017.666        2315.548          48.000  
R 8  24279142.582   130013737.375       -1547.537          43.000  
G22  22116065.318   116220704.123         254.531          47.000  
G28  20694227.143   108748899.585        2172.748          49.000  
J 1  37394872.001   196511377.504         508.113          47.000  
G30  22880037.281   120235397.643       -1945.920          45.000  
R 2  22322514.586   119117222.768        4220.657          49.000  
R18  22887956.125   122177426.9122       2772.656          43.000  
R15  20151815.568   107685189.368         666.791          50.000  
R 1  22035849.315   117794273.264        1233.134          49.000  
R24  21666126.828   115858533.023       -1134.609          45.000  
R14  20623434.070   109934511.172       -2506.727          41.000  
R17  20518032.880   109796181.453        1029.049          51.000  
G 8  24755381.609   130090407.0211      -1476.253          40.000  
G 6  23595236.985   123993811.522        3729.141          42.000  
G 7  24128233.435   126794707.9822      -2494.213          42.000  
R13  24641255.648                       -3594.228          25.000  
R16  23278024.600   124347022.5362       4161.057          39.000  
> 2016  5 20 10 26  2.0000000  0 21                     
G 1  21547487.822   113232812.179       -1753.975          48.000  
G 3  21537784.838   113181816.085        2159.144          48.000  
R16  23277248.641                        4159.955          41.000  
G11  22371342.947   117562203.072       -1936.958          48.000  
G17  22314732.714   117264702.029        2315.346          48.000  
R 8  24279431.488   130015285.811       -1548.198          44.000  
G22  22116016.911   116220450.075         253.765          47.000  
G28  20693813.625   108746727.518        2171.899          49.000  
J 1  37394775.187   196510869.762         507.837          46.000  
G30  22880407.749   120237344.006       -1946.561          44.000  
R 2  22321723.847   119113002.463        4220.439          49.000  
R18  22887433.928   122174670.8813       2775.956          50.000  
R15  20151691.026   107684523.453         665.468          49.000  
R 1  22035618.937   117793040.658        1232.398          48.000  
R24  21666338.796   115859667.647       -1134.398          44.000  
R14  20623904.493   109937018.707       -2508.037          41.000  
R17  20517840.596   109795152.528        1028.493          52.000  
G 8  24755662.243   130091882.602       -1475.011          40.000  
G 6  23594527.215   123990082.891        3729.030          42.000  
G 7  24128708.168   126797201.9072      -2494.630          43.000  
R13  24641928.057   131586504.6023      -3590.420          31.000  
> 2016  5 20 10 26  3.0000000  0 22                     
G 1  21547821.435   113234566.481       -1754.796          48.000  
G 3  21537374.042   113179657.381        2158.383          48.000  
G19  23760471.125   124862117.6923       3130.579          40.000  
G11  22371711.601   117564140.135       -1937.035          47.000  
G17  22314291.467   117262386.478        2314.981          47.000  
R 8  24279720.673   130016834.601       -1549.160          41.000  
G22  22115968.574   116220196.440         253.279          47.000  
G28  20693400.648   108744555.911        2171.094          50.000  
J 1  37394678.600   196510362.177         507.315          46.000  
G30  22880778.340   120239290.943       -1947.096          45.000  
R 2  22320932.950   119108782.615        4219.442          48.000  
R18  22886914.993   122171901.0393       2774.266          45.000  
R15  20151566.571   107683858.609         664.161          50.000  
R 1  22035388.437   117791808.726        1231.235          49.000  
R24  21666551.008   115860802.072       -1134.738          45.000  
R14  20624375.195   109939527.112       -2509.203          41.000  
R17  20517647.963   109794123.786        1028.507          51.000  
G 8  24755942.703   130093358.183       -1475.875          40.000  
G 6  23593818.300   123986354.873        3727.465          43.000  
G 7  24129183.058   126799696.1682      -2494.730          42.000  
R13  24642598.948                       -3591.787          25.000  
R16  23276471.251                        4158.155          30.000  
> 2016  5 20 10 26  4.0000000  0 22                     
G 1  21548155.380   113236320.998       -1754.446          49.000  
G 3  21536963.125   113177499.456        2157.716          48.000  
G19  23759876.038   124858987.3662       3129.846          44.000  
G11  22372079.923   117566077.327       -1937.136          47.000  
G17  22313851.059   117260071.129        2315.507          48.000  
R 8  24280009.788   130018383.894       -1549.551          42.000  
G22  22115920.376   116219943.451         252.818          46.000  
G28  20692987.148   108742384.792        2171.320          49.000  
J 1  37394581.874   196509854.878         507.689          46.000  
G30  22881149.035   120241238.493       -1947.836          45.000  
R 2  22320142.368   119104563.236        4219.425          48.000  
R18  22886395.151   122169126.1012       2777.046          50.000  
R15  20151442.779   107683194.814         663.685          50.000  
R 1  22035157.990   117790577.651        1230.482          47.000  
R24  21666763.238   115861936.469       -1134.277          45.000  
R14  20624845.897   109942036.370       -2509.212          41.000  
R17  20517455.330   109793095.234        1028.845          51.000  
G 8  24756223.826   130094833.867       -1474.891          41.000  
G 6  23593109.106   123982627.499        3727.271          43.000  
G 7  24129657.739   126802190.6372      -2494.112          43.000  
R13  24643274.010                       -3586.958          26.000  
R16  23275696.043   124334579.3513       4159.325          36.000  
> 2016  5 20 10 26  5.0000000  0 21                     
G 1  21548489.098   113238075.713       -1755.231          48.000  
G 3  21536552.748   113175342.080        2156.541          48.000  
R16  23274913.715   124330420.5552       4158.336          40.000  
G11  22372448.454   117568014.547       -1937.983          47.000  
G17  22313409.987   117257755.645        2314.963          49.000  
R 8  24280299.305   130019933.701       -1550.581          40.000  
G22  22115872.615   116219691.021         251.746          47.000  
G28  20692574.293   108740214.065        2170.111          49.000  
J 1  37394485.653   196509347.694         506.493          47.000  
G30  22881519.747   120243186.197       -1948.276          44.000  
R 2  22319351.559   119100344.241        4218.046          48.000  
R18  22885874.925   122166351.3482       2774.709          48.000  
R15  20151318.621   107682531.872         661.741          50.000  
R 1  22034927.822   117789347.242        1229.509          49.000  
R24  21666975.415   115863070.807       -1134.656          45.000  
R14  20625316.809   109944546.240       -2510.981          41.000  
R17  20517263.866   109792066.742        1028.106          52.000  
G 8  24756504.687   130096309.625       -1476.286          36.000  
G 6  23592399.755   123978900.369        3726.685          42.000  
G 7  24130132.437   126804685.1672      -2494.567          42.000  
R13  24643947.658                       -3585.273          24.000  
> 2016  5 20 10 26  6.0000000  0 22                     
G 1  21548822.973   113239830.454       -1754.745          48.000  
G 3  21536142.005   113173185.043        2156.691          48.000  
R16  23274136.656   124326249.3923       4156.298          41.000  
G11  22372817.473   117569951.654       -1936.990          46.000  
G17  22312969.770   117255440.121        2315.329          49.000  
R 8  24280588.909   130021483.922       -1550.702          40.000  
G22  22115824.330   116219438.923         251.795          48.000  
G28  20692161.124   108738043.548        2170.532          49.000  
J 1  37394389.136   196508840.291         507.257          47.000  
G30  22881890.198   120245133.892       -1947.506          44.000  
R 2  22318560.960   119096125.226        4218.783          48.000  
R18  22885354.438   122163570.0183       2775.835          46.000  
R15  20151194.585   107681869.623         661.853          50.000  
R 1  22034697.845   117788117.402        1229.325          48.000  
R24  21667187.592   115864204.923       -1134.276          45.000  
R14  20625787.720   109947056.421       -2510.251          41.000  
R17  20517072.106   109791038.287        1028.704          52.000  
G 8  24756785.461   130097785.158       -1476.160          39.000  
G 6  23591690.002   123975173.315        3726.762          41.000  
G 7  24130607.083   126807179.3912      -2493.087          41.000  
G19  23758685.724                        3131.445          41.000  
R13  24644621.498                       -3588.572          23.000  
> 2016  5 20 10 26  7.0000000  0 22                     
G 1  21549157.249   113241585.635       -1755.383          48.000  
G 3  21535731.837   113171028.677        2156.101          48.000  
R16  23273355.881   124322091.8572       4156.446          44.000  
G11  22373186.039   117571889.111       -1937.980          46.000  
G17  22312528.960   117253124.832        2315.050          48.000  
R 8  24280878.478   130023035.066       -1552.095          39.000  
G22  22115776.813   116219187.511         250.861          47.000  
G28  20691748.112   108735873.679        2169.385          49.000  
J 1  37394292.409   196508333.130         505.807          43.000  
G30  22882260.910   120247081.952       -1947.824          45.000  
R 2  22317770.587   119091906.587        4218.434          48.000  
R18  22884834.212   122160794.5622       2775.411          46.000  
R15  20151070.514   107681208.506         660.088          50.000  
R 1  22034467.816   117786888.526        1228.417          48.000  
R24  21667399.769   115865339.263       -1134.730          45.000  
R14  20626258.545   109949567.279       -2511.232          41.000  
R17  20516880.520   109790010.260        1027.586          52.000  
G 8  24757066.061   130099260.868       -1473.448          36.000  
G 6  23590980.738   123971446.685        3726.174          43.000  
G 7  24131081.467   126809673.1481      -2493.827          40.000  
G19  23758089.275   124849601.3493       3130.334          42.000  
R13  24645302.632                       -3600.355          20.000  
> 2016  5 20 10 26  8.0000000  0 22                     
G 1  21549491.282   113243340.894       -1755.464          48.000  
G 3  21535321.391   113168872.611        2154.819          45.000  
R16  23272582.732   124317948.9813       4156.497          44.000  
G11  22373554.710   117573826.385       -1937.173          47.000  
G17  22312088.918   117250809.633        2315.298          49.000  
R 8  24281168.343   130024586.578       -1552.082          40.000  
G22  22115729.122   116218936.363         250.868          47.000  
G28  20691335.275   108733704.107        2169.336          49.000  
J 1  37394195.788   196507825.597         508.319          46.000  
G30  22882631.884   120249030.067       -1947.903          45.000  
R 2  22316979.865   119087687.805        4218.215          48.000  
G19  23757497.364   124846471.3582       3130.438          42.000  
R15  20150946.669   107680548.235         660.138          50.000  
R 1  22034237.875   117785660.145        1227.756          50.000  
R24  21667611.685   115866473.402       -1134.030          44.000  
R14  20626729.509   109952078.500       -2511.279          41.000  
R17  20516688.201   109788982.397        1027.571          52.000  
G 8  24757346.992   130100736.338       -1475.539          41.000  
G 6  23590271.352   123967720.229        3726.512          41.000  
G 7  24131556.235   126812167.065       -2493.990          43.000  
R18  22884314.021   122158016.2833       2775.285          48.000  
R13  24645978.305                       -3583.741          22.000  
> 2016  5 20 10 26  9.0000000  0 22                     
G 1  21549825.209   113245096.424       -1756.038          48.000  
G 3  21534911.415   113166716.837        2155.233          48.000  
R18  22883794.022   122155241.3422       2774.576          47.000  
G11  22373923.451   117575763.842       -1937.926          47.000  
G17  22311648.335   117248494.571        2314.872          48.000  
R 8  24281458.470   130026138.818       -1553.293          41.000  
G22  22115681.326   116218685.754         250.312          47.000  
G28  20690922.595   108731534.970        2168.671          49.000  
J 1  37394099.061   196507318.138         507.124          47.000  
G30  22883002.265   120250978.274       -1948.213          45.000  
R 2  22316189.248   119083469.063        4219.611          46.000  
G19  23756899.938   124843341.4072       3129.401          41.000  
R15  20150823.331   107679888.874         659.017          50.000  
R 1  22034008.649   117784432.522        1227.245          49.000  
R24  21667823.705   115867607.617       -1134.499          45.000  
R14  20627200.490   109954590.140       -2511.824          41.000  
R17  20516496.022   109787954.774        1027.409          51.000  
G 8  24757628.115   130102211.835       -1475.085          41.000  
G 6  23589562.279   123963993.970        3726.492          42.000  
G 7  24132030.811   126814660.710       -2493.949          43.000  
R13  24646644.537                       -3588.198          21.000  
R16  23271802.847   124313782.7813       4155.289          44.000  
> 2016  5 20 10 26 10.0000000  0 21                     
G 1  21550159.293   113246852.371       -1756.335          48.000  
G 3  21534501.440   113164561.780        2154.984          49.000  
R18  22883274.110   122152466.4032       2776.570          44.000  
G11  22374292.122   117577701.595       -1938.143          47.000  
G17  22311207.839   117246179.592        2314.599          49.000  
R 8  24281748.441   130027691.839       -1554.053          39.000  
G22  22115633.652   116218435.809         251.307          49.000  
G28  20690509.828   108729366.333        2168.622          49.000  
J 1  37394002.666   196506810.730         507.357          47.000  
G30  22883373.117   120252926.499       -1947.579          45.000  
R 2  22315398.527   119079250.648        4218.301          49.000  
G19  23756303.682   124840211.5802       3129.474          39.000  
R15  20150700.447   107679230.449         657.676          51.000  
R 1  22033778.986   117783205.824        1225.815          48.000  
R24  21668036.144   115868741.997       -1134.408          46.000  
R14  20627671.768   109957102.248       -2512.258          41.000  
R17  20516303.999   109786927.446        1027.333          52.000  
R16  23271022.473   124309626.9592       4156.333          40.000  
G 6  23588853.364   123960267.833        3726.068          42.000  
G 7  24132505.265   126817154.112       -2493.325          42.000  
R13  24647316.475                       -3587.977          21.000  
> 2016  5 20 10 26 11.0000000  0 21                     
G 1  21550493.570   113248608.560       -1756.434          48.000  
G 3  21534091.342   113162407.239        2153.862          49.000  
G 8  24758189.646   130105163.9903      -1477.005          39.000  
G11  22374660.722   117579639.484       -1937.997          47.000  
G17  22310767.134   117243864.585        2314.998          49.000  
R 8  24282038.516   130029245.564       -1553.827          39.000  
G22  22115586.222   116218186.553         248.115          47.000  
G28  20690097.025   108727198.037        2167.914          49.000  
J 1  37393906.201   196506303.308         507.185          46.000  
G30  22883743.882   120254874.820       -1948.451          44.000  
R 2  22314608.136   119075032.504        4217.133          48.000  
G19  23755708.385   124837081.6932       3126.849          42.000  
R15  20150577.650   107678572.782         656.683          50.000  
R 1  22033549.830   117781979.999        1225.072          46.000  
R24  21668248.251   115869876.493       -1134.720          45.000  
R14  20628143.308   109959614.763       -2513.126          41.000  
R17  20516111.977   109785900.257        1026.798          51.000  
R16  23270246.043   124305471.8342       4153.531          42.000  
G 6  23588144.257   123956541.805        3725.458          44.000  
G 7  24132979.737   126819647.281       -2492.688          41.000  
R13  24647990.420                       -3618.802          23.000  
> 2016  5 20 10 26 12.0000000  0 22                     
G 1  21550827.672   113250365.185       -1756.732          48.000  
G 3  21533681.663   113160253.373        2153.464          48.000  
G 8  24758470.332   130106639.8392      -1473.330          38.000  
G11  22375029.411   117581577.717       -1937.551          47.000  
G17  22310326.289   117241549.657        2315.458          49.000  
R 8  24282328.870   130030800.032       -1553.781          35.000  
G22  22115539.159   116217937.912         248.977          47.000  
G28  20689684.589   108725030.196        2167.914          49.000  
J 1  37393809.492   196505796.003         507.409          47.000  
G30  22884114.751   120256823.157       -1947.789          45.000  
R 2  22313817.746   119070814.633        4217.601          49.000  
G19  23755112.774   124833959.3103       3128.491          43.000  
R15  20150454.486   107677915.950         656.761          50.000  
R 1  22033320.674   117780755.131        1225.361          47.000  
R24  21668460.603   115871011.205       -1134.650          45.000  
R14  20628614.935   109962127.697       -2512.770          41.000  
R17  20515919.938   109784873.301        1027.151          52.000  
R16  23269469.665   124301316.7212       4156.256          35.000  
G 6  23587435.499   123952815.875        3725.563          43.000  
G 7  24133454.069   126822140.269       -2491.335          41.000  
R18  22882233.292   122146909.2283       2775.765          42.000  
R13  24648666.354                       -3585.093          21.000  
> 2016  5 20 10 26 13.0000000  0 22                     
G 1  21551161.878   113252122.247       -1757.247          48.000  
G 3  21533271.863   113158100.067        2152.703          48.000  
G 8  24758751.525   130108116.0972      -1477.013          40.000  
G11  22375398.483   117583516.294       -1938.708          47.000  
G17  22309886.334   117239234.704        2315.140          48.000  
R 8  24282619.032   130032355.721       -1555.598          38.000  
G22  22115492.148   116217690.129         247.482          47.000  
G28  20689271.927   108722862.711        2167.352          49.000  
J 1  37393712.888   196505288.680         507.357          46.000  
G30  22884485.377   120258771.349       -1947.906          44.000  
R 2  22313027.304   119066597.033        4217.568          49.000  
G19  23754517.163   124830829.3712       3130.896          34.000  
R15  20150331.724   107677259.856         655.894          50.000  
R 1  22033092.006   117779531.324        1223.820          47.000  
R24  21668673.077   115872146.138       -1134.997          45.000  
R14  20629086.579   109964640.872       -2513.133          41.000  
R17  20515729.137   109783846.476        1027.131          52.000  
R16  23268691.944   124297162.6872       4154.921          41.000  
G 6  23586726.636   123949089.768        3726.597          43.000  
G 7  24133928.278   126824632.869       -2492.318          41.000  
R18  22881715.107                        2772.946          43.000  
R13  24649337.629                       -3591.121          22.000  
