     3.00           OBSERVATION DATA    M: Mixed            RINEX VERSION / TYPE
RTKCONV 2.4.3 b9                        20160520 111600 UTC PGM / RUN BY / DATE 
log: C:\Users\½ðÇï\Desktop\moving2\COM7_160520_102258.ubx   COMMENT             
format: u-blox                                              COMMENT             
                                                            MARKER NAME         
                                                            MARKER NUMBER       
                                                            MARKER TYPE         
                                                            OBSERVER / AGENCY   
                                                            REC # / TYPE / VERS 
                                                            ANT # / TYPE        
 -2743178.9846  4692264.3758  3326280.2966                  APPROX POSITION XYZ 
        0.0000        0.0000        0.0000                  ANTENNA: DELTA H/E/N
G    4 C1C L1C D1C S1C                                      SYS / # / OBS TYPES 
R    4 C1C L1C D1C S1C                                      SYS / # / OBS TYPES 
E    4 C1C L1C D1C S1C                                      SYS / # / OBS TYPES 
J    4 C1C L1C D1C S1C                                      SYS / # / OBS TYPES 
S    4 C1C L1C D1C S1C                                      SYS / # / OBS TYPES 
  2016     5    20    10    23   20.0000000     GPS         TIME OF FIRST OBS   
  2016     5    20    10    34   57.0000000     GPS         TIME OF LAST OBS    
                                                            END OF HEADER       
> 2016  5 20 10 23 20.0000000  0 18                     
G 1  21525112.472   113115237.521       -2118.013          51.000  
G 3  21635629.779   113696006.000        1818.828          49.000  
G 8  24741127.974   130015502.959       -1876.063          43.000  
G11  22343195.799   117414281.178       -2317.452          51.000  
G17  22416235.866   117798121.586        1895.057          48.000  
G22  22156034.221   116430747.136         -65.659          43.000  
R 2  22479956.523   119957348.225        3815.297          49.000  
G28  20791858.389   109261962.279        1813.348          47.000  
J 1  37440152.925   196749335.040          81.751          46.000  
R15  20203513.321   107961434.274         365.261          48.000  
G19  23887165.814   125527888.167        2700.134          43.000  
G30  22849111.325   120072881.401       -2377.799          41.000  
R14  20577544.168   109689900.795       -2881.894          39.000  
R24  21663361.056   115843737.071       -1538.208          48.000  
R17  20579758.331   110126484.610         628.598          52.000  
R 8  24265747.655   129941994.770       -1847.655          47.000  
R 1  22105958.444   118169043.643         947.409          46.000  
R18  23001153.768   122781739.904        2346.114          41.000  
> 2016  5 20 10 23 21.0000000  0 18                     
G 1  21525515.607   113117355.939       -2118.696          52.000  
G 3  21635283.166   113694187.411        1818.132          49.000  
G 8  24741484.552   130017379.161       -1876.348          43.000  
G11  22343636.713   117416599.030       -2318.169          51.000  
G17  22415875.118   117796226.677        1894.700          48.000  
G22  22156046.524   116430813.273         -66.728          43.000  
R 2  22479241.971   119953533.067        3814.858          49.000  
G28  20791513.590   109260149.171        1812.781          47.000  
J 1  37440137.325   196749253.353          81.496          46.000  
R15  20203444.794   107961069.362         364.274          48.000  
G19  23886651.975   125525188.079        2700.061          43.000  
G30  22849563.530   120075259.189       -2377.887          40.000  
R14  20578084.619   109692782.899       -2882.242          39.000  
R24  21663648.915   115845275.669       -1538.836          48.000  
R17  20579641.554   110125856.252         628.045          51.000  
R 8  24266092.681   129943843.108       -1848.826          47.000  
R 1  22105780.626   118168096.947         946.178          46.000  
R18  23000715.402   122779393.892        2345.677          41.000  
> 2016  5 20 10 23 22.0000000  0 18                     
G 1  21525918.864   113119474.262       -2117.732          51.000  
G 3  21634937.756   113692369.791        1816.849          49.000  
G 8  24741841.339   130019255.290       -1875.509          41.000  
G11  22344077.663   117418916.524       -2316.432          49.000  
G17  22415514.806   117794332.085        1894.298          48.000  
G22  22156059.105   116430879.862         -66.667          46.000  
R 2  22478527.019   119949718.914        3813.296          47.000  
G28  20791169.507   109258336.716        1811.981          49.000  
J 1  37440122.021   196749172.345          80.369          48.000  
R15  20203376.477   107960706.033         362.478          48.000  
G19  23886137.944   125522488.725        2698.450          41.000  
G30  22850016.276   120077638.733       -2381.048          42.000  
R14  20578625.401   109695666.912       -2885.841          39.000  
R24  21663936.686   115846813.738       -1536.940          48.000  
R17  20579523.922   110125228.108         628.117          51.000  
R 8  24266437.689   129945691.312       -1846.866          46.000  
R 1  22105604.048   118167150.628         947.256          46.000  
R18  23000276.878   122777048.747        2345.274          40.000  
> 2016  5 20 10 23 23.0000000  0 18                     
G 1  21526322.331   113121590.654       -2115.244          52.000  
G 3  21634592.032   113690552.714        1817.151          49.000  
G 8  24742197.062   130021129.813       -1873.743          40.000  
G11  22344517.862   117421231.661       -2313.796          50.000  
G17  22415154.424   117792437.298        1894.972          48.000  
G22  22156072.385   116430945.460         -64.867          50.000  
R 2  22477812.554   119945905.522        3814.853          47.000  
G28  20790824.708   109256524.415        1812.714          48.000  
J 1  37440106.769   196749092.053          79.990          48.000  
R15  20203308.596   107960344.410         360.482          47.000  
G19  23885623.982   125519790.227        2698.969          43.000  
G30  22850469.545   120080021.495       -2384.558          40.000  
R14  20579167.160   109698554.073       -2888.514          41.000  
R24  21664224.214   115848349.081       -1534.197          49.000  
R17  20579405.924   110124599.311         628.935          51.000  
R 8  24266782.419   129947536.892       -1844.015          47.000  
R 1  22105427.626   118166203.057         948.325          52.000  
R18  22999837.987   122774705.495        2343.192          37.000  
> 2016  5 20 10 23 24.0000000  0 18                     
G 1  21526724.523   113123705.385       -2113.918          52.000  
G 3  21634246.361   113688736.479        1815.521          49.000  
G 8  24742553.465   130023002.793       -1871.405          38.000  
G11  22344957.782   117423544.557       -2312.266          51.000  
G17  22414794.251   117790542.826        1894.002          48.000  
G22  22156085.368   116431009.914         -64.388          49.000  
R 2  22477098.439   119942093.601        3811.681          49.000  
G28  20790480.345   109254712.564        1811.743          48.000  
J 1  37440091.535   196749012.654          79.009          47.000  
R15  20203241.499   107959984.926         358.809          47.000  
G19  23885110.318   125517093.045        2696.911          42.000  
G30  22850923.390   120082408.063       -2387.931          40.000  
R14  20579709.478   109701444.901       -2892.441          40.000  
R24  21664511.217   115849881.757       -1530.552          48.000  
R17  20579288.309   110123970.231         629.226          52.000  
R 8  24267126.729   129949379.946       -1841.466          46.000  
R 1  22105250.175   118165254.245         949.837          51.000  
R18  22999399.725   122772364.373        2338.463          37.000  
> 2016  5 20 10 23 25.0000000  0 17                     
G 1  21527126.943   113125818.719       -2113.811          50.000  
G 3  21633900.829   113686920.824        1815.027          49.000  
G 8  24742910.374   130024874.156       -1870.773          44.000  
G11  22345397.807   117425855.547       -2309.992          50.000  
G17  22414434.061   117788648.607        1894.060          49.000  
G22  22156097.216   116431073.840         -64.674          51.000  
R 2  22476385.196   119938282.616        3810.157          50.000  
G28  20790135.633   109252901.196        1810.535          49.000  
J 1  37440076.668   196748934.128          76.462          47.000  
R15  20203174.595   107959627.572         356.441          48.000  
G30  22851378.422   120084798.022       -2392.590          39.000  
R14  20580252.459   109704338.971       -2895.854          40.000  
R24  21664797.732   115851412.315       -1530.260          48.000  
R17  20579170.730   110123341.002         629.154          51.000  
R 8  24267470.795   129951221.046       -1840.361          44.000  
R 1  22105072.409   118164304.414         949.557          51.000  
R18  22998961.480   122770025.154        2336.838          39.000  
> 2016  5 20 10 23 26.0000000  0 17                     
G 1  21527528.856   113127931.322       -2112.257          51.000  
G 3  21633555.873   113685106.614        1814.120          42.000  
G 8  24743266.830   130026745.193       -1871.272          43.000  
G11  22345837.029   117428165.528       -2308.900          49.000  
G17  22414073.365   117786754.916        1894.633          49.000  
G22  22156109.641   116431137.815         -64.351          50.000  
R 2  22475672.652   119934473.302        3810.483          45.000  
G28  20789790.887   109251090.682        1810.541          49.000  
J 1  37440061.800   196748856.668          76.504          47.000  
R15  20203107.883   107959272.379         354.653          47.000  
G30  22851834.030   120087191.022       -2394.141          40.000  
R14  20580796.016   109707236.228       -2898.920          40.000  
R24  21665083.497   115852941.434       -1528.248          48.000  
R17  20579053.255   110122712.018         629.062          50.000  
R 8  24267814.337   129953060.951       -1838.405          44.000  
R 1  22104894.731   118163354.264         951.049          52.000  
R18  22998523.846   122767676.6693       2337.211          40.000  
> 2016  5 20 10 23 27.0000000  0 17                     
G 1  21527930.421   113130042.841       -2111.724          51.000  
G 3  21633210.638   113683292.813        1814.614          47.000  
G 8  24743623.024   130028615.370       -1869.602          43.000  
G11  22346276.460   117430473.976       -2308.220          51.000  
G17  22413713.228   117784861.297        1893.120          49.000  
G22  22156122.519   116431201.264         -63.298          51.000  
R 2  22474959.077   119930688.0263       3810.873          41.000  
G28  20789447.013   109249280.513        1809.912          49.000  
J 1  37440047.474   196748779.971          76.835          40.000  
R15  20203041.398   107958918.769         353.580          48.000  
G30  22852289.795   120089586.697       -2396.099          40.000  
R14  20581340.009   109710136.103       -2900.891          40.000  
R24  21665368.878   115854468.821       -1526.947          49.000  
R17  20578935.414   110122082.750         628.808          51.000  
R 8  24268157.862   129954899.346       -1838.731          44.000  
R 1  22104716.722   118162403.880         949.875          47.000  
R18  22998086.282                        2342.197          32.000  
> 2016  5 20 10 23 28.0000000  0 16                     
G 1  21528331.933   113132153.765       -2110.598          51.000  
G 3  21632865.473   113681480.245        1810.611          49.000  
G 8  24743978.659   130030484.966       -1869.205          44.000  
G11  22346715.298   117432781.627       -2307.278          50.000  
G17  22413352.829   117782967.824        1893.465          48.000  
G22  22156134.525   116431264.968         -64.087          50.000  
R 2  22474243.461   119926880.5282       3807.731          39.000  
G28  20789102.546   109247470.918        1809.436          48.000  
J 1  37440033.374   196748703.942          77.141          45.000  
R15  20202975.523   107958566.846         351.175          47.000  
R14  20581884.735   109713038.294       -2903.519          40.000  
R24  21665654.241   115855995.120       -1526.381          49.000  
R17  20578817.991   110121453.476         629.550          51.000  
R 8  24268501.021   129956736.920       -1837.501          44.000  
R 1  22104538.852   118161453.041         950.194          50.000  
R18  22997652.801                        2324.128          27.000  
> 2016  5 20 10 23 29.0000000  0 17                     
G 1  21528733.497   113134264.528       -2110.583          51.000  
G 3  21632520.831   113679668.734        1810.664          49.000  
G 8  24744334.574   130032354.654       -1868.628          45.000  
G11  22347154.485   117435088.794       -2306.615          49.000  
G17  22412992.499   117781074.918        1892.389          48.000  
G22  22156145.327   116431328.980         -63.562          50.000  
R 2  22473528.910   119923074.4632       3805.255          48.000  
G28  20788758.305   109245662.128        1808.319          48.000  
J 1  37440019.134   196748629.013          74.006          47.000  
R15  20202910.469   107958216.802         349.252          48.000  
G30  22853203.767                       -2403.320          39.000  
R14  20582429.566   109715942.967       -2905.829          40.000  
R24  21665939.413   115857520.660       -1524.976          49.000  
R17  20578700.342   110120824.564         628.706          51.000  
R 8  24268844.109   129958574.187       -1836.859          44.000  
R 1  22104361.034   118160502.738         950.075          51.000  
R18  22997223.177                        2357.303          27.000  
> 2016  5 20 10 23 30.0000000  0 16                     
G 1  21529135.219   113136374.914       -2109.865          51.000  
G 3  21632176.573   113677858.323        1809.769          49.000  
G 8  24744690.489   130034223.873       -1868.383          43.000  
G11  22347593.463   117437395.295       -2305.824          50.000  
G17  22412632.484   117779182.343        1892.649          48.000  
G22  22156158.763   116431393.275         -64.186          50.000  
R 2  22472815.911   119919269.5412       3805.434          50.000  
G28  20788414.414   109243854.123        1807.935          48.000  
R15  20202844.926   107957868.626         347.240          47.000  
G30  22853656.269   120096773.3313      -2404.149          39.000  
R14  20582974.920   109718850.182       -2908.094          40.000  
R24  21666224.672   115859045.305       -1523.813          49.000  
R17  20578582.692   110120195.806         629.271          51.000  
R 8  24269186.989   129960410.882       -1836.237          44.000  
R 1  22104183.635   118159552.689         949.877          51.000  
R18  22996790.411                        2343.261          27.000  
> 2016  5 20 10 23 31.0000000  0 17                     
G 1  21529536.661   113138484.813       -2109.875          51.000  
G 3  21631832.193   113676048.814        1808.829          48.000  
G 8  24745046.560   130036092.740       -1865.088          34.000  
G11  22348032.074   117439700.993       -2305.312          49.000  
G17  22412272.782   117777290.086        1891.889          48.000  
G22  22156170.874   116431457.664         -64.450          50.000  
R 2  22472104.763   119915465.5672       3803.013          51.000  
G28  20788070.383   109242046.737        1806.793          48.000  
J 1  37439989.958   196748474.6553         72.492          47.000  
R15  20202779.976   107957522.098         345.550          48.000  
G30  22854116.623   120099178.0462      -2406.046          40.000  
R14  20583520.990   109721759.619       -2910.702          40.000  
R24  21666509.738   115860568.951       -1523.424          48.000  
R17  20578465.322   110119567.225         628.138          50.000  
R 8  24269529.920   129962246.871       -1835.262          44.000  
R 1  22104006.009   118158602.606         950.018          51.000  
R18  22996351.067                        2329.069          27.000  
> 2016  5 20 10 23 32.0000000  0 15                     
G 1  21529938.103   113140594.307       -2108.970          51.000  
G 8  24745402.091   130037961.139       -1867.858          43.000  
G11  22348470.546   117442006.005       -2304.289          49.000  
G22  22156182.653   116431522.228         -64.833          50.000  
R 2  22471392.323   119911662.7052       3802.306          47.000  
G28  20787726.352   109240240.041        1806.610          48.000  
J 1  37439978.126   196748402.1362         72.249          47.000  
R15  20202715.445   107957177.338         344.279          48.000  
G30  22854575.668   120101584.9362      -2407.567          39.000  
R14  20584067.513   109724671.479       -2912.714          40.000  
R24  21666794.456   115862091.674       -1522.175          48.000  
R17  20578347.969   110118938.833         628.402          51.000  
R 8  24269872.870   129964082.387       -1835.180          46.000  
R 1  22103828.383   118157652.677         949.839          52.000  
R18  22995915.248                        2326.602          27.000  
> 2016  5 20 10 23 33.0000000  0 15                     
G 1  21530339.545   113142703.492       -2108.931          51.000  
G 3  21631143.433   113672425.3203       1807.504          48.000  
G 8  24745757.482   130039829.452       -1866.806          40.000  
G11  22348909.192   117444310.461       -2304.263          49.000  
G17  22411550.675   117773493.2263       1892.122          48.000  
G22  22156195.653   116431587.070         -64.570          50.000  
R 2  22470678.661   119907860.8112       3801.337          48.000  
R15  20202651.281   107956834.397         342.549          48.000  
G30  22855033.929   120103994.1662      -2409.489          39.000  
R14  20584614.228   109727585.689       -2914.751          39.000  
R24  21667079.104   115863613.538       -1521.029          49.000  
R17  20578230.146   110118310.669         628.685          50.000  
R 8  24270215.854   129965917.373       -1834.603          47.000  
R 1  22103650.915   118156702.940         950.003          52.000  
R18  22995483.146                        2328.951          27.000  
> 2016  5 20 10 23 34.0000000  0 17                     
G 1  21530740.900   113144811.889       -2108.231          51.000  
G 3  21630799.908   113670618.4162       1806.256          49.000  
G 8  24746112.908   130041696.879       -1866.064          41.000  
G11  22349347.349   117446613.833       -2303.133          49.000  
G17  22411187.396   117771601.6722       1891.181          48.000  
G22  22156207.921   116431651.717         -64.662          50.000  
R 2  22469966.378   119904059.1241       3800.916          48.000  
G28  20787040.802   109236635.9113       1805.273          48.000  
R15  20202587.169   107956492.693         340.714          47.000  
G30  22855490.583   120106404.9442      -2411.750          40.000  
J 1  37439949.037                          78.000          47.000  
R14  20585161.170   109730501.693       -2917.168          40.000  
R24  21667363.508   115865134.129       -1520.243          49.000  
R17  20578112.915   110117682.246         628.021          51.000  
R 8  24270558.384   129967751.434       -1833.729          47.000  
R 1  22103473.149   118155753.013         949.723          51.000  
R18  22995050.607   122749136.0973       2342.411          27.000  
> 2016  5 20 10 23 35.0000000  0 16                     
G 1  21531142.081   113146920.198       -2108.309          51.000  
G 3  21630455.999   113668812.6012       1804.604          48.000  
G 8  24746467.985   130043564.288       -1867.746          44.000  
G11  22349785.577   117448916.786       -2303.396          50.000  
G17  22410834.064   117769710.7302       1890.648          48.000  
G22  22156219.787   116431716.775         -65.670          50.000  
R 2  22469254.357   119900259.271        3797.616          48.000  
G28  20786697.609   109234831.1552       1804.065          48.000  
R15  20202523.493   107956152.961         338.539          48.000  
G30  22855951.862   120108818.0612      -2414.631          40.000  
J 1  37439934.920   196748185.3153         69.761          47.000  
R24  21667647.842   115866654.104       -1520.463          49.000  
R17  20577995.318   110117054.319         627.333          50.000  
R 8  24270900.862   129969585.274       -1834.359          46.000  
R 1  22103295.332   118154803.437         949.210          51.000  
R18  22994615.538                        2338.809          27.000  
> 2016  5 20 10 23 36.0000000  0 18                     
G 1  21531543.296   113149028.443       -2108.054          51.000  
G 3  21630114.237   113667007.8812       1804.237          47.000  
G 8  24746823.376   130045431.614       -1870.209          37.000  
G11  22350223.926   117451219.391       -2302.223          49.000  
G17  22410472.932   117767820.5692       1889.847          48.000  
G22  22156232.578   116431782.242         -65.302          50.000  
R 2  22468542.388   119896460.242        3798.525          49.000  
G28  20786354.939   109233027.3902       1803.558          48.000  
G19  23878963.775   125484800.9423       2684.558          42.000  
R15  20202460.358   107955815.318         336.806          48.000  
G30  22856410.681   120111233.5172      -2416.109          39.000  
J 1  37439923.333   196748115.8612         69.328          47.000  
R14  20586305.154                       -2920.533          39.000  
R24  21667931.949   115868173.463       -1518.322          49.000  
R17  20577878.262   110116426.974         627.672          51.000  
R 8  24271243.183   129971419.069       -1833.390          44.000  
R 1  22103117.758   118153854.264         949.810          50.000  
R18  22994174.519                        2329.095          31.000  
> 2016  5 20 10 23 37.0000000  0 18                     
G 1  21531944.320   113151136.480       -2108.181          51.000  
G 3  21629770.258   113665204.1682       1802.768          48.000  
G 8  24747178.576   130047298.561       -1867.184          43.000  
G11  22350661.717   117453521.468       -2301.777          49.000  
G17  22410114.033   117765930.9912       1889.217          48.000  
G22  22156245.037   116431847.975         -66.097          50.000  
R 2  22467830.768   119892662.364        3798.325          45.000  
G28  20786010.193   109231224.4812       1802.539          48.000  
G19  23878451.751   125482116.6122       2683.807          42.000  
R15  20202397.415   107955479.584         334.863          48.000  
G30  22856870.896   120113651.1862      -2418.846          39.000  
J 1  37439909.652   196748047.1932         68.094          46.000  
R14  20586833.913                       -2921.337          39.000  
R24  21668215.689   115869692.143       -1518.570          49.000  
R17  20577761.345   110115800.067         626.719          51.000  
R 8  24271585.713   129973252.626       -1833.870          41.000  
R 1  22102940.115   118152905.340         948.513          51.000  
R18  22993728.928   122742080.6892       2322.770          40.000  
> 2016  5 20 10 23 38.0000000  0 18                     
G 1  21532345.657   113153244.559       -2108.552          51.000  
G 3  21629425.983   113663401.6762       1801.562          48.000  
G 8  24747534.037   130049165.612       -1867.399          41.000  
G11  22351099.840   117455823.372       -2302.274          50.000  
G17  22409753.913   117764041.9002       1888.750          48.000  
G22  22156257.165   116431914.325         -66.877          50.000  
R 2  22467119.148   119888865.731        3796.046          49.000  
G28  20785667.086   109229422.4492       1801.520          48.000  
G19  23877939.465   125479433.1772       2682.977          42.000  
R15  20202334.996   107955145.622         333.086          48.000  
G30  22857331.564   120116070.8312      -2420.399          39.000  
J 1  37439896.494   196747979.4972         66.932          46.000  
R14  20587372.445   109742279.6233      -2926.192          39.000  
R24  21668499.517   115871210.417       -1518.625          49.000  
R17  20577644.202   110115173.563         625.977          50.000  
R 8  24271927.772   129975086.126       -1834.914          38.000  
R 1  22102763.274   118151957.061         947.802          52.000  
R18  22993291.887   122739747.3812       2320.977          40.000  
> 2016  5 20 10 23 39.0000000  0 18                     
G 1  21532747.100   113155353.552       -2110.338          51.000  
G 3  21629084.220   113661600.0962       1801.288          49.000  
G 8  24747889.812   130051033.389       -1866.612          45.000  
G11  22351538.224   117458126.087       -2303.286          51.000  
G17  22409394.473   117762153.1492       1888.325          48.000  
G22  22156270.462   116431981.811         -67.954          50.000  
R 2  22466408.104   119885069.624        3796.344          49.000  
G28  20785323.788   109227621.1972       1800.635          48.000  
G19  23877434.368   125476749.9992       2682.941          42.000  
R15  20202272.559   107954812.796         332.379          47.000  
G30  22857792.093   120118490.6802      -2419.559          39.000  
J 1  37439883.459   196747912.1672         66.973          47.000  
R14  20587915.146   109745205.6832      -2925.923          40.000  
R24  21668783.484   115872729.444       -1520.186          48.000  
R17  20577527.216   110114547.651         625.313          50.000  
R 8  24272270.425   129976921.099       -1837.122          41.000  
R 1  22102586.259   118151010.219         946.757          51.000  
R18  22992855.178   122737426.4182       2320.149          40.000  
> 2016  5 20 10 23 40.0000000  0 18                     
G 1  21533148.664   113157464.228       -2111.691          51.000  
G 3  21628741.742   113659799.3952       1800.072          49.000  
G 8  24748245.534   130052902.712       -1870.683          42.000  
G11  22351977.045   117460430.642       -2305.518          50.000  
G17  22409035.837   117760264.8812       1887.958          48.000  
G22  22156283.288   116432051.106         -70.072          50.000  
R 2  22465696.624   119881273.666        3795.573          50.000  
G28  20784980.996   109225820.8342       1799.756          48.000  
G19  23876923.426   125474066.7432       2682.800          42.000  
R15  20202210.261   107954480.756         331.476          47.000  
G30  22858252.464   120120909.3722      -2418.572          40.000  
J 1  37439871.226   196747844.8632         66.898          47.000  
R14  20588462.054   109748131.1992      -2926.186          40.000  
R24  21669068.115   115874250.285       -1521.638          49.000  
R17  20577410.317   110113922.626         624.385          51.000  
R 8  24272613.583   129978758.598       -1837.689          36.000  
R 1  22102409.332   118150065.712         943.508          50.000  
R18  22992415.694   122735105.0502       2320.792          40.000  
> 2016  5 20 10 23 41.0000000  0 18                     
G 1  21533550.508   113159576.204       -2113.051          51.000  
G 3  21628399.229   113657999.4872       1799.410          49.000  
G 8  24748601.222   130054772.629       -1870.621          45.000  
G11  22352415.778   117462736.353       -2305.813          50.000  
G17  22408676.240   117758377.0482       1887.588          48.000  
G22  22156296.306   116432121.753         -71.505          50.000  
R 2  22464985.248   119877478.084        3796.239          49.000  
G28  20784639.112   109224021.3022       1798.859          48.000  
G19  23876413.234   125471383.5712       2682.733          42.000  
R15  20202148.453   107954149.672         330.288          48.000  
G30  22858712.661   120123327.5432      -2418.130          39.000  
J 1  37439858.994   196747777.7092         66.817          47.000  
R14  20589008.594   109751056.7122      -2925.861          40.000  
R24  21669352.623   115875772.335       -1522.627          50.000  
R17  20577293.488   110113298.347         623.643          51.000  
R 8  24272956.951   129980598.356       -1841.121          45.000  
R 1  22102233.084   118149123.051         941.828          49.000  
R18  22991981.672                        2320.508          39.000  
> 2016  5 20 10 23 42.0000000  0 18                     
G 1  21533952.648   113161688.886       -2113.335          51.000  
G 3  21628056.489   113656200.1782       1798.413          48.000  
G 8  24748956.980   130056643.159       -1870.786          44.000  
G11  22352854.599   117465042.823       -2307.085          50.000  
G17  22408316.853   117756489.3442       1887.332          48.000  
G22  22156310.825   116432193.289         -72.409          50.000  
R 2  22464274.030   119873682.548        3795.372          49.000  
G28  20784296.826   109222222.2912       1798.309          48.000  
G19  23875901.838   125468700.4022       2682.587          42.000  
R15  20202086.557   107953819.431         329.296          47.000  
G30  22859172.771   120125745.5142      -2418.490          40.000  
J 1  37439845.959   196747710.5912         66.235          45.000  
R14  20589552.116   109753982.4442      -2926.361          40.000  
R24  21669637.585   115877295.019       -1523.282          48.000  
R17  20577176.938   110112674.470         623.592          52.000  
R 8  24273301.139   129982439.465       -1842.438          45.000  
R 1  22102057.029   118148181.523         941.113          50.000  
R18  22991550.111   122730450.2233       2321.681          40.000  
> 2016  5 20 10 23 43.0000000  0 18                     
G 1  21534354.875   113163802.194       -2113.516          51.000  
G 3  21627714.413   113654401.7862       1798.000          49.000  
G 8  24749313.051   130058514.071       -1870.359          41.000  
G11  22353293.350   117467349.733       -2306.859          49.000  
G17  22407957.500   117754602.1222       1887.278          48.000  
G22  22156324.226   116432265.705         -72.795          50.000  
R 2  22463562.689   119869887.669        3794.891          50.000  
G28  20783954.540   109220424.0612       1797.882          48.000  
G19  23875391.227   125466017.6782       2683.093          43.000  
R15  20202024.940   107953490.527         328.031          48.000  
G30  22859632.968   120128164.0902      -2419.388          40.000  
J 1  37439833.115   196747643.8582         66.544          47.000  
R14  20590101.362   109756909.1282      -2927.457          40.000  
R24  21669922.285   115878818.098       -1522.642          49.000  
R17  20577060.423   110112051.267         622.849          51.000  
R 8  24273645.205   129984281.474       -1841.361          45.000  
R 1  22101881.044   118147241.236         940.442          51.000  
R18  22991115.251   122728129.4152       2319.747          39.000  
> 2016  5 20 10 23 44.0000000  0 18                     
G 1  21534756.998   113165915.901       -2113.154          51.000  
G 3  21627372.458   113652604.3632       1797.241          49.000  
G 8  24749669.228   130060385.106       -1871.330          45.000  
G11  22353732.467   117469656.867       -2307.195          49.000  
G17  22407598.672   117752715.5602       1886.893          49.000  
G22  22156338.064   116432338.921         -73.287          50.000  
R 2  22462851.854   119866093.444        3794.722          47.000  
G28  20783612.445   109218626.8992       1797.485          48.000  
G19  23874881.576   125463335.8532       2681.604          41.000  
R15  20201963.777   107953163.368         326.832          48.000  
G30  22860093.619   120130583.9442      -2420.177          40.000  
J 1  37439820.621   196747577.8112         66.293          47.000  
R14  20590648.863   109759837.4392      -2928.580          40.000  
R24  21670207.090   115880341.210       -1522.802          49.000  
R17  20576944.030   110111428.726         622.857          50.000  
R 8  24273989.062   129986124.011       -1842.423          41.000  
R 1  22101705.250   118146301.818         938.057          51.000  
R18  22990679.171   122725809.6382       2319.266          39.000  
> 2016  5 20 10 23 45.0000000  0 18                     
G 1  21535159.191   113168029.865       -2113.992          51.000  
G 3  21627030.801   113650807.7752       1796.481          49.000  
G 8  24750025.439   130062256.259       -1870.727          44.000  
G11  22354171.689   117471963.999       -2307.201          49.000  
G17  22407239.808   117750829.3472       1886.603          49.000  
G22  22156352.949   116432412.679         -73.410          50.000  
R 2  22462140.793   119862300.083        3792.341          47.000  
G28  20783270.735   109216830.4162       1796.533          48.000  
G19  23874371.052   125460654.5992       2680.762          41.000  
R15  20201902.946   107952837.603         325.306          48.000  
G30  22860554.392   120133004.9122      -2421.145          40.000  
J 1  37439808.074   196747512.2232         65.774          47.000  
R14  20591199.853   109762767.1142      -2930.142          40.000  
R24  21670491.861   115881864.224       -1522.465          49.000  
R17  20576827.951   110110806.527         622.579          51.000  
R 8  24274333.180   129987966.995       -1842.874          40.000  
R 1  22101529.806   118145362.861         939.084          53.000  
R18  22990244.119   122723490.6382       2318.864          39.000  
> 2016  5 20 10 23 46.0000000  0 18                     
G 1  21535561.383   113170143.781       -2113.993          51.000  
G 3  21626688.759   113649011.8142       1796.004          49.000  
G 8  24750381.389   130064127.299       -1871.379          44.000  
G11  22354610.510   117474270.939       -2306.763          49.000  
G17  22406880.962   117748943.3422       1885.599          49.000  
G22  22156365.967   116432486.835         -74.561          50.000  
R 2  22461429.906   119858506.858        3793.043          49.000  
G28  20782928.711   109215034.4222       1795.477          48.000  
G19  23873860.825   125457973.7552       2680.267          41.000  
R15  20201842.236   107952513.046         323.686          48.000  
G30  22861015.287   120135426.8122      -2422.993          40.000  
J 1  37439795.807   196747446.8482         65.092          47.000  
R14  20591749.238   109765697.906       -2931.771          40.000  
R24  21670776.648   115883386.930       -1522.564          50.000  
R17  20576711.575   110110184.517         621.858          51.000  
R 8  24274677.508   129989810.340       -1844.435          42.000  
R 1  22101354.449   118144424.637         937.718          52.000  
R18  22989810.237   122721172.2932       2316.317          38.000  
> 2016  5 20 10 23 47.0000000  0 18                     
G 1  21535963.908   113172257.950       -2114.125          51.000  
G 3  21626347.118   113647216.7372       1794.827          49.000  
G 8  24750737.443   130065998.551       -1871.729          42.000  
G11  22355049.522   117476577.918       -2306.799          50.000  
G17  22406522.011   117747057.8142       1885.746          48.000  
G22  22156380.974   116432561.599         -75.144          50.000  
R 2  22460719.246   119854714.499        3793.004          49.000  
G28  20782587.193   109213239.2102       1795.239          48.000  
G19  23873350.825   125455293.6562       2679.755          41.000  
R15  20201781.771   107952190.049         322.523          48.000  
G30  22861476.252   120137849.8992      -2423.663          40.000  
J 1  37439783.539   196747382.0312         64.833          47.000  
R14  20592299.339   109768630.208       -2933.010          40.000  
R24  21671061.663   115884909.489       -1522.412          49.000  
R17  20576595.531   110109562.983         621.922          51.000  
R 8  24275021.888   129991654.138       -1845.565          41.000  
R 1  22101179.004   118143487.062         937.894          51.000  
R18  22989376.320   122718854.7282       2318.411          38.000  
> 2016  5 20 10 23 48.0000000  0 18                     
G 1  21536366.100   113174372.254       -2114.769          51.000  
G 3  21626005.792   113645422.3932       1794.232          48.000  
G 8  24751093.235   130067869.561       -1872.322          44.000  
G11  22355488.657   117478884.802       -2306.626          51.000  
G17  22406163.094   117745172.6302       1884.984          48.000  
G22  22156395.109   116432636.853         -76.163          49.000  
R 2  22460008.656   119850922.786        3791.708          48.000  
G28  20782245.901   109211444.6952       1794.183          48.000  
G19  23872840.895   125452614.0882       2679.633          42.000  
R15  20201721.690   107951868.483         320.538          48.000  
G30  22861937.915   120140274.1392      -2424.857          40.000  
J 1  37439771.237   196747317.6572         63.934          47.000  
R14  20592849.893   109771563.899       -2934.304          40.000  
R24  21671346.485   115886431.836       -1522.689          49.000  
R17  20576479.522   110108941.839         620.525          51.000  
R 8  24275366.355   129993498.203       -1844.748          40.000  
R 1  22101003.629   118142550.133         936.420          47.000  
R18  22988942.647   122716538.1042       2316.008          38.000  
> 2016  5 20 10 23 49.0000000  0 18                     
G 1  21536768.398   113176486.729       -2114.816          51.000  
G 3  21625664.466   113643628.8542       1793.266          48.000  
G 8  24751449.691   130069740.628       -1871.398          44.000  
G11  22355927.652   117481191.672       -2306.775          50.000  
G17  22405804.615   117743287.8172       1884.697          48.000  
G22  22156409.069   116432712.651         -76.585          50.000  
R 2  22459298.449   119847131.567        3792.155          40.000  
G28  20781904.418   109209650.8822       1793.365          48.000  
G19  23872330.860   125449935.1612       2679.028          41.000  
R15  20201661.801   107951548.276         319.430          47.000  
G30  22862399.491   120142699.356       -2425.128          40.000  
J 1  37439759.144   196747253.6152         63.938          47.000  
R14  20593400.326   109774498.873       -2935.700          40.000  
R24  21671631.220   115887954.044       -1522.173          49.000  
R17  20576363.513   110108321.051         620.469          50.000  
R 8  24275710.788   129995342.634       -1844.236          43.000  
R 1  22100828.255   118141613.839         935.337          49.000  
R18  22988509.114   122714222.2762       2315.195          38.000  
> 2016  5 20 10 23 50.0000000  0 18                     
G 1  21537170.939   113178601.650       -2115.580          51.000  
G 3  21625323.471   113641836.3402       1791.961          48.000  
G 8  24751806.146   130071611.912       -1871.038          43.000  
G11  22356366.752   117483498.784       -2307.344          50.000  
G17  22405445.821   117741403.5632       1883.856          48.000  
G22  22156424.583   116432789.191         -77.048          50.000  
R 2  22458587.911   119843341.305        3790.116          50.000  
G28  20781563.179   109207857.9732       1792.175          48.000  
G19  23871821.279   125447256.8962       2678.125          41.000  
R15  20201602.104   107951229.684         317.778          47.000  
G30  22862861.311   120145125.777       -2426.636          40.000  
J 1  37439746.946   196747190.2602         63.094          47.000  
R14  20593951.020   109777435.335       -2937.442          40.000  
R24  21671916.165   115889476.367       -1522.443          49.000  
R17  20576247.522   110107700.871         620.212          50.000  
R 8  24276055.464   129997187.753       -1845.248          41.000  
R 1  22100653.229   118140678.466         934.411          51.000  
R18  22988075.511   122711907.244        2314.534          36.000  
> 2016  5 20 10 23 51.0000000  0 18                     
G 1  21537573.516   113180717.044       -2115.215          51.000  
G 3  21624982.494   113640044.7722       1791.376          49.000  
G 8  24752162.183   130073483.495       -1871.159          42.000  
G11  22356805.852   117485806.209       -2307.385          49.000  
G17  22405087.254   117739519.8902       1883.479          47.000  
G22  22156439.031   116432866.567         -77.524          50.000  
R 2  22457877.600   119839551.569        3789.584          50.000  
G28  20781222.080   109206066.0042       1791.882          48.000  
G19  23871311.453   125444579.3452       2677.252          41.000  
R15  20201542.634   107950912.710         316.361          47.000  
G30  22863323.166   120147553.345       -2427.846          40.000  
J 1  37439734.870   196747127.5112         62.801          47.000  
R14  20594502.185   109780373.237       -2938.479          40.000  
R24  21672200.673   115890998.836       -1522.242          50.000  
R17  20576131.739   110107081.382         619.642          50.000  
R 8  24276400.420                       -1845.947          36.000  
R 1  22100478.430   118139743.985         934.609          52.000  
R18  22987642.117   122709593.162        2313.917          38.000  
> 2016  5 20 10 23 52.0000000  0 18                     
G 1  21537976.005   113182832.176       -2115.013          51.000  
G 3  21624641.552   113638253.6682       1791.171          49.000  
G 8  24752518.272   130075354.656       -1870.960          42.000  
G11  22357244.602   117488113.093       -2306.350          50.000  
G17  22404728.617   117737636.2502       1883.755          48.000  
G22  22156453.864   116432944.072         -77.460          50.000  
R 2  22457167.149   119835762.148        3789.521          50.000  
G28  20780881.294   109204274.3932       1791.925          48.000  
G19  23870801.907   125441902.1182       2677.631          41.000  
R15  20201483.163   107950596.853         315.505          48.000  
G30  22863785.213   120149981.741       -2428.135          40.000  
J 1  37439723.039   196747064.8442         62.818          47.000  
R14  20595053.455   109783312.302       -2939.307          40.000  
R24  21672484.937   115892520.648       -1521.120          49.000  
R17  20576015.992   110106461.881         619.727          50.000  
R 8  24276745.254   130000889.1883      -1843.738          35.000  
R 1  22100303.701   118138809.737         934.076          51.000  
R18  22987208.968   122707279.609        2312.804          38.000  
> 2016  5 20 10 23 53.0000000  0 18                     
G 1  21538378.582   113184947.237       -2115.576          51.000  
G 3  21624300.784   113636463.0902       1790.063          48.000  
G 8  24752874.571   130077225.756       -1871.798          43.000  
G11  22357683.877   117490419.834       -2307.260          50.000  
G17  22404370.469   117735752.7152       1883.011          48.000  
G22  22156468.679   116433021.876         -78.232          49.000  
R 2  22456456.995   119831973.171        3788.990          49.000  
G28  20780540.614   109202483.1712       1790.552          48.000  
G19  23870292.884   125439225.3062       2676.447          41.000  
R15  20201424.408   107950282.115         313.939          48.000  
G30  22864247.644   120152411.048       -2430.464          40.000  
J 1  37439710.911   196747002.3602         62.323          46.000  
R14  20595604.864   109786252.450       -2940.831          40.000  
R24  21672769.585   115894042.105       -1521.457          49.000  
R17  20575900.227   110105842.469         618.992          50.000  
R 8  24277089.756   130002735.2232      -1846.810          41.000  
R 1  22100129.234   118137876.000         932.946          51.000  
R18  22986775.941   122704966.608        2311.617          37.000  
> 2016  5 20 10 23 54.0000000  0 18                     
G 1  21538780.966   113187062.733       -2115.964          51.000  
G 3  21623960.260   113634673.4362       1789.314          49.000  
G 8  24753230.660   130079096.950       -1871.490          42.000  
G11  22358123.151   117492726.796       -2307.149          47.000  
G17  22404012.111   117733869.7072       1882.783          48.000  
G22  22156483.233   116433100.416         -78.674          50.000  
R 2  22455747.225   119828184.816        3788.307          49.000  
G28  20780199.916   109200692.8132       1790.155          48.000  
G19  23869783.739   125436549.0632       2676.483          41.000  
R15  20201365.706   107949968.904         312.627          47.000  
G30  22864709.882   120154841.298       -2430.365          40.000  
J 1  37439699.080   196746940.3672         62.134          47.000  
R14  20596156.622   109789193.908       -2941.546          40.000  
R24  21673054.268   115895563.673       -1521.607          49.000  
R17  20575784.672   110105223.648         618.386          50.000  
R 8  24277434.468   130004581.8512      -1846.912          41.000  
R 1  22099954.732   118136943.127         932.868          51.000  
R18  22986342.809   122702654.448        2311.081          37.000  
> 2016  5 20 10 23 55.0000000  0 18                     
G 1  21539183.874   113189179.686       -2118.323          51.000  
G 3  21623619.649   113632884.2251       1787.858          49.000  
G 8  24753586.365   130080969.300       -1872.875          43.000  
G11  22358562.129   117495035.119       -2309.911          49.000  
G17  22403653.736   117731986.7801       1881.312          48.000  
G22  22156499.200   116433180.558         -81.198          50.000  
R 2  22455037.071   119824396.876        3787.514          49.000  
G28  20779859.340   109198902.9411       1788.354          48.000  
G19  23869274.245   125433872.5501       2675.439          42.000  
R15  20201307.352   107949656.770         311.310          47.000  
G30  22865172.226   120157271.115       -2429.623          40.000  
J 1  37439687.493   196746878.1661         61.358          47.000  
R14  20596708.416   109792135.450       -2941.569          40.000  
R24  21673339.160   115897086.685       -1524.032          49.000  
R17  20575669.169   110104605.729         617.084          50.000  
R 8  24277779.720   130006430.7832      -1850.431          42.000  
R 1  22099780.230   118136012.265         929.551          50.000  
R18  22985910.148   122700342.225        2312.596          39.000  
> 2016  5 20 10 23 56.0000000  0 19                     
G 1  21539587.079   113191298.291       -2119.078          51.000  
G 3  21623279.423   113631096.630        1787.251          48.000  
G 8  24753942.594   130082842.624       -1873.296          41.000  
G11  22359001.525   117497345.123       -2310.519          49.000  
G17  22403295.989   117730104.940        1881.645          48.000  
G22  22156513.963   116433262.373         -82.317          50.000  
R 2  22454327.336   119820609.317        3787.260          50.000  
G28  20779518.921   109197114.728        1788.232          48.000  
G19  23868764.681   125431196.657        2675.391          41.000  
R15  20201249.156   107949345.820         310.486          47.000  
G30  22865634.692   120159700.398       -2428.981          39.000  
J 1  37439675.958   196746816.878          61.250          47.000  
R14  20597260.279   109795077.086       -2941.682          40.000  
R24  21673624.122   115898611.263       -1525.261          49.000  
R17  20575554.050   110103988.865         616.892          50.000  
R 8  24278125.217   130008281.8122      -1851.083          41.000  
R 1  22099606.373   118135083.423         928.193          52.000  
R18  22985476.894   122698029.935        2313.881          38.000  
R16  23409595.874   125049848.426        3801.717          38.000  
> 2016  5 20 10 23 57.0000000  0 19                     
G 1  21539990.319   113193417.618       -2119.758          51.000  
G 3  21622939.492   113629309.556        1786.905          49.000  
G 8  24754299.277   130084716.510       -1873.622          42.000  
G11  22359441.026   117499655.740       -2310.030          47.000  
G17  22402938.032   117728223.199        1881.448          47.000  
G22  22156529.877   116433345.105         -82.504          51.000  
R 2  22453617.775   119816821.782        3787.443          50.000  
G28  20779178.607   109195327.033        1787.085          48.000  
G19  23868255.641   125428520.637        2675.665          40.000  
R15  20201191.221   107949035.636         309.487          47.000  
G30  22866096.634   120162129.264       -2428.184          39.000  
J 1  37439664.581   196746755.550          60.965          47.000  
R14  20597812.037   109798018.770       -2941.708          40.000  
R24  21673909.730   115900136.423       -1525.320          48.000  
R17  20575438.931   110103372.395         615.873          50.000  
R 8  24278471.272   130010134.2962      -1853.081          43.000  
R 1  22099432.516   118134155.791         927.224          51.000  
R18  22985043.518   122695717.640        2312.792          37.000  
R16  23408883.957   125046046.661        3801.047          44.000  
> 2016  5 20 10 23 58.0000000  0 19                     
G 1  21540393.960   113195538.242       -2121.443          51.000  
G 3  21622599.684   113627523.586        1786.007          49.000  
G 8  24754655.784   130086591.270       -1874.883          41.000  
G11  22359881.034   117501967.661       -2312.602          49.000  
G17  22402580.041   117726342.149        1881.409          49.000  
G22  22156545.879   116433429.374         -85.011          45.000  
R 2  22452908.005   119813034.815        3787.638          49.000  
G28  20778838.851   109193540.431        1786.182          48.000  
G19  23867746.862   125425845.095        2674.884          40.000  
R15  20201133.321   107948726.801         308.388          46.000  
G30  22866558.942   120164558.233       -2428.295          40.000  
J 1  37439652.820   196746694.698          60.776          47.000  
R14  20598363.918   109800960.985       -2941.894          40.000  
R24  21674195.181   115901662.782       -1526.826          49.000  
R17  20575323.794   110102756.853         615.225          50.000  
R 8  24278817.624   130011988.6782      -1855.532          47.000  
R 1  22099259.358   118133230.150         924.390          53.000  
R18  22984610.369   122693405.692        2311.395          39.000  
R16  23408172.582   125042246.192        3799.039          42.000  
> 2016  5 20 10 23 59.0000000  0 19                     
G 1  21540797.566   113197660.466       -2123.027          51.000  
G 3  21622259.998   113625738.462        1784.352          48.000  
G 8  24755013.008   130088467.124       -1878.036          44.000  
G11  22360321.006   117504281.153       -2314.017          49.000  
G17  22402222.417   117724461.620        1880.913          48.000  
G22  22156562.090   116433515.150         -86.708          50.000  
R 2  22452198.479   119809248.003        3786.342          50.000  
G28  20778499.026   109191754.757        1785.211          48.000  
G19  23867237.700   125423169.421        2676.105          40.000  
R15  20201075.544   107948418.882         307.226          46.000  
G30  22867020.745   120166986.226       -2427.834          39.000  
J 1  37439641.023   196746633.955          60.452          47.000  
R14  20598915.781   109803902.890       -2941.929          40.000  
R24  21674480.527   115903190.788       -1528.859          49.000  
R17  20575209.269   110102142.289         614.178          50.000  
R 8  24279164.238   130013845.5342      -1857.888          49.000  
R 1  22099086.566   118132306.435         923.090          51.000  
R18  22984177.342   122691093.457        2312.876          38.000  
R16  23407461.520   125038447.444        3798.031          43.000  
> 2016  5 20 10 24  0.0000000  0 19                     
G 1  21541201.782   113199783.616       -2123.247          51.000  
G 3  21621920.504   113623954.152        1783.218          44.000  
G 8  24755370.144   130090343.713       -1876.406          44.000  
G11  22360761.502   117506595.554       -2314.690          48.000  
G17  22401864.600   117722581.168        1880.399          48.000  
G22  22156578.930   116433602.180         -87.405          50.000  
R 2  22451488.604   119805461.547        3787.063          48.000  
G28  20778159.601   109189969.667        1784.766          48.000  
G19  23866728.346   125420493.585        2676.111          40.000  
R15  20201017.836   107948111.671         306.894          46.000  
G30  22867482.862   120169413.778       -2426.569          41.000  
J 1  37439629.750   196746573.404          60.458          47.000  
R14  20599467.749   109806844.884       -2941.738          40.000  
R24  21674766.536   115904719.638       -1529.522          48.000  
R17  20575094.010   110101528.063         613.984          50.000  
R 8  24279511.113   130015703.844       -1858.438          51.000  
R 1  22098913.896   118131384.322         921.646          50.000  
R18  22983744.227   122688781.4153       2313.260          39.000  
R16  23406750.162   125034649.389        3797.612          42.000  
> 2016  5 20 10 24  1.0000000  0 19                     
G 1  21541605.999   113201907.773       -2124.379          51.000  
G 3  21621581.185   113622170.699        1783.212          50.000  
G 8  24755727.524   130092220.960       -1877.226          44.000  
G11  22361202.033   117508910.901       -2315.276          48.000  
G17  22401506.992   117720701.077        1879.802          48.000  
G22  22156595.333   116433690.347         -88.580          51.000  
R 2  22450779.148   119801675.344        3787.841          42.000  
G28  20777819.915   109188185.382        1784.015          48.000  
G19  23866219.078   125417817.941        2675.128          39.000  
R15  20200960.616   107947805.569         305.840          46.000  
G30  22867944.751   120171841.255       -2427.206          41.000  
J 1  37439618.146   196746513.140          59.971          40.000  
R14  20600019.787   109809787.219       -2942.169          40.000  
R24  21675052.650   115906249.315       -1530.118          49.000  
R17  20574979.467   110100914.448         613.499          50.000  
R 8  24279858.320   130017563.647       -1860.409          50.000  
R 1  22098741.854   118130463.703         919.074          49.000  
R18  22983311.270   122686470.5512       2314.065          38.000  
R16  23406039.223   125030852.451        3795.824          41.000  
> 2016  5 20 10 24  2.0000000  0 19                     
G 1  21542010.338   113204032.780       -2124.879          51.000  
G 3  21621242.179   113620388.283        1781.986          49.000  
G 8  24756085.708   130094098.929       -1879.005          36.000  
G11  22361642.755   117511226.994       -2316.105          49.000  
G17  22401149.036   117718821.216        1879.695          47.000  
G22  22156613.097   116433779.723         -89.656          51.000  
R 2  22450069.814   119797889.962        3784.400          51.000  
G28  20777480.544   109186401.877        1783.142          48.000  
G19  23865710.230   125415142.302        2675.079          39.000  
R15  20200903.764   107947500.572         304.628          46.000  
G30  22868406.589   120174268.973       -2427.872          38.000  
J 1  37439606.629   196746453.197          60.179          47.000  
R14  20600571.877   109812730.310       -2943.875          39.000  
R24  21675338.659   115907779.607       -1529.856          49.000  
R17  20574864.784   110100301.355         612.957          50.000  
R 8  24280205.894   130019424.563       -1860.944          48.000  
R 1  22098570.092   118129544.501         918.968          48.000  
R18  22982878.173   122684158.2632       2313.104          39.000  
R16  23405328.213   125027056.243        3795.604          42.000  
> 2016  5 20 10 24  3.0000000  0 19                     
G 1  21542414.485   113206158.008       -2125.112          51.000  
G 3  21620903.034   113618606.770        1780.998          48.000  
G 8  24756442.512   130095977.267       -1879.344          42.000  
G11  22362083.879   117513543.203       -2316.568          47.000  
G17  22400791.272   117716941.383        1879.722          48.000  
G22  22156629.657   116433869.804         -90.063          50.000  
R 2  22449360.672   119794105.242        3784.777          50.000  
G28  20777141.067   109184618.863        1782.562          48.000  
G19  23865201.539   125412466.801        2675.317          41.000  
R15  20200846.789   107947196.609         303.332          46.000  
G30  22868868.706   120176697.370       -2428.661          39.000  
J 1  37439595.496   196746393.832          59.615          47.000  
R14  20601124.036   109815674.399       -2944.570          39.000  
R24  21675624.772   115909309.923       -1530.029          48.000  
R17  20574750.171   110099688.390         612.719          51.000  
R 8  24280553.467   130021286.125       -1862.146          46.000  
R 1  22098398.661   118128626.236         917.819          49.000  
R18  22982445.198   122681846.2972       2311.929          37.000  
R16  23404617.361   125023260.293        3796.203          42.000  
> 2016  5 20 10 24  4.0000000  0 19                     
G 1  21542818.964   113208282.926       -2125.160          51.000  
G 3  21620564.116   113616825.827        1779.555          48.000  
G 8  24756796.856   130097855.172       -1878.042          42.000  
G11  22362524.707   117515858.948       -2316.177          48.000  
G17  22400433.176   117715061.273        1879.932          48.000  
G22  22156647.369   116433960.117         -90.965          49.000  
R 2  22448651.426   119790321.179        3782.834          40.000  
G28  20776801.835   109182836.019        1782.196          48.000  
G19  23864692.516   125409791.285        2674.896          42.000  
R15  20200790.407   107946893.540         302.089          47.000  
G30  22869330.875   120179126.521       -2429.789          39.000  
J 1  37439583.891   196746334.637          58.547          47.000  
R14  20601676.318   109818619.547       -2946.549          40.000  
R24  21675910.834   115910839.528       -1529.760          48.000  
R17  20574635.244   110099075.169         613.008          51.000  
R 8  24280901.302   130023147.520       -1861.608          49.000  
R 1  22098226.968   118127708.258         917.767          51.000  
R18  22982012.398   122679534.4472       2312.486          40.000  
R16  23403906.946   125019464.322        3795.124          41.000  
> 2016  5 20 10 24  5.0000000  0 19                     
G 1  21543223.303   113210407.874       -2124.982          51.000  
G 3  21620225.163   113615045.940        1778.841          49.000  
G 8  24757157.517   130099733.243       -1878.157          44.000  
G11  22362965.046   117518174.537       -2315.103          49.000  
G17  22400075.499   117713181.520        1879.653          49.000  
G22  22156664.157   116434051.004         -91.074          50.000  
R 2  22447942.301   119786521.3543       3782.748          49.000  
G28  20776462.655   109181053.944        1781.793          48.000  
G19  23864183.493   125407116.363        2674.835          43.000  
R15  20200734.008   107946592.011         300.861          47.000  
G30  22869793.358   120181557.276       -2430.841          39.000  
J 1  37439572.985   196746276.228          57.952          47.000  
R14  20602229.211   109821566.557       -2947.754          40.000  
R24  21676196.703   115912368.716       -1529.327          48.000  
R17  20574520.857   110098462.214         612.720          49.000  
R 8  24281248.666   130025008.835       -1861.147          48.000  
R 1  22098055.363   118126790.859         917.528          50.000  
R18  22981579.720                        2308.740          40.000  
R16  23403196.128   125015668.499        3795.782          42.000  
> 2016  5 20 10 24  6.0000000  0 19                     
G 1  21543627.590   113212532.675       -2125.004          51.000  
G 3  21619886.542   113613266.971        1778.566          49.000  
G 8  24757513.711   130101611.336       -1880.487          39.000  
G11  22363405.576   117520489.739       -2315.155          49.000  
G17  22399717.351   117711301.942        1879.457          48.000  
G22  22156682.183   116434142.267         -91.491          51.000  
R 2  22447233.334   119782738.0352       3781.885          49.000  
G28  20776123.911   109179272.527        1780.542          48.000  
G19  23863674.837   125404441.927        2672.974          41.000  
R15  20200678.254   107946292.006         298.434          46.000  
G30  22870256.172   120183989.626       -2434.283          38.000  
J 1  37439561.974   196746218.467          57.288          47.000  
R14  20602782.330   109824515.383       -2950.092          40.000  
R24  21676482.590   115913897.289       -1528.506          49.000  
R17  20574406.070   110097849.447         612.129          51.000  
R 8  24281596.083   130026870.009       -1861.236          49.000  
R 1  22097883.897   118125873.872         917.100          48.000  
R18  22981147.286   122674919.3693       2308.612          36.000  
R16  23402485.573   125011872.996        3794.570          43.000  
> 2016  5 20 10 24  7.0000000  0 19                     
G 1  21544031.754   113214656.950       -2124.526          51.000  
G 3  21619547.938   113611488.137        1778.483          49.000  
G 8  24757872.418   130103487.920       -1875.863          46.000  
G11  22363846.090   117522804.034       -2314.022          49.000  
G17  22399360.232   117709422.881        1878.529          48.000  
G22  22156699.354   116434233.182         -91.313          51.000  
R 2  22446524.872   119778955.5222       3782.542          48.000  
G28  20775785.046   109177491.657        1780.383          48.000  
G19  23863165.674   125401768.471        2672.894          41.000  
R15  20200622.309   107945993.622         297.006          46.000  
G30  22870719.284   120186423.355       -2434.308          39.000  
J 1  37439550.788   196746160.666          57.401          47.000  
R14  20603336.008   109827465.707       -2951.400          40.000  
R24  21676768.198   115915424.838       -1526.938          48.000  
R17  20574292.050   110097236.932         612.019          51.000  
R 8  24281943.499   130028730.665       -1861.026          49.000  
R 1  22097712.134   118124956.603         917.090          48.000  
R18  22980714.520                        2308.159          36.000  
R16  23401774.895   125008077.964        3795.048          42.000  
> 2016  5 20 10 24  8.0000000  0 19                     
G 1  21544436.023   113216780.654       -2123.242          51.000  
G 3  21619209.822   113609709.588        1778.220          49.000  
G 8  24758228.560   130105363.918       -1875.726          45.000  
G11  22364286.376   117525117.405       -2313.017          49.000  
G17  22399002.729   117707544.200        1878.757          47.000  
G22  22156716.385   116434323.813         -90.401          51.000  
R 2  22445816.027   119775173.2962       3784.312          45.000  
G28  20775446.284   109175711.328        1780.524          48.000  
G19  23862656.931   125399095.885        2672.760          39.000  
R15  20200566.713   107945696.783         296.633          47.000  
G30  22871182.727   120188858.618       -2436.226          39.000  
J 1  37439539.969   196746102.944          57.661          47.000  
R14  20603889.756   109830417.676       -2952.915          40.000  
R24  21677053.544   115916951.443       -1525.927          48.000  
R17  20574177.263   110096624.675         612.896          51.000  
R 8  24282290.654   130030590.732       -1859.280          48.000  
R 1  22097540.372   118124038.973         918.077          50.000  
R18  22980281.371   122670296.5583       2310.120          41.000  
R16  23401064.515   125004283.250        3795.598          42.000  
> 2016  5 20 10 24  9.0000000  0 19                     
G 1  21544840.048   113218903.842       -2122.791          51.000  
G 3  21618871.532   113607931.763        1777.345          50.000  
G 8  24758585.137   130107239.260       -1875.393          44.000  
G11  22364726.069   117527429.934       -2312.230          49.000  
G17  22398645.192   117705665.814        1877.569          46.000  
G22  22156733.469   116434414.436         -90.612          50.000  
R 2  22445107.217   119771391.2672       3780.562          47.000  
G28  20775107.593   109173931.592        1779.297          48.000  
G19  23862148.431   125396424.103        2671.326          39.000  
R15  20200511.326   107945401.643         294.022          46.000  
G30  22871646.414   120191295.765       -2438.375          39.000  
J 1  37439528.923   196746045.783          56.708          47.000  
R14  20604443.818   109833371.713       -2954.885          39.000  
R24  21677338.977   115918476.972       -1525.293          48.000  
R17  20574063.068   110096012.518         612.067          50.000  
R 8  24282637.808   130032450.186       -1859.034          49.000  
R 1  22097368.575   118123121.267         917.126          50.000  
R18  22979851.171   122668000.0733       2308.375          40.000  
R16  23400354.500   125000488.657        3794.942          40.000  
> 2016  5 20 10 24 10.0000000  0 19                     
G 1  21545243.986   113221026.576       -2122.999          51.000  
G 3  21618533.626   113606154.709        1776.214          49.000  
G 8  24758941.715   130109114.148       -1875.465          44.000  
G11  22365166.233   117529741.741       -2311.820          49.000  
G17  22398287.602   117703787.531        1878.352          47.000  
G22  22156750.640   116434505.139         -90.619          50.000  
R 2  22444398.738   119767611.6023       3778.916          47.000  
G28  20774768.762   109172152.385        1778.638          48.000  
G19  23861640.316   125393752.943        2670.758          40.000  
R15  20200456.288   107945107.978         292.641          46.000  
G30  22872110.624   120193734.830       -2439.984          39.000  
J 1  37439518.488   196745989.240          55.784          47.000  
R14  20604998.124   109836327.843       -2957.058          39.000  
R24  21677623.782   115920001.503       -1524.196          48.000  
R17  20573948.822   110095400.351         612.098          49.000  
R 8  24282984.946   130034309.069       -1858.951          50.000  
R 1  22097196.690   118122203.653         917.251          50.000  
R18  22979421.878   122665709.1912       2307.007          39.000  
R16  23399644.329   124996694.084        3794.240          43.000  
> 2016  5 20 10 24 11.0000000  0 19                     
G 1  21545648.028   113223148.689       -2121.705          51.000  
G 3  21618195.563   113604378.406        1775.712          49.000  
G 8  24759298.240   130110988.683       -1874.653          43.000  
G11  22365605.944   117532052.728       -2310.825          49.000  
G17  22397930.448   117701909.119        1878.425          47.000  
G22  22156768.352   116434595.916         -90.946          51.000  
R 2  22443690.154   119763831.5662       3779.500          47.000  
G28  20774430.333   109170373.428        1778.583          48.000  
G19  23861132.357   125391081.986        2670.404          41.000  
R15  20200401.511   107944815.488         291.712          46.000  
G30  22872575.184   120196175.315       -2441.260          40.000  
J 1  37439507.581   196745933.098          55.803          47.000  
R14  20605553.285   109839285.586       -2958.732          39.000  
R24  21677908.884   115921525.023       -1522.763          48.000  
R17  20573834.593   110094787.877         611.964          50.000  
R 8  24283331.961   130036167.264       -1857.891          50.000  
R 1  22097024.788   118121286.090         916.870          50.000  
R18  22978989.462   122663400.7472       2304.442          37.000  
R16  23398933.564   124992899.165        3794.892          40.000  
> 2016  5 20 10 24 12.0000000  0 20                     
G 1  21546051.617   113225270.627       -2121.941          51.000  
G 3  21617857.588   113602603.014        1774.594          48.000  
G 8  24759655.324   130112862.955       -1873.580          42.000  
G11  22366045.690   117534363.254       -2310.851          49.000  
G17  22397573.452   117700030.995        1877.621          47.000  
G22  22156785.052   116434686.966         -91.177          51.000  
R 2  22442981.693   119760050.5583       3778.085          48.000  
G28  20774092.060   109168595.203        1777.301          48.000  
G19  23860624.277   125388411.795        2669.360          40.000  
R15  20200347.276   107944524.645         289.604          47.000  
G30  22873039.866   120198617.645       -2443.589          38.000  
J 1  37439496.954   196745877.680          54.616          47.000  
R14  20606108.551   109842245.333       -2961.232          40.000  
R24  21678193.828   115923047.842       -1522.554          48.000  
R17  20573719.805   110094175.664         611.872          51.000  
R 8  24283678.993   130038025.168       -1858.025          50.000  
R 1  22096853.147   118120368.785         916.867          49.000  
R18  22978555.946   122661086.0562       2301.703          35.000  
R16  23398223.008   124989104.574        3794.779          42.000  
R13  24601033.594                       -4120.143          27.000  
> 2016  5 20 10 24 13.0000000  0 20                     
G 1  21546455.275   113227392.330       -2121.819          51.000  
G 3  21617519.943   113600828.705        1773.335          48.000  
G 8  24760012.408   130114737.049       -1872.469          42.000  
G11  22366485.243   117536673.312       -2310.481          49.000  
G17  22397215.775   117698153.051        1877.704          48.000  
G22  22156803.043   116434778.417         -91.416          50.000  
R 2  22442273.703   119756272.6402       3776.915          48.000  
G28  20773753.893   109166817.634        1776.868          48.000  
G19  23860116.371   125385742.184        2669.238          40.000  
R15  20200293.233   107944235.394         288.281          47.000  
G30  22873504.897   120201061.844       -2445.264          38.000  
J 1  37439486.606   196745823.097          53.750          46.000  
R14  20606664.219   109845207.212       -2963.157          40.000  
R24  21678478.214   115924569.931       -1521.450          48.000  
R17  20573605.245   110093563.552         611.991          50.000  
R 8  24284025.816   130039882.698       -1857.761          51.000  
R 1  22096681.629   118119451.882         916.339          49.000  
R18  22978121.592   122658783.0402       2301.842          39.000  
R16  23397512.488   124985310.117        3794.316          41.000  
R13  24601804.649                       -4128.247          27.000  
> 2016  5 20 10 24 14.0000000  0 20                     
G 1  21546859.091   113229513.966       -2122.264          52.000  
G 3  21617182.299   113599055.418        1772.767          49.000  
G 8  24760368.951   130116611.475       -1873.022          41.000  
G11  22366924.814   117538983.167       -2310.043          49.000  
G17  22396858.115   117696275.064        1877.766          47.000  
G22  22156819.935   116434870.461         -93.144          49.000  
R 2  22441565.904   119752495.2412       3776.917          49.000  
G28  20773415.917   109165040.505        1776.715          48.000  
G19  23859607.749   125383072.710        2670.068          39.000  
R15  20200239.364   107943947.291         287.786          46.000  
G30  22873970.224   120203507.281       -2445.646          39.000  
J 1  37439476.241   196745769.149          53.878          46.000  
R14  20607220.060   109848170.577       -2963.298          39.000  
R24  21678762.740   115926091.617       -1522.336          49.000  
R17  20573490.474   110092951.388         612.136          50.000  
R 8  24284372.639   130041740.239       -1858.666          49.000  
R 1  22096510.390   118118535.667         915.189          52.000  
R18  22977686.785   122656480.6542       2302.279          37.000  
R16  23396802.805   124981515.559        3794.388          41.000  
R13  24602581.236   131376377.0562      -4128.689          27.000  
> 2016  5 20 10 24 15.0000000  0 20                     
G 1  21547263.220   113231637.365       -2124.291          51.000  
G 3  21616844.917   113597283.186        1771.522          48.000  
G 8  24760726.104   130118487.508       -1877.307          42.000  
G11  22367364.752   117541294.972       -2312.966          49.000  
G17  22396501.258   117694397.483        1877.015          49.000  
G22  22156838.432   116434964.410         -95.259          50.000  
R 2  22440858.228   119748718.7192       3776.922          49.000  
G28  20773077.609   109163264.257        1775.781          48.000  
G19  23859099.983   125380403.111        2669.989          42.000  
R15  20200185.705   107943659.948         287.156          47.000  
G30  22874435.342   120205951.667       -2443.943          39.000  
J 1  37439466.120   196745715.414          53.979          46.000  
R14  20607775.920   109851133.561       -2962.393          39.000  
R24  21679047.702   115927615.174       -1524.509          49.000  
R17  20573376.612   110092340.079         611.024          51.000  
R 8  24284720.126   130043600.509       -1862.610          51.000  
R 1  22096339.779   118117621.866         913.510          50.000  
R18  22977260.285   122654177.8312       2303.264          40.000  
R16  23396092.598   124977722.626        3791.940          42.000  
R13  24603354.857                       -4125.408          25.000  
> 2016  5 20 10 24 16.0000000  0 19                     
G 1  21547667.856   113233762.934       -2126.270          51.000  
G 3  21616507.813   113595511.894        1770.873          48.000  
G 8  24761083.153   130120364.976       -1879.012          41.000  
G11  22367805.108   117543608.950       -2314.694          49.000  
G17  22396143.720   117692520.600        1876.900          48.000  
G22  22156856.353   116435060.388         -97.115          50.000  
R 2  22440150.849   119744942.3772       3776.879          50.000  
G28  20772739.808   109161489.121        1775.012          49.000  
G19  23858592.094   125377733.599        2669.952          42.000  
R15  20200132.132   107943373.511         286.418          46.000  
G30  22874900.391   120208394.686       -2442.320          39.000  
J 1  37439455.929   196745661.774          53.657          47.000  
R14  20608331.692   109854095.830       -2961.842          39.000  
R24  21679333.136   115929140.985       -1526.244          49.000  
R17  20573262.313   110091730.048         609.727          49.000  
R 8  24285068.135   130045464.076       -1865.009          49.000  
R 1  22096169.343   118116710.747         909.658          49.000  
R18  22976831.446   122651874.8242       2303.667          40.000  
R16  23395382.619   124973931.797        3789.201          40.000  
> 2016  5 20 10 24 17.0000000  0 19                     
G 1  21548072.544   113235890.213       -2128.168          51.000  
G 3  21616170.762   113593741.323        1770.000          49.000  
G 8  24761440.673   130122243.531       -1880.271          46.000  
G11  22368245.691   117545924.764       -2316.563          49.000  
G17  22395786.654   117690644.120        1876.034          47.000  
G22  22156875.339   116435158.037         -99.329          50.000  
R 2  22439443.295   119741166.0512       3774.827          51.000  
G28  20772402.059   109159714.795        1773.737          47.000  
G19  23858084.363   125375063.823        2669.336          41.000  
R15  20200078.735   107943087.712         284.840          46.000  
G30  22875364.916   120210836.410       -2442.067          39.000  
J 1  37439445.790   196745608.053          53.156          47.000  
R14  20608887.289   109857057.402       -2961.953          40.000  
R24  21679618.761   115930668.633       -1528.825          48.000  
R17  20573148.503   110091120.843         608.232          51.000  
R 8  24285416.703   130047330.389       -1867.326          48.000  
R 1  22095999.587   118115801.790         907.050          50.000  
R18  22976400.320   122649571.1982       2303.436          36.000  
R16  23394673.145   124970142.419        3788.656          43.000  
> 2016  5 20 10 24 18.0000000  0 19                     
G 1  21548477.267   113238018.015       -2128.267          51.000  
G 3  21615833.833   113591971.127        1770.266          48.000  
G 8  24761797.949   130124122.571       -1882.023          40.000  
G11  22368686.693   117548240.923       -2316.249          50.000  
G17  22395429.745   117688767.868        1876.018          48.000  
G22  22156893.540   116435256.355         -98.985          50.000  
R 2  22438735.741   119737389.5512       3776.379          49.000  
G28  20772064.520   109157940.991        1773.266          48.000  
G19  23857575.689   125372394.276        2669.189          41.000  
R15  20200025.564   107942802.862         284.288          47.000  
G30  22875829.615   120213277.864       -2441.480          38.000  
J 1  37439435.617   196745554.149          53.768          46.000  
R14  20609443.079   109860019.118       -2962.247          40.000  
R24  21679904.595   115932196.670       -1527.820          48.000  
R17  20573034.762   110090512.103         607.995          50.000  
R 8  24285765.376   130049197.921       -1868.147          50.000  
R 1  22095829.710   118114893.845         906.999          49.000  
R18  22975965.287   122647256.7863       2302.988          39.000  
R16  23393964.108   124966354.126        3787.975          41.000  
> 2016  5 20 10 24 19.0000000  0 19                     
G 1  21548882.391   113240146.496       -2128.875          51.000  
G 3  21615497.236   113590201.475        1769.463          49.000  
G 8  24762155.574   130126001.474       -1878.958          44.000  
G11  22369127.503   117550557.619       -2317.149          49.000  
G17  22395073.132   117686892.060        1875.278          48.000  
G22  22156912.630   116435355.483         -99.517          50.000  
R 2  22438028.099   119733613.2202       3779.774          44.000  
G28  20771727.085   109156167.909        1772.510          48.000  
G19  23857067.800   125369725.016        2668.170          40.000  
R15  20199972.323   107942519.152         283.049          47.000  
G30  22876294.454   120215719.351       -2441.761          39.000  
J 1  37439425.234   196745500.258          54.152          46.000  
R14  20609998.746   109862981.282       -2962.299          39.000  
R24  21680190.569   115933725.209       -1529.289          49.000  
R17  20572921.405   110089903.977         607.515          49.000  
R 8  24286114.607   130051066.639       -1869.246          50.000  
R 1  22095659.570   118113986.913         906.881          51.000  
R18  22975534.755   122644953.6642       2304.991          40.000  
R16  23393255.176   124962566.813        3785.208          34.000  
> 2016  5 20 10 24 20.0000000  0 20                     
G 1  21549287.707   113242275.720       -2129.729          51.000  
G 3  21615160.796   113588432.529        1767.876          49.000  
G 8  24762513.373   130127880.953       -1880.181          47.000  
G11  22369568.522   117552875.019       -2318.032          49.000  
G17  22394716.240   117685016.612        1875.446          47.000  
G22  22156931.110   116435455.526        -100.820          50.000  
R 2  22437320.179   119729836.6171       3773.800          48.000  
G28  20771389.859   109154395.558        1771.960          48.000  
G19  23856560.261   125367056.052        2669.269          43.000  
R15  20199919.641   107942236.548         282.185          47.000  
G30  22876759.048   120218160.898       -2441.439          39.000  
J 1  37439414.990   196745446.534          53.352          47.000  
R14  20610554.657   109865943.877       -2963.125          39.000  
R24  21680476.142   115935254.361       -1529.981          48.000  
R17  20572807.892   110089296.391         607.309          50.000  
R 8  24286463.612   130052936.596       -1870.603          50.000  
R 1  22095490.024   118113081.310         904.541          50.000  
R18  22975102.024   122642651.0112       2303.379          38.000  
R16  23392546.173   124958780.510        3786.354          42.000  
R13  24607216.189   131401144.8573      -4123.661          26.000  
> 2016  5 20 10 24 21.0000000  0 19                     
G 1  21549692.832   113244405.595       -2130.573          51.000  
G 3  21614824.408   113586664.285        1767.253          49.000  
G 8  24762871.085   130129760.922       -1880.984          42.000  
G11  22370009.576   117555192.961       -2318.531          48.000  
G17  22394359.261   117683141.271        1875.139          47.000  
G22  22156950.811   116435556.480        -101.633          50.000  
R 2  22436612.695   119726060.724        3775.255          50.000  
G28  20771052.599   109152623.697        1771.387          48.000  
G19  23856051.814   125364387.033        2669.061          39.000  
R15  20199866.680   107941954.767         281.025          47.000  
G30  22877223.695   120220602.295       -2441.645          39.000  
J 1  37439404.800   196745392.916          53.390          48.000  
R14  20611110.482   109868906.768       -2963.235          39.000  
R24  21680762.204   115936783.978       -1530.248          48.000  
R17  20572694.291   110088689.143         606.611          50.000  
R 8  24286813.297   130054807.731       -1871.445          51.000  
R 1  22095321.088   118112176.837         904.644          49.000  
R18  22974669.730   122640348.1902       2302.094          38.000  
R16  23391837.188   124954994.998        3785.133          42.000  
> 2016  5 20 10 24 22.0000000  0 19                     
G 1  21550098.322   113246535.962       -2130.874          50.000  
G 3  21614488.125   113584896.504        1767.238          49.000  
G 8  24763229.356   130131641.328       -1880.353          34.000  
G11  22370450.683   117557511.352       -2318.827          49.000  
G17  22394002.230   117681265.841        1875.577          47.000  
G22  22156970.146   116435658.204        -102.176          51.000  
R 2  22435905.089   119722288.5333       3775.612          51.000  
G28  20770715.688   109150852.180        1771.417          48.000  
G19  23855544.239   125361717.875        2669.006          42.000  
R15  20199814.032   107941673.661         280.836          47.000  
G30  22877688.203   120223043.426       -2440.903          39.000  
J 1  37439394.521   196745339.209          53.438          46.000  
R14  20611666.358   109871869.793       -2962.920          39.000  
R24  21681048.440   115938313.942       -1530.488          48.000  
R17  20572580.952   110088082.049         606.723          50.000  
R 8  24287162.720   130056679.897       -1872.659          49.000  
R 1  22095151.996   118111273.486         902.639          51.000  
R18  22974238.308   122638045.1832       2302.525          36.000  
R16  23391129.076   124951210.146        3783.500          41.000  
> 2016  5 20 10 24 23.0000000  0 20                     
G 1  21550503.883   113248667.029       -2131.490          51.000  
G 3  21614151.598   113583129.619        1766.547          49.000  
G 8  24763587.137   130133522.271       -1881.596          42.000  
G11  22370892.069   117559830.509       -2319.895          50.000  
G17  22393645.722   117679390.253        1875.987          48.000  
G22  22156990.022   116435761.041        -102.950          50.000  
R 2  22435197.412   119718512.9452       3775.432          48.000  
G28  20770378.427   109149081.076        1771.094          48.000  
G19  23855036.368   125359048.250        2669.440          41.000  
R15  20199761.682   107941393.143         280.244          47.000  
G30  22878152.640   120225484.229       -2440.277          40.000  
J 1  37439384.435   196745285.765          53.241          47.000  
R14  20612222.340   109874833.041       -2963.072          39.000  
R24  21681334.588   115939844.604       -1531.057          50.000  
R17  20572467.386   110087475.116         606.766          50.000  
R 8  24287512.789   130058553.348       -1873.903          47.000  
R 1  22094983.095   118110371.544         900.955          50.000  
R18  22973809.591   122635741.7372       2303.913          40.000  
R16  23390420.702   124947425.591        3784.118          43.000  
R13  24609535.724                       -4122.066          24.000  
> 2016  5 20 10 24 24.0000000  0 20                     
G 1  21550909.845   113250799.174       -2133.353          51.000  
G 3  21613815.559   113581363.741        1764.636          48.000  
G 8  24763945.216   130135404.404       -1883.641          44.000  
G11  22371333.367   117562150.770       -2321.768          50.000  
G17  22393288.498   117677514.754        1874.975          48.000  
G22  22157009.217   116435865.322        -105.962          51.000  
R 2  22434490.626   119714740.5503       3774.817          49.000  
G28  20770041.551   109147310.598        1769.354          48.000  
G19  23854527.939   125356378.439        2668.719          41.000  
R15  20199708.930   107941113.338         278.776          47.000  
G30  22878616.886   120227924.657       -2440.453          39.000  
J 1  37439374.262   196745232.598          52.343          46.000  
R14  20612777.972   109877796.409       -2963.694          39.000  
R24  21681621.069   115941376.191       -1533.108          47.000  
R17  20572354.622   110086868.529         605.740          51.000  
R 8  24287862.997   130060424.6183      -1877.318          50.000  
R 1  22094815.067   118109471.461         899.247          52.000  
R18  22973378.658   122633449.4163       2305.045          39.000  
R16  23389712.258   124943642.145        3780.633          38.000  
R13  24610308.001                       -4120.360          25.000  
> 2016  5 20 10 24 25.0000000  0 20                     
G 1  21551315.545   113252932.430       -2133.210          51.000  
G 3  21613479.607   113579598.617        1765.063          49.000  
G 8  24764303.399   130137287.316       -1881.511          45.000  
G11  22371775.224   117564472.136       -2321.626          45.000  
G17  22392931.537   117675639.314        1875.606          48.000  
G22  22157030.018   116435970.857        -105.666          50.000  
R 2  22433783.247   119710966.2952       3773.952          49.000  
G28  20769704.727   109145540.641        1769.678          48.000  
G19  23854019.910   125353708.323        2669.958          41.000  
R15  20199656.282   107940834.159         278.926          46.000  
G30  22879081.236   120230364.370       -2439.503          39.000  
J 1  37439364.385   196745179.513          52.949          47.000  
R14  20613333.762   109880759.582       -2963.392          39.000  
R24  21681907.741   115942908.877       -1532.661          47.000  
R17  20572241.440   110086262.355         606.049          50.000  
R 8  24288213.432   130062301.6232      -1877.554          51.000  
R 1  22094647.196   118108573.153         897.846          52.000  
R18  22972945.753   122631145.3362       2304.373          39.000  
R16  23389003.866   124939859.429        3781.780          42.000  
R13  24611080.086                       -4120.769          26.000  
> 2016  5 20 10 24 26.0000000  0 20                     
G 1  21551721.524   113255066.597       -2134.615          50.000  
G 3  21613143.882   113577834.358        1763.846          49.000  
G 8  24764661.844   130139171.127       -1884.102          39.000  
G11  22372217.238   117566794.420       -2322.457          47.000  
G17  22392574.872   117673764.138        1875.269          48.000  
G22  22157049.841   116436077.546        -106.744          52.000  
R 2  22433075.745   119707192.4882       3773.449          50.000  
G28  20769368.164   109143771.385        1768.939          48.000  
G19  23853511.865   125351038.286        2670.135          41.000  
R15  20199604.071   107940555.933         277.817          46.000  
G30  22879545.569   120232803.956       -2439.694          38.000  
J 1  37439354.211   196745126.655          52.756          47.000  
R14  20613890.022   109883723.063       -2963.526          39.000  
R24  21682194.500   115944442.314       -1533.781          48.000  
R17  20572128.415   110085656.708         605.269          51.000  
R 8  24288564.478   130064180.1672      -1879.730          51.000  
R 1  22094479.429   118107676.263         895.897          50.000  
R18  22972515.658   122628841.2642       2304.882          38.000  
R16  23388295.911   124936077.816        3780.302          42.000  
R13  24611850.670   131425892.7293      -4119.918          32.000  
> 2016  5 20 10 24 27.0000000  0 20                     
G 1  21552127.765   113257201.305       -2134.858          50.000  
G 3  21612808.384   113576070.586        1763.288          48.000  
G 8  24765020.376   130141055.279       -1886.108          44.000  
G11  22372659.200   117569117.173       -2323.395          51.000  
G17  22392217.962   117671888.963        1875.287          48.000  
G22  22157070.799   116436185.131        -108.556          50.000  
R 2  22432368.802   119703418.6302       3775.164          45.000  
G28  20769031.375   109142002.526        1768.341          48.000  
G19  23853003.592   125348368.097        2669.507          42.000  
R15  20199552.140   107940278.340         277.132          47.000  
G30  22880009.919   120235243.112       -2439.022          39.000  
J 1  37439344.003   196745073.661          53.007          46.000  
R14  20614445.882   109886686.576       -2963.999          39.000  
R24  21682481.190   115945976.293       -1534.851          48.000  
R17  20572015.250   110085051.349         605.094          51.000  
R 8  24288915.263   130066059.9002      -1880.283          48.000  
R 1  22094311.593   118106780.621         895.081          49.000  
R18  22972083.643   122626537.0672       2303.190          41.000  
R16  23387588.095   124932296.949        3780.369          44.000  
R13  24612622.493   131430014.4953      -4119.725          32.000  
> 2016  5 20 10 24 28.0000000  0 20                     
G 1  21552534.338   113259336.912       -2136.035          51.000  
G 3  21612472.712   113574307.745        1762.484          49.000  
G 8  24765378.664   130142939.987       -1884.431          46.000  
G11  22373101.528   117571440.787       -2323.722          49.000  
G17  22391861.228   117670014.034        1874.919          48.000  
G22  22157090.884   116436293.773        -109.296          50.000  
R 2  22431662.103   119699645.6752       3772.155          48.000  
G28  20768694.795   109140234.350        1768.268          48.000  
G19  23852495.494   125345697.947        2670.691          42.000  
R15  20199500.295   107940001.763         276.272          47.000  
G30  22880474.200   120237682.316       -2439.162          38.000  
J 1  37439334.231   196745021.058          52.628          47.000  
R14  20615001.898   109889650.549       -2963.606          39.000  
R24  21682768.473   115947510.895       -1534.603          48.000  
R17  20571902.191   110084446.466         604.691          51.000  
R 8  24289266.640   130067940.9432      -1881.204          47.000  
R 1  22094144.437   118105886.238         893.848          49.000  
R18  22971647.509   122624232.7842       2302.386          38.000  
R16  23386880.611   124928516.886        3779.910          43.000  
R13  24613390.913   131434133.5602      -4118.917          30.000  
> 2016  5 20 10 24 29.0000000  0 20                     
G 1  21552940.684   113261473.117       -2136.105          51.000  
G 3  21612137.389   113572545.696        1761.556          49.000  
G 8  24765737.388   130144825.237       -1885.574          46.000  
G11  22373543.804   117573764.992       -2324.736          49.000  
G17  22391504.510   117668139.183        1874.823          48.000  
G22  22157112.296   116436403.393        -108.480          45.000  
R 2  22430954.881   119695872.7792       3772.542          51.000  
G28  20768358.460   109138466.764        1767.419          48.000  
G19  23851987.204   125343027.816        2669.952          41.000  
R15  20199448.764   107939726.086         275.116          48.000  
G30  22880938.323   120240121.523       -2439.027          38.000  
J 1  37439323.935   196744968.694          52.061          46.000  
R14  20615557.897   109892615.024       -2964.835          39.000  
R24  21683055.651   115949046.040       -1535.207          48.000  
R17  20571788.904   110083841.871         604.411          50.000  
R 8  24289618.227   130069823.1402      -1882.607          46.000  
R 1  22093977.753   118104993.364         892.186          50.000  
R18  22971217.588   122621928.6352       2302.638          40.000  
R16  23386173.389   124924737.580        3779.718          39.000  
R13  24614168.373   131438269.2383      -4119.489          31.000  
> 2016  5 20 10 24 30.0000000  0 20                     
G 1  21553347.448   113263610.136       -2137.057          51.000  
G 3  21611802.397   113570784.321        1762.749          49.000  
G 8  24766096.234   130146713.6973      -1885.308          41.000  
G11  22373986.237   117576089.888       -2324.596          49.000  
G17  22391147.775   117666264.476        1875.197          49.000  
G22  22157133.323   116436514.157        -111.209          51.000  
R 2  22430247.780   119692100.4762       3772.169          49.000  
G28  20768022.229   109136699.768        1766.852          48.000  
G19  23851479.386   125340357.676        2669.714          42.000  
R15  20199397.705   107939451.295         274.274          48.000  
G30  22881402.167   120242560.592       -2438.171          38.000  
J 1  37439314.128   196744916.437          52.898          46.000  
R14  20616114.087   109895579.794       -2964.888          39.000  
R24  21683342.951   115950581.817       -1535.896          48.000  
R17  20571676.088   110083237.704         604.208          51.000  
R 8  24289969.901                       -1882.959          42.000  
R 1  22093810.685   118104101.739         891.260          50.000  
R18  22970786.097   122619624.4222       2304.012          40.000  
R16  23385466.166   124920959.003        3778.865          40.000  
R13  24614941.103   131442395.2052      -4117.017          31.000  
> 2016  5 20 10 24 31.0000000  0 19                     
G 1  21553754.335   113265748.112       -2138.241          51.000  
G 3  21611467.143   113569023.908        1760.769          48.000  
G 8  24766455.849   130148600.2442      -1887.496          41.000  
G11  22374428.757   117578415.682       -2326.530          49.000  
G17  22390790.831   117664390.365        1873.797          48.000  
G22  22157154.386   116436625.941        -112.264          51.000  
R 2  22429540.767   119688328.5002       3769.737          50.000  
G28  20767686.155   109134933.609        1766.064          48.000  
G19  23850971.619   125337687.852        2670.337          41.000  
R15  20199346.471   107939177.742         272.805          47.000  
G30  22881866.186   120244999.771       -2439.189          38.000  
J 1  37439304.112   196744864.453          53.072          42.000  
R14  20616670.418   109898545.051       -2965.899          40.000  
R24  21683630.391   115952118.409       -1537.248          49.000  
R17  20571563.534   110082634.238         603.142          51.000  
R 8  24290321.558   130073589.8183      -1885.725          46.000  
R 1  22093644.035   118103211.445         889.885          51.000  
R18  22970354.535   122617320.5762       2302.626          38.000  
R16  23384759.049   124917181.891        3776.643          37.000  
> 2016  5 20 10 24 32.0000000  0 20                     
G 1  21554161.082   113267886.365       -2138.400          51.000  
G 3  21611132.239   113567263.886        1759.850          48.000  
G 8  24766812.932   130150486.6562      -1886.312          44.000  
G11  22374871.347   117580741.617       -2326.358          49.000  
G17  22390434.219   117662516.318        1873.897          47.000  
G22  22157175.954   116436738.259        -112.546          50.000  
R 2  22428834.016   119684556.764        3772.540          43.000  
G28  20767350.099   109133167.915        1765.564          48.000  
G19  23850463.835   125335018.231        2669.946          42.000  
R15  20199295.080   107938905.044         271.841          48.000  
G30  22882330.292   120247439.000       -2439.406          38.000  
J 1  37439294.532   196744812.430          51.774          46.000  
R14  20617226.748   109901510.706       -2966.092          40.000  
R24  21683917.971   115953655.101       -1536.618          48.000  
R17  20571450.858   110082031.056         603.026          52.000  
R 8  24290673.686   130075475.7102      -1885.972          44.000  
R 1  22093477.717   118102321.994         889.473          50.000  
R18  22969923.079   122615016.999        2301.854          40.000  
R16  23384052.245   124913405.059        3776.786          41.000  
R13  24616485.168   131450640.5372      -4119.202          29.000  
> 2016  5 20 10 24 33.0000000  0 20                     
G 1  21554567.951   113270024.750       -2138.470          51.000  
G 3  21610797.474   113565504.381        1759.117          49.000  
G 8  24767172.965   130152373.0872      -1885.648          44.000  
G11  22375313.727   117583067.543       -2326.045          49.000  
G17  22390077.658   117660642.457        1873.411          48.000  
G22  22157197.104   116436851.078        -113.714          50.000  
R 2  22428127.160   119680784.960        3770.800          49.000  
G28  20767014.200   109131402.699        1764.575          48.000  
G19  23849955.633   125332348.854        2668.939          42.000  
R15  20199244.824   107938633.491         270.545          47.000  
G30  22882794.887   120249878.819       -2440.812          39.000  
J 1  37439284.637   196744760.533          51.567          47.000  
R14  20617783.445   109904477.227       -2967.034          40.000  
R24  21684205.289   115955191.615       -1536.594          48.000  
R17  20571338.199   110081428.088         602.506          50.000  
R 8  24291025.919   130077362.0242      -1886.260          45.000  
R 1  22093311.189   118101433.200         888.161          51.000  
R18  22969491.849   122612713.693        2302.791          39.000  
R16  23383345.319   124909628.841        3775.730          42.000  
R13  24617256.241   131454758.3743      -4117.555          28.000  
> 2016  5 20 10 24 34.0000000  0 20                     
G 1  21554974.890   113272163.108       -2138.403          51.000  
G 3  21610462.761   113563745.787        1758.159          48.000  
G 8  24767532.178   130154259.4712      -1883.771          40.000  
G11  22375756.561   117585393.200       -2325.301          49.000  
G17  22389721.255   117658768.800        1873.536          48.000  
G22  22157219.161   116436964.272        -113.681          51.000  
R 2  22427420.531   119677014.008        3770.399          49.000  
G28  20766678.213   109129638.110        1764.239          48.000  
G19  23849447.831   125329680.001        2669.006          41.000  
R15  20199194.201   107938363.279         269.598          47.000  
G30  22883259.499   120252319.925       -2441.838          39.000  
J 1  37439274.464   196744709.178          51.046          47.000  
R14  20618340.351   109907445.405       -2969.287          39.000  
R24  21684492.833   115956727.707       -1536.039          48.000  
R17  20571225.297   110080825.317         602.947          51.000  
R 8  24291378.239   130079248.3012      -1885.823          45.000  
R 1  22093145.378   118100544.863         888.327          51.000  
R18  22969060.759   122610411.250        2303.384          41.000  
R16  23382638.376   124905853.076        3776.348          38.000  
R13  24618027.122   131458877.0972      -4118.193          27.000  
> 2016  5 20 10 24 35.0000000  0 20                     
G 1  21555382.039   113274301.031       -2138.374          51.000  
G 3  21610128.293   113561987.770        1757.137          49.000  
G 8  24767891.356   130156145.6132      -1886.295          45.000  
G11  22376198.994   117587718.295       -2325.351          49.000  
G17  22389364.956   117656894.864        1873.672          48.000  
G22  22157240.188   116437077.667        -114.662          50.000  
R 2  22426713.780   119673243.831        3771.970          50.000  
G28  20766342.593   109127873.705        1763.556          48.000  
G19  23848939.838   125327011.156        2667.816          40.000  
R15  20199143.386   107938094.076         268.471          46.000  
G30  22883724.250   120254762.038       -2442.899          39.000  
J 1  37439264.727   196744658.054          50.600          47.000  
R14  20618897.589   109910414.725       -2970.121          39.000  
R24  21684779.907   115958262.990       -1535.774          49.000  
R17  20571112.603   110080222.268         602.848          51.000  
R 8  24291730.541   130081134.3332      -1887.012          45.000  
R 1  22092979.251   118099656.815         887.044          49.000  
R18  22968629.459   122608109.116        2300.901          39.000  
R16  23381931.502   124902076.984        3775.909          46.000  
R13  24618798.352   131462992.7063      -4120.281          27.000  
> 2016  5 20 10 24 36.0000000  0 20                     
G 1  21555788.768   113276438.590       -2137.506          51.000  
G 3  21609793.807   113560230.266        1757.319          48.000  
G 8  24768250.603   130158031.3122      -1885.171          46.000  
G11  22376641.130   117590042.806       -2324.212          48.000  
G17  22389007.890   117655020.813        1873.973          48.000  
G22  22157261.827   116437191.105        -113.315          51.000  
R 2  22426007.116   119669474.094        3767.553          48.000  
G28  20766007.148   109126109.599        1764.191          48.000  
G19  23848431.810   125324342.410        2668.268          41.000  
R15  20199093.373   107937825.917         267.432          48.000  
G30  22884189.334   120257205.128       -2443.529          39.000  
J 1  37439255.356   196744607.190          50.448          47.000  
R14  20619454.862   109913385.345       -2971.535          39.000  
R24  21685066.335   115959797.479       -1534.367          48.000  
R17  20570999.665   110079619.059         602.978          51.000  
R 8  24292082.931   130083020.0142      -1885.755          45.000  
R 1  22092813.230   118098768.894         888.112          50.000  
R18  22968198.142   122605807.353        2301.444          38.000  
R16  23381225.083   124898300.944        3776.894          42.000  
R13  24619572.845                       -4122.616          25.000  
> 2016  5 20 10 24 37.0000000  0 20                     
G 1  21556195.498   113278575.971       -2137.423          51.000  
G 3  21609459.566   113558473.588        1756.094          48.000  
G 8  24768608.996   130159916.3341      -1886.164          44.000  
G11  22377083.511   117592366.910       -2324.021          49.000  
G17  22388651.487   117653146.942        1873.652          48.000  
G22  22157283.692   116437304.895        -114.453          51.000  
R 2  22425300.713   119665704.383        3768.324          50.000  
G28  20765671.336   109124346.051        1762.988          48.000  
G19  23847924.375   125321674.172        2667.969          41.000  
R15  20199043.745   107937559.150         265.411          48.000  
G30  22884654.312   120259649.574       -2445.418          38.000  
J 1  37439245.654   196744556.794          49.631          47.000  
R14  20620012.361   109916357.564       -2973.376          40.000  
R24  21685353.269   115961331.402       -1534.147          48.000  
R17  20570887.460   110079015.921         602.601          52.000  
R 8  24292435.129   130084905.5782      -1885.889          45.000  
R 1  22092647.244   118097881.434         886.865          51.000  
R18  22967767.192   122603506.262        2300.936          40.000  
R16  23380518.174   124894525.094        3775.580          41.000  
R13  24620340.585   131471228.5172      -4121.661          31.000  
> 2016  5 20 10 24 38.0000000  0 20                     
G 1  21556602.175   113280713.003       -2136.608          51.000  
G 3  21609125.202   113556717.492        1756.020          49.000  
G 8  24768967.074   130161801.496       -1884.763          44.000  
G11  22377525.699   117594690.485       -2323.306          49.000  
G17  22388294.996   117651273.149        1874.225          48.000  
G22  22157305.068   116437418.793        -113.804          50.000  
R 2  22424595.515   119661937.8693       3768.781          49.000  
G28  20765335.663   109122582.932        1763.092          48.000  
G19  23847416.451   125319006.392        2668.280          42.000  
R15  20198994.169   107937293.635         264.999          48.000  
G30  22885119.657   120262095.299       -2446.039          39.000  
J 1  37439236.300   196744506.700          50.069          46.000  
R14  20620570.018   109919331.262       -2974.435          40.000  
R24  21685639.679   115962864.555       -1532.484          49.000  
R17  20570774.749   110078412.768         603.492          52.000  
R 8  24292787.239   130086790.8562      -1885.256          44.000  
R 1  22092481.013   118096994.067         887.450          51.000  
R18  22967336.311   122601205.901        2301.091          42.000  
R16  23379811.720   124890749.331        3775.690          41.000  
R13  24621115.584   131475350.4252      -4124.317          31.000  
> 2016  5 20 10 24 39.0000000  0 20                     
G 1  21557008.696   113282849.883       -2136.798          51.000  
G 3  21608791.292   113554962.128        1754.823          49.000  
G 8  24769325.886   130163686.371       -1885.438          43.000  
G11  22377967.818   117597013.634       -2322.676          50.000  
G17  22387938.628   117649399.572        1873.500          48.000  
G22  22157326.916   116437533.014        -114.536          50.000  
R 2  22423888.066   119658169.9302       3767.611          48.000  
G28  20765000.462   109120820.381        1762.024          48.000  
G19  23846908.894   125316339.152        2666.711          43.000  
R15  20198945.064   107937029.561         263.159          48.000  
G30  22885585.438   120264542.356       -2447.606          39.000  
J 1  37439226.720   196744457.080          49.077          46.000  
R14  20621128.460   109922306.544       -2976.598          40.000  
R24  21685926.473   115964397.194       -1532.702          49.000  
R17  20570662.108   110077809.821         602.413          51.000  
R 8  24293139.576   130088676.1172      -1885.773          44.000  
R 1  22092314.869   118096107.041         886.584          49.000  
R18  22966905.727   122598906.448        2297.979          39.000  
R16  23379105.021   124886974.019        3775.031          43.000  
R13  24621888.227                       -4123.983          25.000  
> 2016  5 20 10 24 40.0000000  0 20                     
G 1  21557415.111   113284986.569       -2136.478          51.000  
G 3  21608457.382   113553207.496        1754.572          49.000  
G 8  24769682.586   130165571.086       -1884.171          44.000  
G11  22378409.972   117599336.392       -2322.742          48.000  
G17  22387582.138   117647526.148        1873.520          48.000  
G22  22157348.327   116437647.492        -114.518          50.000  
R 2  22423184.176   119654402.7812       3768.193          48.000  
G28  20764665.191   109119058.369        1762.018          48.000  
G19  23846401.547   125313672.318        2667.114          42.000  
R15  20198895.907   107936766.829         261.894          47.000  
G30  22886051.377   120266990.724       -2448.342          37.000  
J 1  37439217.471   196744407.844          48.975          46.000  
R14  20621686.972   109925283.279       -2977.028          40.000  
R24  21686212.797   115965929.205       -1531.680          50.000  
R17  20570549.205   110077206.977         602.866          50.000  
R 8  24293491.565   130090561.192       -1884.553          43.000  
R 1  22092148.935   118095220.375         887.301          50.000  
R18  22966475.282   122596607.708        2299.048          42.000  
R16  23378398.130   124883198.887        3774.028          41.000  
R13  24622658.078   131483603.5303      -4124.208          32.000  
> 2016  5 20 10 24 41.0000000  0 20                     
G 1  21557821.562   113287123.070       -2137.094          51.000  
G 3  21608123.472   113551453.269        1753.774          49.000  
G 8  24770043.544   130167455.546       -1885.993          43.000  
G11  22378851.794   117601658.817       -2323.642          49.000  
G17  22387225.560   117645652.607        1873.262          49.000  
G22  22157370.611   116437762.218        -116.096          49.000  
R 2  22422478.088   119650635.4502       3766.906          49.000  
G28  20764329.798   109117296.614        1761.292          48.000  
G19  23845894.025   125311005.561        2666.772          42.000  
R15  20198846.767   107936505.029         261.041          47.000  
G30  22886517.175   120269439.563       -2447.907          38.000  
J 1  37439207.804   196744358.651          48.875          46.000  
R14  20622245.658   109928260.881       -2977.293          39.000  
R24  21686499.137   115967460.741       -1532.137          50.000  
R17  20570436.407   110076604.060         602.363          51.000  
R 8  24293844.007   130092446.351       -1886.130          43.000  
R 1  22091983.036   118094334.087         885.557          50.000  
R18  22966044.768   122594309.117        2298.678          43.000  
R16  23377690.890   124879423.827        3774.236          43.000  
R13  24623435.084   131487727.2712      -4123.740          28.000  
> 2016  5 20 10 24 42.0000000  0 20                     
G 1  21558228.571   113289260.763       -2138.385          51.000  
G 3  21607789.946   113549699.561        1753.011          49.000  
G 8  24770402.268   130169340.598       -1884.864          44.000  
G11  22379294.017   117603982.341       -2323.863          50.000  
G17  22386868.825   117643779.424        1872.699          48.000  
G22  22157392.197   116437878.041        -116.302          50.000  
R 2  22421771.389   119646868.2772       3766.360          49.000  
G28  20763994.265   109115535.553        1760.498          47.000  
G19  23845386.485   125308338.800        2665.662          40.000  
R15  20198797.627   107936244.010         260.120          47.000  
G30  22886982.869   120271887.557       -2447.827          39.000  
J 1  37439198.503   196744309.291          48.425          45.000  
R14  20622803.873   109931238.093       -2977.338          40.000  
R24  21686785.652   115968993.418       -1533.134          49.000  
R17  20570323.452   110076001.835         601.898          51.000  
R 8  24294196.414   130094333.546       -1888.198          44.000  
R 1  22091817.765   118093449.413         884.104          50.000  
R18  22965614.323   122592010.332        2298.506          41.000  
R16  23376984.505   124875650.125        3772.745          41.000  
R13  24624202.091   131491848.5233      -4126.340          32.000  
> 2016  5 20 10 24 43.0000000  0 20                     
G 1  21558635.492   113291399.435       -2138.647          51.000  
G 3  21607456.281   113547946.619        1752.883          48.000  
G 8  24770762.004   130171226.294       -1885.384          44.000  
G11  22379736.275   117606306.815       -2324.699          49.000  
G17  22386512.457   117641906.720        1872.726          48.000  
G22  22157414.429   116437995.033        -117.004          50.000  
R 2  22421063.643   119643101.3132       3767.342          47.000  
G28  20763659.134   109113775.347        1759.888          47.000  
G19  23844879.120   125305672.308        2666.583          42.000  
R15  20198749.028   107935984.112         259.933          48.000  
G30  22887448.650   120274335.435       -2448.155          39.000  
J 1  37439189.097   196744260.091          49.204          46.000  
R14  20623362.507   109934215.658       -2977.842          40.000  
R24  21687072.656   115970527.013       -1533.983          49.000  
R17  20570211.421   110075400.366         601.423          51.000  
R 8  24294549.222   130096222.277       -1889.039          45.000  
R 1  22091652.965   118092566.213         882.896          51.000  
R18  22965183.792   122589711.868        2299.393          38.000  
R16  23376278.714   124871877.796        3772.948          37.000  
R13  24624972.832   131495970.4132      -4121.629          32.000  
> 2016  5 20 10 24 44.0000000  0 20                     
G 1  21559042.484   113293538.759       -2139.590          51.000  
G 3  21607122.981   113546194.312        1751.877          48.000  
G 8  24771120.222   130173112.262       -1886.041          45.000  
G11  22380178.656   117608631.814       -2325.054          49.000  
G17  22386156.036   117640034.264        1872.372          48.000  
G22  22157437.184   116438112.895        -118.455          50.000  
R 2  22420358.480   119639334.6112       3766.596          50.000  
G28  20763324.351   109112015.731        1759.186          48.000  
G19  23844371.860   125303005.973        2666.058          42.000  
R15  20198700.656   107935725.168         258.898          47.000  
G30  22887914.501   120276783.240       -2447.715          39.000  
J 1  37439180.058   196744210.944          49.113          47.000  
R14  20623921.053   109937193.558       -2978.205          40.000  
R24  21687359.573   115972060.991       -1533.617          49.000  
R17  20570098.902   110074799.359         600.723          51.000  
R 8  24294902.118   130098112.296       -1890.719          45.000  
R 1  22091487.624   118091684.103         881.575          50.000  
R18  22964753.068   122587413.531        2298.000          38.000  
R16  23375572.713   124868106.175        3771.273          44.000  
R13  24625744.795   131500092.0062      -4121.602          33.000  
> 2016  5 20 10 24 45.0000000  0 20                     
G 1  21559449.842   113295678.653       -2140.264          51.000  
G 3  21606789.386   113544442.667        1751.021          48.000  
G 8  24771479.766   130174998.670       -1886.190          47.000  
G11  22380621.455   117610957.343       -2326.092          49.000  
G17  22385799.999   117638161.883        1872.193          49.000  
G22  22157459.380   116438231.588        -119.419          50.000  
R 2  22419654.102   119635568.1512       3766.177          50.000  
G28  20762990.040   109110256.613        1758.685          49.000  
G19  23843864.320   125300339.607        2666.321          42.000  
R15  20198652.371   107935467.131         257.431          46.000  
G30  22888380.492   120279230.974       -2447.657          39.000  
J 1  37439170.530   196744161.946          48.452          47.000  
R14  20624479.635   109940171.793       -2978.437          40.000  
R24  21687646.210   115973595.445       -1534.581          49.000  
R17  20569986.732   110074198.602         600.431          51.000  
R 8  24295254.979   130100003.393       -1892.695          46.000  
R 1  22091323.051   118090803.172         880.903          51.000  
R18  22964322.327   122585115.153        2297.738          39.000  
R16  23374866.904   124864335.274        3770.139          43.000  
R13  24626519.044   131504213.2662      -4121.095          30.000  
> 2016  5 20 10 24 46.0000000  0 20                     
G 1  21559857.339   113297819.101       -2140.321          51.000  
G 3  21606456.627   113542691.780        1750.581          49.000  
G 8  24771839.817   130176885.560       -1886.708          46.000  
G11  22381063.836   117613283.364       -2326.107          48.000  
G17  22385443.387   117636289.566        1871.954          48.000  
G22  22157482.607   116438351.207        -120.132          51.000  
R 2  22418948.171   119631801.6921       3765.377          49.000  
G28  20762655.938   109108498.022        1758.148          49.000  
G19  23843357.129   125297673.133        2666.986          43.000  
R15  20198604.174   107935209.933         256.553          47.000  
G30  22888846.238   120281678.740       -2447.979          39.000  
J 1  37439160.968   196744113.107          48.634          47.000  
R14  20625038.513   109943150.485       -2979.311          39.000  
R24  21687933.266   115975130.282       -1534.690          49.000  
R17  20569875.034   110073598.064         600.146          51.000  
R 8  24295608.520   130101895.410       -1891.973          42.000  
R 1  22091158.164   118089923.349         880.432          52.000  
R18  22963892.057   122582816.759        2298.513          40.000  
R16  23374161.217   124860564.965        3770.115          42.000  
R13  24627288.371                       -4120.304          28.000  
> 2016  5 20 10 24 47.0000000  0 20                     
G 1  21560264.802   113299960.061       -2140.858          51.000  
G 3  21606123.573   113540941.752        1749.576          48.000  
G 8  24772197.319   130178772.760       -1886.546          44.000  
G11  22381506.600   117615609.759       -2326.202          48.000  
G17  22385086.879   117634417.376        1872.228          48.000  
G22  22157505.938   116438471.654        -120.603          50.000  
R 2  22418242.571   119628036.274        3764.993          50.000  
G28  20762321.592   109106740.022        1757.910          49.000  
G19  23842849.468   125295006.911        2665.985          41.000  
R15  20198556.133   107934953.799         255.755          47.000  
G30  22889312.142   120284126.971       -2448.843          38.000  
J 1  37439151.597   196744064.668          48.144          47.000  
R14  20625597.199   109946129.982       -2980.093          39.000  
R24  21688220.531   115976665.389       -1535.230          49.000  
R17  20569763.038   110072997.846         600.343          52.000  
R 8  24295962.132   130103788.358       -1893.854          43.000  
R 1  22090994.010   118089044.765         877.743          51.000  
R18  22963461.839   122580518.534        2298.383          41.000  
R16  23373455.216   124856795.301        3771.075          41.000  
R13  24628059.671   131512447.9283      -4121.327          33.000  
> 2016  5 20 10 24 48.0000000  0 20                     
G 1  21560672.369   113302101.274       -2141.284          51.000  
G 3  21605790.273   113539192.606        1748.844          48.000  
G 8  24772556.706   130180660.422       -1889.352          44.000  
G11  22381949.207   117617936.307       -2327.139          48.000  
G17  22384731.016   117632545.471        1871.622          49.000  
G22  22157528.762   116438592.841        -121.680          50.000  
R 2  22417536.972   119624271.633        3763.103          51.000  
G28  20761987.106   109104982.733        1756.744          49.000  
G19  23842341.998   125292340.988        2665.778          40.000  
R15  20198508.407   107934698.930         254.104          47.000  
G30  22889777.975   120286576.045       -2449.371          38.000  
J 1  37439142.750   196744016.694          47.292          47.000  
R14  20626156.129   109949110.674       -2981.208          39.000  
R24  21688507.430   115978200.467       -1534.854          49.000  
R17  20569650.624   110072398.002         599.533          51.000  
R 8  24296315.778   130105681.744       -1893.030          43.000  
R 1  22090829.350   118088166.913         877.707          50.000  
R18  22963031.674   122578220.988        2298.198          40.000  
R16  23372749.407   124853026.172        3768.331          43.000  
R13  24628830.447   131516563.6652      -4114.087          30.000  
> 2016  5 20 10 24 49.0000000  0 20                     
G 1  21561079.727   113304242.355       -2141.246          51.000  
G 3  21605457.550   113537443.945        1748.141          48.000  
G 8  24772915.448   130182547.624       -1888.025          42.000  
G11  22382391.745   117620262.533       -2326.220          48.000  
G17  22384374.997   117630673.386        1872.233          48.000  
G22  22157552.233   116438714.257        -121.613          50.000  
R 2  22416831.355                        3763.525          47.000  
G28  20761652.306   109103225.648        1756.836          48.000  
G19  23841834.860   125289675.016        2666.034          43.000  
R15  20198461.222   107934444.926         253.564          47.000  
G30  22890244.140   120289025.626       -2449.698          38.000  
J 1  37439133.676   196743968.786          47.897          47.000  
R14  20626715.426   109952092.180       -2982.098          39.000  
R24  21688794.539   115979735.110       -1534.608          48.000  
R17  20569538.436   110071798.037         600.077          51.000  
R 8  24296669.302   130107575.345       -1894.224          44.000  
R 1  22090665.038   118087289.550         875.731          48.000  
R18  22962601.264   122575923.527        2296.995          40.000  
R16  23372043.843   124849257.133        3768.399          43.000  
R13  24629605.498                       -4124.288          30.000  
> 2016  5 20 10 24 50.0000000  0 20                     
G 1  21561486.788   113306383.284       -2140.985          51.000  
G 3  21605125.158   113535695.813        1747.654          48.000  
G 8  24773273.910   130184432.6883      -1887.117          45.000  
G11  22382834.649   117622588.481       -2325.282          50.000  
G17  22384018.367   117628801.145        1872.696          48.000  
G22  22157574.971   116438835.965        -121.873          50.000  
R 2  22416125.982   119616743.1863       3762.929          47.000  
G28  20761317.436   109101468.837        1756.647          47.000  
G19  23841327.495   125287009.051        2666.156          42.000  
R15  20198413.792   107934191.853         252.732          48.000  
G30  22890710.742   120291475.780       -2450.613          39.000  
J 1  37439124.689   196743920.978          47.654          47.000  
R14  20627274.688   109955074.534       -2982.885          39.000  
R24  21689081.525   115981269.266       -1534.120          48.000  
R17  20569426.546   110071197.970         600.377          52.000  
R 8  24297022.599   130109468.956       -1893.336          46.000  
R 1  22090501.024   118086412.475         876.024          48.000  
R18  22962170.785   122573626.260        2296.272          40.000  
R16  23371338.208   124845488.165        3768.829          43.000  
R13  24630377.165   131524823.4843      -4121.536          29.000  
> 2016  5 20 10 24 51.0000000  0 20                     
G 1  21561894.163   113308523.974       -2140.664          51.000  
G 3  21604792.487   113533948.126        1747.161          48.000  
G 8  24773630.959   130186320.0282      -1887.372          41.000  
G11  22383276.872   117624914.035       -2324.918          49.000  
G17  22383662.365   117626928.794        1871.722          48.000  
G22  22157598.179   116438957.887        -122.584          50.000  
R 2  22415420.819   119612979.3152       3763.578          50.000  
G28  20760983.265   109099712.286        1756.232          48.000  
G19  23840820.252   125284343.156        2665.381          42.000  
R15  20198366.484   107933939.672         251.386          47.000  
G30  22891177.081   120293926.607       -2451.374          40.000  
J 1  37439115.248   196743873.290          47.549          47.000  
R14  20627834.387   109958057.873       -2984.141          39.000  
R24  21689368.302   115982802.812       -1533.730          48.000  
R17  20569314.323   110070597.727         600.126          50.000  
R 8  24297376.105   130111362.552       -1894.201          47.000  
R 1  22090337.079   118085535.803         875.620          50.000  
R18  22961740.323   122571329.177        2296.749          41.000  
R16  23370633.010   124841719.289        3767.858          37.000  
R13  24631147.661   131528937.9672      -4122.421          29.000  
> 2016  5 20 10 24 52.0000000  0 20                     
G 1  21562301.958   113310664.635       -2140.627          51.000  
G 3  21604460.131   113532201.077        1746.606          49.000  
G 8  24773991.376   130188206.6792      -1887.357          42.000  
G11  22383719.445   117627239.418       -2326.099          49.000  
G17  22383306.276   117625056.451        1872.327          48.000  
G22  22157621.284   116439080.192        -122.788          50.000  
R 2  22414713.247   119609215.9912       3763.038          48.000  
G28  20760649.303   109097956.162        1755.835          48.000  
G19  23840313.044   125281677.476        2665.186          42.000  
R15  20198319.369   107933688.561         250.501          48.000  
G30  22891643.578   120296378.148       -2451.676          40.000  
J 1  37439106.034   196743825.786          47.293          47.000  
R14  20628394.207   109961042.221       -2984.714          39.000  
R24  21689655.271   115984336.035       -1533.182          49.000  
R17  20569202.049   110069997.537         599.804          52.000  
R 8  24297729.717   130113256.345       -1894.367          49.000  
R 1  22090173.396   118084659.662         875.292          51.000  
R18  22961309.913   122569032.512        2295.781          41.000  
R16  23369928.004   124837949.2163       3765.738          27.000  
R13  24631919.397                       -4126.226          27.000  
> 2016  5 20 10 24 53.0000000  0 20                     
G 1  21562709.368   113312805.324       -2140.710          51.000  
G 3  21604127.826   113530454.501        1746.227          49.000  
G 8  24774351.671   130190093.0022      -1880.508          40.000  
G11  22384161.877   117629564.590       -2325.095          48.000  
G17  22382949.838   117623184.292        1872.062          48.000  
G22  22157644.545   116439202.799        -122.737          49.000  
R 2  22414009.916   119605452.9352       3762.765          51.000  
G28  20760315.550   109096200.548        1755.517          49.000  
G19  23839805.661   125279012.073        2665.271          42.000  
R15  20198272.707   107933438.646         249.253          48.000  
G30  22892110.389   120298830.399       -2453.010          39.000  
J 1  37439097.065   196743778.402          47.266          47.000  
R14  20628954.446   109964027.532       -2985.681          39.000  
R24  21689941.699   115985869.010       -1533.357          47.000  
R17  20569089.844   110069397.582         599.575          51.000  
R 8  24298083.747   130115150.394       -1894.454          49.000  
R 1  22090009.573   118083783.948         875.244          50.000  
R18  22960879.835   122566736.361        2294.888          41.000  
R16  23369221.724   124834176.6132       3767.023          44.000  
R13  24632689.126   131537169.3642      -4124.024          28.000  
> 2016  5 20 10 24 54.0000000  0 20                     
G 1  21563116.342   113314946.145       -2140.388          50.000  
G 3  21603795.364   113528708.570        1745.929          49.000  
G 8  24774710.133   130191979.7013      -1886.812          40.000  
G11  22384604.659   117631889.676       -2324.595          50.000  
G17  22382593.399   117621312.409        1872.024          48.000  
G22  22157668.190   116439325.840        -123.197          51.000  
R 2  22413305.626   119601693.2173       3761.068          50.000  
G28  20759981.622   109094445.535        1755.042          48.000  
G19  23839298.523   125276347.167        2664.667          41.000  
R15  20198226.097   107933189.997         248.681          46.000  
G30  22892577.042   120301283.377       -2453.292          39.000  
J 1  37439088.479   196743731.259          47.407          46.000  
R14  20629514.755   109967013.940       -2986.659          39.000  
R24  21690228.005   115987401.723       -1532.169          49.000  
R17  20568977.796   110068797.964         599.683          51.000  
R 8  24298437.183   130117044.826       -1894.705          49.000  
R 1  22089845.786   118082908.858         874.553          51.000  
R18  22960449.530   122564440.782        2295.776          40.000  
R16  23368515.653   124830405.2332       3767.903          36.000  
R13  24633461.159   131541291.6032      -4122.744          30.000  
> 2016  5 20 10 24 55.0000000  0 20                     
G 1  21563523.926   113317086.940       -2140.909          51.000  
G 3  21603463.322   113526962.973        1745.445          49.000  
G 8  24775070.777   130193865.6972      -1885.062          46.000  
G11  22385046.952   117634214.569       -2324.546          49.000  
G17  22382237.764   117619440.663        1871.525          48.000  
G22  22157691.399   116439449.130        -123.455          51.000  
R 2  22412600.427   119597930.7272       3762.369          49.000  
G28  20759647.520   109092690.926        1754.156          48.000  
G19  23838791.542   125273682.481        2664.148          38.000  
R15  20198179.593   107932942.447         246.779          47.000  
G30  22893044.010   120303736.855       -2453.529          40.000  
J 1  37439079.213   196743684.077          47.183          46.000  
R14  20630075.204   109970001.136       -2987.597          39.000  
R24  21690514.624   115988934.151       -1532.253          48.000  
R17  20568865.643   110068198.522         599.315          51.000  
R 8  24298790.829   130118939.505       -1895.147          47.000  
R 1  22089682.138   118082034.220         872.944          46.000  
R18  22960019.382   122562145.559        2295.609          38.000  
R16  23367810.577   124826638.2572       3767.457          43.000  
R13  24634235.635   131545414.7372      -4123.279          29.000  
> 2016  5 20 10 24 56.0000000  0 19                     
G 1  21563931.459   113319227.742       -2140.825          51.000  
G 3  21603131.209   113525217.954        1744.871          49.000  
G 8  24775428.646   130195751.6792      -1885.887          43.000  
G11  22385489.158   117636539.269       -2323.679          50.000  
G17  22381881.431   117617569.103        1871.592          48.000  
G22  22157714.817   116439572.822        -123.945          50.000  
R 2  22411895.508   119594168.4332       3761.878          47.000  
G28  20759313.820   109090936.884        1753.406          48.000  
G19  23838284.334   125271018.247        2663.794          38.000  
R15  20198133.367   107932696.139         245.274          47.000  
G30  22893511.031   120306191.195       -2454.762          40.000  
J 1  37439070.820   196743637.126          46.566          47.000  
R14  20630636.002   109972989.443       -2989.078          39.000  
R24  21690801.209   115990466.264       -1531.775          49.000  
R17  20568753.578   110067599.264         599.273          51.000  
R 8  24299144.563   130120834.487       -1895.277          46.000  
R 1  22089518.873   118081159.898         874.521          50.000  
R18  22959590.264                        2291.630          36.000  
R16  23367104.890   124822871.6532       3767.395          37.000  
> 2016  5 20 10 24 57.0000000  0 20                     
G 1  21564338.398   113321368.424       -2140.773          50.000  
G 3  21602799.411   113523473.407        1744.491          48.000  
G 8  24775785.189   130197629.7283      -1884.867          42.000  
G11  22385931.626   117638863.695       -2324.153          50.000  
G17  22381525.464   117615697.725        1870.846          48.000  
G22  22157738.776   116439696.711        -124.227          50.000  
R 2  22411189.804   119590406.2852       3761.277          49.000  
G28  20758980.050   109089183.247        1753.558          48.000  
G19  23837777.701   125268354.478        2663.580          40.000  
R15  20198087.508   107932450.977         244.704          47.000  
G30  22893977.963   120308646.253       -2455.278          40.000  
J 1  37439061.624   196743590.248          46.814          46.000  
R14  20631196.817   109975978.762       -2989.737          39.000  
R24  21691087.637   115991998.019       -1531.930          49.000  
R17  20568641.844   110067000.099         598.814          51.000  
R 8  24299498.348   130122729.595       -1895.316          48.000  
R 1  22089355.016   118080286.079         873.958          52.000  
R18  22959156.137   122557528.5923       2293.320          37.000  
R16  23366399.797   124819105.5792       3765.275          42.000  
R13  24635779.612   131553672.2093      -4123.026          29.000  
> 2016  5 20 10 24 58.0000000  0 19                     
G 1  21564745.930   113323509.759       -2142.072          51.000  
G 3  21602467.455   113521729.712        1743.244          48.000  
G 8  24776145.082   130199520.9562      -1885.657          43.000  
G11  22386374.007   117641188.679       -2325.495          51.000  
G17  22381169.601   117613826.540        1870.434          48.000  
G22  22157762.299   116439821.527        -125.234          51.000  
R 2  22410484.257   119586644.8362       3761.417          49.000  
G28  20758646.541   109087430.301        1752.692          49.000  
G19  23837270.633   125265690.719        2662.976          40.000  
R15  20198041.980   107932206.881         243.831          47.000  
G30  22894445.472   120311101.593       -2454.987          39.000  
J 1  37439052.846   196743543.715          46.122          46.000  
R14  20631758.033   109978968.746       -2990.156          40.000  
R24  21691374.013   115993530.155       -1533.548          48.000  
R17  20568530.023   110066401.330         598.758          51.000  
R 8  24299852.361   130124625.751       -1897.246          47.000  
R 1  22089191.629   118079413.490         871.031          52.000  
R18  22958727.682   122555241.7822       2293.258          41.000  
R16  23365695.733   124815340.1352       3765.069          40.000  
> 2016  5 20 10 24 59.0000000  0 20                     
G 1  21565153.707   113325652.009       -2142.649          51.000  
G 3  21602135.971   113519986.828        1742.330          49.000  
G 8  24776504.312   130201407.6592      -1885.749          40.000  
G11  22386816.457   117643514.538       -2324.867          46.000  
G17  22380812.867   117611955.601        1870.660          48.000  
G22  22157786.555   116439947.544        -126.053          52.000  
R 2  22409779.617   119582883.7662       3760.388          50.000  
G28  20758313.067   109085678.031        1751.977          47.000  
G19  23836763.948   125263027.039        2663.092          41.000  
R15  20197996.208   107931963.754         242.487          47.000  
G30  22894912.859   120313556.764       -2455.319          39.000  
J 1  37439043.877   196743497.365          46.051          47.000  
R14  20632319.023   109981958.985       -2990.451          40.000  
R24  21691660.964   115995063.102       -1533.213          49.000  
R17  20568417.801   110065803.151         597.543          51.000  
R 8  24300206.775   130126523.435       -1898.187          48.000  
R 1  22089028.452   118078542.341         870.870          48.000  
R18  22958303.677   122552948.0042       2294.516          36.000  
R16  23364990.622   124811575.7902       3763.812          44.000  
R13  24637328.651                       -4123.708          24.000  
> 2016  5 20 10 25  0.0000000  0 19                     
G 1  21565561.396   113327794.757       -2141.841          51.000  
G 3  21601804.556   113518244.645        1742.073          48.000  
G 8  24776865.950   130203294.7542      -1887.908          41.000  
G11  22387259.937   117645840.758       -2326.537          36.000  
G17  22380457.179   117610085.085        1870.710          48.000  
G22  22157810.741   116440074.268        -126.296          50.000  
R 2  22409075.030                        3762.647          45.000  
G28  20757979.664   109083926.536        1751.416          48.000  
G19  23836257.247   125260363.839        2663.916          40.000  
R15  20197951.030   107931721.893         241.633          48.000  
G30  22895379.896   120316012.380       -2455.409          39.000  
J 1  37439035.256   196743451.246          46.468          47.000  
R14  20632880.100   109984950.082       -2991.365          40.000  
R24  21691947.793   115996596.316       -1529.966          42.000  
R17  20568305.962   110065205.529         597.853          51.000  
R 8  24300561.468   130128421.983       -1898.180          48.000  
R 1  22088866.183   118077672.191         868.386          48.000  
R18  22957871.801   122550654.7252       2293.408          39.000  
R16  23364285.511   124807812.2702       3764.018          39.000  
> 2016  5 20 10 25  1.0000000  0 19                     
G 1  21565969.086   113329937.336       -2141.971          50.000  
G 3  21601473.229   113516503.106        1741.979          49.000  
G 8  24777223.907   130205189.5143      -1885.824          44.000  
G11  22387701.183   117648163.0453      -2325.528          48.000  
G17  22380101.212   117608214.685        1870.285          48.000  
G22  22157834.455   116440201.320        -126.321          50.000  
R 2  22408370.268                        3757.813          44.000  
G28  20757646.644   109082175.491        1750.671          48.000  
G19  23835750.545   125257701.042        2662.097          42.000  
R15  20197906.444   107931481.280         240.056          48.000  
G30  22895847.353   120318469.182       -2457.870          39.000  
J 1  37439026.985   196743405.498          45.422          47.000  
R14  20633441.682   109987942.557       -2993.170          40.000  
R24  21692234.431   115998128.950       -1532.548          49.000  
R17  20568194.037   110064607.957         597.423          51.000  
R 8  24300916.074   130130320.399       -1898.161          50.000  
R 1  22088703.390   118076802.411         868.326          46.000  
R18  22957439.019   122548362.0922       2292.504          40.000  
R16  23363580.853   124804048.9732       3763.419          41.000  
> 2016  5 20 10 25  2.0000000  0 20                     
G 1  21566376.740   113332079.667       -2142.439          50.000  
G 3  21601142.041   113514762.424        1740.211          50.000  
G 8  24777583.294                       -1889.370          39.000  
G11  22388145.343   117650488.4032      -2324.721          48.000  
G17  22379745.227   117606344.428        1870.397          48.000  
G22  22157859.113   116440328.536        -126.861          50.000  
R 2  22407665.611   119571597.1383       3761.110          46.000  
G28  20757313.850   109080424.968        1750.098          48.000  
G19  23835243.424   125255038.696        2661.700          43.000  
R15  20197861.754   107931242.084         238.395          47.000  
G30  22896315.193   120320927.377       -2458.448          39.000  
J 1  37439018.138   196743360.243          44.847          47.000  
R14  20634003.370   109990936.628       -2994.184          38.000  
R24  21692520.771   115999660.905       -1531.827          49.000  
R17  20568082.739   110064010.436         597.151          51.000  
R 8  24301270.819   130132218.663       -1899.004          49.000  
R 1  22088540.841   118075932.981         867.786          48.000  
R18  22957009.045   122546070.2582       2291.840          40.000  
R16  23362876.545   124800285.957        3763.460          43.000  
R13  24639648.448   131574331.9813      -4124.741          26.000  
> 2016  5 20 10 25  3.0000000  0 20                     
G 1  21566784.482   113334221.647       -2141.925          50.000  
G 3  21600810.766   113513022.319        1739.700          44.000  
G 8  24777940.552   130208955.8203      -1886.183          42.000  
G11  22388585.839   117652813.2152      -2324.414          49.000  
G17  22379389.644   117604474.195        1869.769          49.000  
G22  22157883.124   116440456.033        -128.016          50.000  
R 2  22406961.529                        3760.543          43.000  
G28  20756980.377   109078674.913        1750.043          48.000  
G19  23834737.071   125252376.714        2661.713          42.000  
R15  20197817.152   107931004.142         237.453          48.000  
G30  22896783.138   120323386.852       -2460.192          39.000  
J 1  37439009.430   196743315.359          46.056          43.000  
R14  20634565.337   109993932.271       -2996.279          40.000  
R24  21692807.461   116001192.141       -1530.996          48.000  
R17  20567971.197   110063412.843         597.730          51.000  
R 8  24301625.443   130134116.552       -1897.887          49.000  
R 1  22088378.048   118075063.622         869.346          51.000  
R18  22956580.206   122543778.5583       2291.508          41.000  
R16  23362172.621   124796522.940        3763.629          43.000  
R13  24640421.684   131578458.0472      -4127.625          27.000  
> 2016  5 20 10 25  4.0000000  0 20                     
G 1  21567192.015   113336363.104       -2141.796          51.000  
G 3  21600479.893   113511282.721        1739.091          50.000  
G 8  24778298.980   130210839.7842      -1887.466          43.000  
G11  22389028.935   117655137.3592      -2324.841          49.000  
G17  22379033.834   117602603.603        1870.617          48.000  
G22  22157906.856   116440583.475        -127.657          51.000  
R 2  22406257.046   119564080.7232       3757.265          47.000  
G28  20756647.235   109076924.948        1749.548          48.000  
G19  23834230.508   125249714.610        2662.842          42.000  
R15  20197772.688   107930767.068         236.227          47.000  
G30  22897251.258   120325847.203       -2460.713          39.000  
J 1  37439000.879   196743270.608          44.387          46.000  
R14  20635127.565   109996929.033       -2997.146          39.000  
R24  21693093.540   116002722.479       -1530.720          48.000  
R17  20567859.464   110062814.875         597.847          51.000  
R 8  24301979.735   130136014.153       -1897.933          47.000  
R 1  22088215.290   118074194.427         869.037          50.000  
R18  22956154.316   122541504.5972       2290.469          39.000  
R16  23361468.138   124792759.674        3763.698          40.000  
R13  24641192.513   131582576.5733      -4125.347          28.000  
> 2016  5 20 10 25  5.0000000  0 20                     
G 1  21567599.425   113338505.445       -2142.959          51.000  
G 3  21600148.880   113509543.854        1738.744          48.000  
G 8  24778657.652   130212724.3363      -1887.530          42.000  
G11  22389472.223   117657462.3252      -2326.090          49.000  
G17  22378677.797   117600733.089        1870.438          48.000  
G22  22157931.514   116440712.057        -129.257          49.000  
R 2  22405550.487   119560322.6922       3757.461          47.000  
G28  20756314.511   109075175.520        1749.634          48.000  
G19  23833724.295   125247052.347        2663.324          44.000  
R15  20197728.505   107930530.690         236.456          47.000  
G30  22897719.377   120328307.093       -2458.127          39.000  
J 1  37438992.486   196743225.922          45.207          47.000  
R14  20635689.742   109999925.833       -2996.325          39.000  
R24  21693379.880   116004253.574       -1532.195          48.000  
R17  20567747.922   110062217.298         596.847          50.000  
R 8  24302334.166   130137913.174       -1900.399          45.000  
R 1  22088053.439   118073326.801         866.589          52.000  
R18  22955724.482   122539213.3632       2290.304          38.000  
R16  23360763.865   124788997.421        3759.964          42.000  
R13  24641965.278   131586703.6303      -4126.539          27.000  
> 2016  5 20 10 25  6.0000000  0 20                     
G 1  21568007.603   113340649.258       -2144.420          51.000  
G 3  21599817.832   113507805.569        1737.908          49.000  
G 8  24779015.922   130214612.1232      -1892.257          39.000  
G11  22389913.836   117659788.7852      -2326.784          48.000  
G17  22378321.761   117598862.859        1869.880          48.000  
G22  22157956.555   116440842.126        -130.795          50.000  
R 2  22404847.662   119556564.4092       3757.555          49.000  
G28  20755981.544   109073426.751        1748.322          48.000  
G19  23833217.366   125244389.897        2662.268          42.000  
R15  20197684.129   107930294.882         235.503          48.000  
G30  22898187.340   120330765.533       -2458.096          39.000  
J 1  37438983.848   196743180.988          44.990          47.000  
R14  20636251.883   110002921.714       -2995.648          39.000  
R24  21693666.483   116005786.251       -1532.784          48.000  
R17  20567636.380   110061620.496         596.612          51.000  
R 8  24302689.208   130139814.700       -1903.083          47.000  
R 1  22087891.588   118072461.057         864.511          51.000  
R18  22955295.818   122536921.5152       2292.825          42.000  
R16  23360060.045   124785236.463        3759.780          41.000  
R13  24642733.315                       -4124.919          27.000  
> 2016  5 20 10 25  7.0000000  0 20                     
G 1  21568415.816   113342793.618       -2144.709          51.000  
G 3  21599487.220   113506067.521        1737.811          49.000  
G 8  24779375.780                       -1877.552          32.000  
G11  22390357.193   117662115.7742      -2327.180          49.000  
G17  22377966.300   117596992.565        1869.603          48.000  
G22  22157980.723   116440972.866        -131.728          49.000  
R 2  22404144.436   119552807.4693       3759.660          48.000  
G28  20755648.751   109071678.263        1748.492          48.000  
G19  23832710.734   125241727.046        2663.080          42.000  
R15  20197640.329   107930059.615         234.771          46.000  
G30  22898655.058   120333223.269       -2457.358          39.000  
J 1  37438975.140   196743135.718          45.122          47.000  
R14  20636814.042   110005917.353       -2995.471          39.000  
R24  21693953.225   116007319.364       -1532.815          49.000  
R17  20567525.152   110061023.883         596.661          52.000  
R 8  24303044.564   130141717.316       -1902.822          45.000  
R 1  22087730.034   118071596.387         863.821          51.000  
R18  22954867.275   122534634.9553       2291.857          41.000  
R16  23359356.400   124781476.144        3758.458          43.000  
R13  24643502.363   131594911.3942      -4123.459          27.000  
> 2016  5 20 10 25  8.0000000  0 19                     
G 1  21568823.872   113344938.706       -2145.188          51.000  
G 3  21599156.451   113504330.184        1737.319          48.000  
G 8  24779736.476   130218393.5873      -1887.503          41.000  
G11  22390800.237   117664443.4532      -2328.307          50.000  
G17  22377609.984   117595122.411        1870.028          49.000  
G22  22158006.549   116441104.582        -132.398          50.000  
R 2  22403439.011   119549049.2142       3757.206          46.000  
G28  20755316.167   109069930.394        1747.809          48.000  
G19  23832204.050   125239064.247        2663.062          42.000  
R15  20197596.825   107929825.223         234.056          48.000  
G30  22899122.986   120335680.822       -2457.189          39.000  
J 1  37438966.345   196743090.588          44.889          46.000  
R14  20637376.253   110008913.246       -2995.743          39.000  
R24  21694240.036   116008853.071       -1534.041          48.000  
R17  20567413.942   110060427.647         595.850          51.000  
R 8  24303399.903   130143621.187       -1904.613          49.000  
R 1  22087568.428   118070732.992         862.536          52.000  
R18  22954437.860   122532342.6582       2292.916          40.000  
R16  23358652.511   124777716.702        3759.090          40.000  
> 2016  5 20 10 25  9.0000000  0 19                     
G 1  21569232.154   113347084.255       -2145.822          51.000  
G 3  21598826.031   113502593.433        1736.583          48.000  
G 8  24780093.909   130220282.3272      -1889.549          42.000  
G11  22391242.914   117666771.4812      -2327.742          50.000  
G17  22377254.087   117593252.155        1869.816          48.000  
G22  22158031.678   116441237.026        -132.602          51.000  
R 2  22402733.376   119545291.1952       3759.182          46.000  
G28  20754983.950   109068182.823        1747.375          48.000  
G19  23831697.278   125236401.143        2663.586          42.000  
R15  20197552.851   107929591.456         233.292          47.000  
G30  22899590.809   120338138.061       -2457.615          39.000  
J 1  37438957.917   196743045.366          45.231          47.000  
R14  20637938.290   110011909.244       -2995.976          39.000  
R24  21694526.883   116010387.101       -1534.243          48.000  
R17  20567302.139   110059831.471         596.271          50.000  
R 8  24303755.643   130145526.083       -1906.055          49.000  
R 1  22087406.821   118069870.694         861.518          52.000  
R18  22954007.904   122530050.1712       2293.496          41.000  
R16  23357948.813   124773957.816        3757.193          41.000  
> 2016  5 20 10 25 10.0000000  0 19                     
G 1  21569640.716   113349230.988       -2147.395          51.000  
G 3  21598495.489   113500857.374        1735.938          48.000  
G 8  24780450.784   130222172.1342      -1898.313          32.000  
G11  22391686.342   117669100.7762      -2330.384          49.000  
G17  22376898.277   117591382.201        1869.462          48.000  
G22  22158056.736   116441370.820        -134.730          50.000  
R 2  22402029.749   119541533.4492       3758.646          48.000  
G28  20754651.331   109066435.920        1746.704          48.000  
G19  23831190.157   125233737.990        2663.214          41.000  
R15  20197508.998   107929358.468         232.759          47.000  
G30  22900057.654   120340594.544       -2455.970          39.000  
J 1  37438949.471   196743000.176          45.206          47.000  
R14  20638500.361   110014905.071       -2995.735          39.000  
R24  21694813.974   116011922.264       -1535.560          49.000  
R17  20567190.754   110059235.960         595.011          50.000  
R 8  24304111.697   130147432.978       -1907.799          47.000  
R 1  22087245.808   118069010.110         859.467          51.000  
R18  22953578.071                        2290.750          35.000  
R16  23357245.884   124770200.098        3756.271          40.000  
> 2016  5 20 10 25 11.0000000  0 20                     
G 1  21570049.470   113351379.082       -2148.358          51.000  
G 3  21598165.383   113499122.140        1735.047          49.000  
G 8  24780816.243   130224067.8683      -1890.779          45.000  
G11  22392129.943   117671431.3592      -2331.416          48.000  
G17  22376542.589   117589512.616        1869.182          47.000  
G22  22158082.912   116441506.067        -135.870          49.000  
R 2  22401325.755   119537775.5092       3759.848          46.000  
G28  20754319.114   109064689.826        1745.746          48.000  
G19  23830683.734   125231074.835        2663.049          42.000  
R15  20197465.460   107929126.339         231.444          47.000  
G30  22900525.146   120343050.275       -2455.030          39.000  
J 1  37438940.903   196742955.074          45.448          46.000  
R14  20639062.328   110017900.652       -2995.102          39.000  
R24  21695101.397   116013458.778       -1536.204          49.000  
R17  20567080.119   110058641.181         594.644          52.000  
R 8  24304468.205   130149342.052       -1909.592          47.000  
R 1  22087084.899   118068151.397         858.474          52.000  
R18  22953148.621   122525460.2373       2292.899          42.000  
R16  23356542.343   124766443.892        3754.219          41.000  
R13  24646593.111                       -4118.112          24.000  
> 2016  5 20 10 25 12.0000000  0 19                     
G 1  21570458.486   113353528.611       -2150.459          51.000  
G 3  21597835.539   113497387.741        1734.214          49.000  
G 8  24781175.945   130225959.0852      -1889.378          39.000  
G11  22392573.406   117673763.3972      -2333.239          48.000  
G17  22376186.919   117587643.496        1868.954          49.000  
G22  22158109.279   116441642.791        -137.592          49.000  
R 2  22400621.743   119534018.2092       3757.522          49.000  
G28  20753987.193   109062944.636        1744.647          48.000  
G19  23830177.242   125228411.707        2662.659          40.000  
R15  20197422.358   107928895.107         230.518          47.000  
G30  22900992.131   120345505.341       -2454.539          39.000  
J 1  37438932.248   196742910.124          44.887          47.000  
R14  20639624.225   110020896.139       -2995.514          40.000  
R24  21695388.662   116014996.734       -1538.869          47.000  
R17  20566968.979   110058047.280         593.529          51.000  
R 8  24304825.324   130151253.377       -1912.772          47.000  
R 1  22086924.724   118067294.637         856.018          51.000  
R18  22952719.764   122523171.2292       2292.651          38.000  
R16  23355836.831   124762688.932        3753.716          37.000  
> 2016  5 20 10 25 13.0000000  0 19                     
G 1  21570867.781   113355679.268       -2151.285          50.000  
G 3  21597505.643   113495653.986        1733.380          49.000  
G 8  24781535.576   130227851.3462      -1892.019          43.000  
G11  22393017.671   117676096.0331      -2333.827          48.000  
G17  22375831.301   117585774.703        1868.797          50.000  
G22  22158135.035   116441780.797        -138.553          50.000  
R 2  22399917.906   119530260.9272       3756.844          47.000  
G28  20753655.081   109061200.088        1744.250          48.000  
G19  23829670.452   125225748.570        2662.921          40.000  
R15  20197379.500   107928664.676         230.069          48.000  
G30  22901459.186   120347959.655       -2454.090          39.000  
J 1  37438923.767   196742865.125          44.871          47.000  
R14  20640186.174   110023891.383       -2995.178          40.000  
R24  21695676.381   116016535.784       -1539.672          48.000  
R17  20566858.240   110057454.074         592.603          51.000  
R 8  24305182.548   130153166.634       -1914.756          44.000  
R 1  22086764.950   118066439.604         854.169          50.000  
R18  22952286.807   122520878.1872       2293.711          37.000  
R16  23355139.241   124758935.148        3753.920          42.000  
> 2016  5 20 10 25 14.0000000  0 20                     
G 1  21571277.250   113357830.748       -2151.914          51.000  
G 3  21597175.712   113493920.704        1732.943          49.000  
G 8  24781894.754   130229743.6252      -1891.981          39.000  
G11  22393461.779   117678429.920       -2334.098          48.000  
G17  22375475.159   117583906.201        1868.262          47.000  
G22  22158161.979   116441919.621        -138.375          49.000  
R 2  22399214.069   119526503.858        3756.137          50.000  
G28  20753323.282   109059456.142        1743.683          48.000  
G19  23829163.227   125223085.609        2663.068          42.000  
R15  20197336.485   107928435.077         229.410          47.000  
G30  22901926.433   120350413.435       -2453.443          39.000  
J 1  37438915.478   196742819.918          45.010          47.000  
R14  20640747.897   110026886.552       -2995.322          40.000  
R24  21695964.310   116018075.516       -1539.740          48.000  
R17  20566747.466   110056861.422         592.548          51.000  
R 8  24305539.945   130155081.334       -1915.573          46.000  
R 1  22086605.385   118065585.778         853.048          49.000  
R18  22951858.247   122518585.2012       2292.433          39.000  
R16  23354433.083   124755182.585        3752.596          43.000  
R13  24648902.804                       -4115.752          29.000  
> 2016  5 20 10 25 15.0000000  0 20                     
G 1  21571687.051   113359982.995       -2152.340          51.000  
G 3  21596846.304   113492187.795        1732.734          49.000  
G 8  24782254.752   130231636.1932      -1891.572          39.000  
G11  22393905.922   117680764.415       -2335.526          48.000  
G17  22375119.838   117582038.232        1868.369          48.000  
G22  22158188.276   116442059.294        -140.522          49.000  
R 2  22398509.900   119522745.962        3757.022          48.000  
G28  20752991.746   109057712.968        1742.786          48.000  
G19  23828656.857   125220422.876        2663.519          42.000  
R15  20197293.575   107928206.680         227.729          46.000  
G30  22902393.366   120352867.075       -2453.652          39.000  
J 1  37438906.526   196742774.588          45.277          46.000  
R14  20641309.794   110029881.954       -2995.709          40.000  
R24  21696252.029   116019615.932       -1540.857          49.000  
R17  20566636.500   110056269.505         592.188          51.000  
R 8  24305897.727   130156997.431       -1916.295          46.000  
R 1  22086445.995   118064733.051         851.547          51.000  
R18  22951428.937                        2290.097          38.000  
R16  23353731.881   124751431.313        3751.688          38.000  
R13  24649674.785                       -4111.639          30.000  
> 2016  5 20 10 25 16.0000000  0 20                     
G 1  21572096.503   113362136.002       -2153.799          51.000  
G 3  21596516.599   113490455.706        1732.035          49.000  
G 8  24782615.431   130233529.3962      -1892.893          38.000  
G11  22394350.239   117683099.602       -2335.452          49.000  
G17  22374764.272   117580170.301        1867.978          48.000  
G22  22158214.277   116442199.964        -141.409          49.000  
R 2  22397805.679   119518988.628        3756.829          48.000  
G28  20752659.895   109055970.341        1742.401          48.000  
G19  23828149.998   125217760.149        2661.865          36.000  
R15  20197251.067   107927979.025         226.428          47.000  
G30  22902860.089   120355320.378       -2453.288          38.000  
J 1  37438897.749   196742729.453          45.008          47.000  
R14  20641871.743   110032877.534       -2995.732          40.000  
R24  21696540.342   116021156.930       -1541.365          49.000  
R17  20566525.813   110055677.868         590.671          50.000  
R 8  24306255.806   130158914.755       -1918.070          47.000  
R 1  22086286.377   118063881.689         850.130          51.000  
R18  22951002.523   122514004.0533       2293.374          44.000  
R16  23353027.468   124747680.768        3749.577          43.000  
R13  24650448.039                       -4117.153          29.000  
> 2016  5 20 10 25 17.0000000  0 20                     
G 1  21572506.286   113364290.406       -2154.889          51.000  
G 3  21596187.331   113488724.696        1730.694          49.000  
G 8  24782976.249   130235423.8102      -1896.117          48.000  
G11  22394794.679   117685436.296       -2337.022          49.000  
G17  22374408.532   117578302.775        1867.175          48.000  
G22  22158241.639   116442342.281        -142.766          49.000  
R 2  22397101.825   119515232.070        3755.946          50.000  
G28  20752328.690   109054228.563        1741.406          48.000  
G19  23827642.929   125215097.293        2662.750          41.000  
R15  20197208.505   107927752.229         226.075          46.000  
G30  22903326.778   120357773.174       -2452.349          38.000  
J 1  37438889.041   196742684.654          44.777          46.000  
R14  20642433.902   110035873.182       -2995.626          40.000  
R24  21696829.108   116022699.352       -1543.014          49.000  
R17  20566415.511   110055086.949         590.537          51.000  
R 8  24306614.477   130160834.289       -1920.280          45.000  
R 1  22086127.528   118063032.392         848.612          51.000  
R18  22950571.695   122511704.1063       2293.285          38.000  
R16  23352327.260   124743931.348        3749.200          41.000  
R13  24651218.640   131636115.8223      -4114.293          28.000  
> 2016  5 20 10 25 18.0000000  0 20                     
G 1  21572916.105   113366445.805       -2156.021          50.000  
G 3  21595857.958   113486994.351        1729.967          49.000  
G 8  24783337.189   130237318.8732      -1896.308          42.000  
G11  22395239.607   117687773.952       -2338.494          49.000  
G17  22374053.717   117576435.363        1867.054          48.000  
G22  22158269.838   116442485.740        -143.848          50.000  
R 2  22396397.988   119511475.517        3756.027          49.000  
G28  20751997.258   109052487.360        1740.790          48.000  
G19  23827136.088   125212434.435        2661.853          41.000  
R15  20197166.206   107927526.209         225.273          46.000  
G30  22903793.432   120360225.415       -2452.491          38.000  
J 1  37438881.206   196742639.865          44.692          47.000  
R14  20642995.869   110038868.726       -2995.906          40.000  
R24  21697117.752   116024242.654       -1543.791          49.000  
R17  20566304.702   110054496.535         590.070          51.000  
R 8  24306973.725   130162755.537       -1922.413          46.000  
R 1  22085968.609   118062184.641         846.897          51.000  
R18  22950141.634   122509408.3012       2294.760          40.000  
R16  23351628.728   124740183.000        3748.465          42.000  
R13  24651986.607   131640216.8302      -4112.990          27.000  
> 2016  5 20 10 25 19.0000000  0 20                     
G 1  21573326.639   113368601.635       -2155.959          51.000  
G 3  21595528.586   113485264.599        1729.429          49.000  
G 8  24783697.850   130239213.6361      -1894.990          46.000  
G11  22395684.937   117690111.909       -2338.374          49.000  
G17  22373698.099   117574568.058        1867.109          48.000  
G22  22158297.357   116442629.946        -144.661          50.000  
R 2  22395693.767   119507719.298        3756.728          48.000  
G28  20751665.808   109050746.630        1740.680          48.000  
G19  23826629.543   125209771.493        2663.190          40.000  
R15  20197124.238   107927301.005         224.754          47.000  
G30  22904260.103   120362677.660       -2452.344          39.000  
J 1  37438872.620   196742595.113          44.827          47.000  
R14  20643557.835   110041864.662       -2996.027          40.000  
R24  21697406.309   116025786.256       -1543.525          49.000  
R17  20566194.416   110053906.400         590.291          51.000  
R 8  24307332.903   130164677.677       -1922.868          46.000  
R 1  22085810.423   118061337.885         846.750          51.000  
R18  22949712.254   122507115.1812       2290.913          36.000  
R16  23350926.985   124736435.334        3747.052          40.000  
R13  24652757.208   131644331.2893      -4114.495          33.000  
> 2016  5 20 10 25 20.0000000  0 20                     
G 1  21573737.190   113370757.485       -2155.537          51.000  
G 3  21595199.649   113483535.288        1729.238          49.000  
G 8  24784058.511   130241108.686       -1893.097          46.000  
G11  22396129.481   117692449.782       -2337.326          49.000  
G17  22373343.057   117572700.783        1867.696          48.000  
G22  22158324.405   116442774.484        -144.275          50.000  
R 2  22394990.017   119503963.318        3755.604          49.000  
G28  20751334.970   109049006.306        1740.570          48.000  
G19  23826122.806   125207108.716        2662.286          42.000  
R15  20197082.672   107927076.805         223.921          47.000  
G30  22904726.774   120365130.340       -2453.263          39.000  
J 1  37438864.209   196742550.439          44.469          47.000  
R14  20644120.012   110044861.347       -2997.020          40.000  
R24  21697695.162   116027329.576       -1542.683          49.000  
R17  20566084.096   110053316.398         590.191          51.000  
R 8  24307691.749   130166600.104       -1921.918          44.000  
R 1  22085651.922   118060491.656         845.852          51.000  
R18  22949284.881   122504835.2223       2292.458          42.000  
R16  23350224.719   124732688.052        3747.717          41.000  
R13  24653527.531   131648444.9472      -4113.226          32.000  
> 2016  5 20 10 25 21.0000000  0 20                     
G 1  21574147.305   113372912.499       -2154.467          51.000  
G 3  21594870.800   113481806.639        1728.137          49.000  
G 8  24784418.666   130243003.164       -1894.287          43.000  
G11  22396574.444   117694786.499       -2335.931          49.000  
G17  22372987.753   117570833.424        1867.179          48.000  
G22  22158351.785   116442918.834        -144.267          50.000  
R 2  22394286.005   119500208.023        3754.996          48.000  
G28  20751003.922   109047266.286        1739.606          49.000  
G19  23825616.470   125204446.413        2661.365          41.000  
R15  20197040.861   107926854.016         221.952          46.000  
G30  22905193.829   120367584.852       -2455.779          39.000  
J 1  37438855.257   196742506.182          43.896          46.000  
R14  20644682.485   110047860.021       -3000.177          40.000  
R24  21697983.544   116028871.581       -1541.344          49.000  
R17  20565973.671   110052726.058         590.559          51.000  
R 8  24308050.421   130168521.546       -1921.109          47.000  
R 1  22085493.457   118059645.129         846.726          52.000  
R18  22948852.901   122502543.1012       2290.876          39.000  
R16  23349522.993   124728940.440        3748.427          42.000  
R13  24654299.476   131652560.2352      -4116.000          34.000  
> 2016  5 20 10 25 22.0000000  0 20                     
G 1  21574557.385   113375067.205       -2154.797          50.000  
G 3  21594542.055   113480078.942        1727.661          49.000  
G 8  24784779.432   130244897.551       -1894.313          44.000  
G11  22397018.674   117697122.732       -2336.170          49.000  
G17  22372632.815   117568966.006        1868.020          49.000  
G22  22158379.600   116443063.537        -144.936          51.000  
R 2  22393582.151   119496453.799        3754.455          49.000  
G28  20750672.612   109045526.722        1739.886          48.000  
G19  23825110.431   125201784.341        2662.878          42.000  
R15  20196999.382   107926632.495         221.467          47.000  
G30  22905661.181   120370040.991       -2455.528          39.000  
J 1  37438846.864   196742462.641          43.993          47.000  
R14  20645245.359   110050860.513       -3000.322          40.000  
R24  21698271.560   116030412.771       -1540.291          49.000  
R17  20565863.752   110052135.586         590.683          51.000  
R 8  24308409.040   130170442.531       -1921.079          44.000  
R 1  22085335.253   118058799.001         845.910          50.000  
R18  22948420.414   122500251.6922       2292.329          39.000  
R16  23348821.075   124725192.656        3747.929          40.000  
R13  24655070.706   131656676.6542      -4113.749          24.000  
> 2016  5 20 10 25 23.0000000  0 20                     
G 1  21574967.343   113377222.565       -2155.498          50.000  
G 3  21594213.101   113478352.293        1726.079          49.000  
G 8  24785139.901   130246792.668       -1895.662          45.000  
G11  22397463.219   117699459.655       -2337.028          49.000  
G17  22372277.215   117567098.593        1867.390          48.000  
G22  22158407.172   116443209.350        -146.411          50.000  
R 2  22392879.012   119492700.334        3753.256          47.000  
G28  20750341.703   109043787.722        1739.020          48.000  
G19  23824603.660   125199122.192        2663.354          41.000  
R15  20196957.938   107926411.849         220.388          47.000  
G30  22906128.498   120372497.297       -2456.591          38.000  
J 1  37438838.592   196742419.555          42.809          47.000  
R14  20645808.111   110053861.614       -3001.483          40.000  
R24  21698559.925   116031954.526       -1541.765          49.000  
R17  20565753.467   110051545.338         590.420          50.000  
R 8  24308767.590   130172364.736       -1922.065          44.000  
R 1  22085177.259   118057954.171         845.120          51.000  
R18  22947995.554   122497960.1972       2291.356          40.000  
R16  23348119.263   124721445.437        3748.554          41.000  
R13  24655842.407   131660806.1923      -4116.221          25.000  
> 2016  5 20 10 25 24.0000000  0 19                     
G 1  21575377.406   113379378.173       -2155.649          50.000  
G 3  21593884.758   113476626.524        1725.980          49.000  
G 8  24785500.772   130248688.089       -1894.680          42.000  
G11  22397908.112   117701796.650       -2336.031          50.000  
G17  22371921.579   117565231.025        1867.258          48.000  
G22  22158434.987   116443355.876        -145.762          51.000  
R 2  22392175.768   119488947.646        3753.087          49.000  
G28  20750010.777   109042049.118        1738.843          48.000  
G19  23824096.975   125196459.936        2661.792          43.000  
R15  20196916.790   107926192.045         219.558          47.000  
G30  22906596.059   120374954.089       -2457.046          38.000  
J 1  37438830.600   196742376.841          43.256          47.000  
R14  20646371.491   110056863.575       -3002.221          39.000  
R24  21698848.342   116033496.239       -1541.052          49.000  
R17  20565642.989   110050955.026         590.715          51.000  
R 8  24309126.384   130174287.318       -1921.888          43.000  
R 1  22085019.160   118057110.381         843.887          50.000  
R18  22947566.331   122495668.6912       2291.417          39.000  
R16  23347417.834   124717698.444        3747.851          45.000  
> 2016  5 20 10 25 25.0000000  0 20                     
G 1  21575787.765   113381533.991       -2156.276          51.000  
G 3  21593556.519   113474901.302        1724.705          48.000  
G 8  24785861.450   130250583.299       -1894.836          41.000  
G11  22398353.162   117704133.762       -2337.397          49.000  
G17  22371566.520   117563363.815        1867.122          48.000  
G22  22158462.873   116443502.933        -148.005          49.000  
R 2  22391472.245   119485195.140        3752.346          49.000  
G28  20749680.288   109040311.179        1737.390          48.000  
G19  23823590.413   125193798.072        2661.676          40.000  
R15  20196875.922   107925973.530         217.893          48.000  
G30  22907063.742   120377411.456       -2457.698          38.000  
J 1  37438822.713   196742334.284          42.520          47.000  
R14  20646934.854   110059866.414       -3003.029          39.000  
R24  21699136.655   116035037.874       -1542.349          49.000  
R17  20565532.826   110050365.199         589.476          51.000  
R 8  24309485.248   130176210.477       -1924.453          43.000  
R 1  22084861.585   118056267.187         841.780          49.000  
R18  22947137.911   122493377.7972       2290.957          40.000  
R16  23346712.548   124713937.1343       3745.437          39.000  
R13  24657387.955   131669059.0302      -4118.973          27.000  
> 2016  5 20 10 25 26.0000000  0 20                     
G 1  21576198.246   113383690.894       -2157.424          49.000  
G 3  21593228.228   113473176.715        1723.736          49.000  
G 8  24786222.583   130252478.4963      -1897.318          37.000  
G11  22398797.480   117706471.805       -2338.008          51.000  
G17  22371211.408   117561497.019        1866.954          48.000  
G22  22158491.334   116443651.070        -148.700          49.000  
R 2  22390769.088   119481442.633        3753.399          47.000  
G28  20749350.042   109038574.016        1736.890          49.000  
G19  23823083.711   125191136.453        2660.992          42.000  
R15  20196835.088   107925755.963         217.563          48.000  
G30  22907531.356   120379868.357       -2456.344          39.000  
J 1  37438814.406   196742291.731          42.588          46.000  
R14  20647498.095   110062869.280       -3002.663          40.000  
R24  21699425.002   116036580.480       -1543.880          46.000  
R17  20565422.907   110049776.105         589.038          51.000  
R 8  24309844.670   130178135.298       -1924.771          42.000  
R 1  22084704.550   118055425.537         840.274          51.000  
R18  22946708.897   122491084.4223       2293.752          41.000  
R16  23346012.934   124710192.2202       3743.977          43.000  
R13  24658153.043   131673145.0942      -4115.744          28.000  
> 2016  5 20 10 25 27.0000000  0 19                     
G 1  21576609.025   113385848.685       -2157.417          50.000  
G 3  21592900.181   113471452.914        1724.299          48.000  
G 8  24786590.329                       -1893.549          25.000  
G11  22399243.054   117708810.846       -2339.609          51.000  
G17  22370856.209   117559630.015        1866.895          48.000  
G22  22158519.952   116443800.519        -150.558          49.000  
R 2  22390066.159   119477690.860        3752.543          45.000  
G28  20749019.343   109036837.195        1736.475          48.000  
G19  23822577.288   125188474.141        2663.074          41.000  
R15  20196794.412   107925538.789         217.221          48.000  
G30  22907998.952   120382324.545       -2456.268          39.000  
J 1  37438806.641   196742249.314          42.129          46.000  
R14  20648061.649   110065871.963       -3002.555          40.000  
R24  21699713.978   116038123.858       -1542.856          50.000  
R17  20565312.936   110049187.106         588.834          51.000  
R 8  24310204.773   130180061.762       -1927.379          46.000  
R 1  22084547.324   118054585.499         839.539          48.000  
R18  22946279.831                        2295.263          42.000  
R16  23345314.454   124706447.6752       3743.691          43.000  
> 2016  5 20 10 25 28.0000000  0 19                     
G 1  21577019.524   113388006.739       -2157.393          51.000  
G 3  21592572.274   113469730.092        1723.271          48.000  
G 8  24786944.777   130256273.3332      -1897.751          42.000  
G11  22399687.912   117711150.142       -2338.906          49.000  
G17  22370500.486   117557762.840        1866.978          48.000  
G22  22158548.501   116443950.705        -150.203          50.000  
R 2  22389363.054   119473939.358        3751.347          50.000  
G28  20748688.941   109035100.787        1736.365          48.000  
G19  23822070.673   125185811.702        2663.495          39.000  
R15  20196753.910   107925322.470         215.109          47.000  
G30  22908466.565   120384781.157       -2457.972          39.000  
J 1  37438798.788   196742207.288          40.030          45.000  
R14  20648625.082   110068875.451       -3004.435          39.000  
R24  21700002.465   116039667.394       -1542.708          49.000  
R17  20565203.017   110048598.099         589.066          52.000  
R 8  24310564.631   130181988.662       -1926.284          45.000  
R 1  22084390.167   118053746.563         838.843          50.000  
R18  22945850.608   122486502.8412       2290.268          40.000  
R16  23344614.439   124702703.4592       3744.230          43.000  
> 2016  5 20 10 25 29.0000000  0 19                     
G 1  21577429.708   113390163.807       -2157.020          51.000  
G 3  21592244.455   113468007.682        1722.673          49.000  
G 8  24787307.690   130258169.5722      -1895.499          43.000  
G11  22400133.015   117713488.002       -2337.113          50.000  
G17  22370145.234   117555895.803        1866.731          48.000  
G22  22158576.788   116444100.416        -149.781          50.000  
R 2  22388660.386   119470188.582        3751.457          52.000  
G28  20748358.329   109033364.786        1735.590          48.000  
G19  23821563.587   125183150.055        2663.232          40.000  
R15  20196713.425   107925107.802         214.177          47.000  
G30  22908934.248   120387239.802       -2459.347          37.000  
J 1  37438790.726   196742165.549          41.627          47.000  
R14  20649188.933   110071881.071       -3005.475          35.000  
R24  21700291.109   116041209.288       -1541.234          48.000  
R17  20565092.801   110048008.934         588.776          51.000  
R 8  24310924.419   130183914.405       -1925.762          47.000  
R 1  22084232.958   118052906.954         839.770          50.000  
R18  22945419.535   122484212.5782       2290.575          36.000  
R16  23343909.642   124698959.0582       3743.764          42.000  
> 2016  5 20 10 25 30.0000000  0 19                     
G 1  21577840.504   113392321.467       -2158.118          51.000  
G 3  21591916.844   113466285.329        1722.930          48.000  
G 8  24787667.321   130260070.7573      -1895.300          45.000  
G11  22400578.187   117715826.196       -2338.249          48.000  
G17  22369789.913   117554029.940        1865.339          48.000  
G22  22158605.109   116444250.503        -150.590          50.000  
R 2  22387957.439   119466437.271        3753.392          49.000  
G28  20748028.014   109031629.873        1733.856          48.000  
G19  23821057.339   125180489.776        2659.497          42.000  
R15  20196673.482   107924894.893         212.236          47.000  
G30  22909401.984   120389698.826       -2458.962          38.000  
J 1  37438782.525   196742123.530          42.734          47.000  
R14  20649752.855   110074887.342       -3005.850          40.000  
R24  21700579.456   116042751.560       -1542.665          47.000  
R17  20564983.057   110047421.022         587.172          52.000  
R 8  24311284.575   130185841.283       -1928.701          44.000  
R 1  22084076.098   118052067.953         837.865          48.000  
R18  22944988.672   122481902.0473       2289.403          39.000  
R16  23343211.232   124695216.5732       3740.725          41.000  
> 2016  5 20 10 25 31.0000000  0 19                     
G 1  21578251.369   113394480.658       -2159.205          51.000  
G 3  21591589.007   113464562.448        1723.348          49.000  
G 8  24788026.010   130261966.5612      -1897.091          38.000  
G11  22401023.360   117718165.432       -2339.085          49.000  
G17  22369435.517   117552166.181        1862.928          47.000  
G22  22158634.112   116444401.143        -150.278          50.000  
R 2  22387254.196   119462684.226        3754.159          49.000  
G28  20747698.432   109029896.518        1732.648          48.000  
G19  23820551.073   125177831.407        2657.275          40.000  
R15  20196634.097   107924684.051         210.936          47.000  
G30  22909869.650   120392157.050       -2457.357          40.000  
J 1  37438774.480   196742080.486          43.790          46.000  
R14  20650316.741   110077893.106       -3004.770          39.000  
R24  21700868.100   116044295.342       -1545.195          46.000  
R17  20564873.749   110046835.419         584.299          51.000  
R 8  24311644.764   130187771.161       -1930.839          43.000  
R 1  22083919.447   118051229.914         837.658          49.000  
R18  22944564.579                        2284.180          35.000  
R16  23342511.007   124691477.4902       3736.727          40.000  
> 2016  5 20 10 25 32.0000000  0 19                     
G 1  21578662.374   113396641.760       -2161.907          50.000  
G 3  21591260.768   113462838.311        1724.813          48.000  
G 8  24788389.010   130263863.0543      -1895.735          46.000  
G11  22401468.829   117720506.170       -2341.814          50.000  
G17  22369081.050   117550304.706        1861.232          47.000  
G22  22158662.660   116444552.236        -151.650          50.000  
R 2  22386550.341   119458928.204        3758.796          48.000  
G28  20747368.867   109028164.627        1730.963          47.000  
G19  23820045.750   125175174.919        2655.334          35.000  
R15  20196594.973   107924474.887         208.442          46.000  
G30  22910337.089   120394612.946       -2454.820          40.000  
J 1  37438765.807   196742035.428          45.717          47.000  
R14  20650880.139   110080896.949       -3002.747          40.000  
R24  21701157.024   116045841.091       -1546.586          46.000  
R17  20564764.266   110046252.451         582.510          49.000  
R 8  24312005.478   130189704.437       -1934.804          45.000  
R 1  22083762.797   118050393.022         835.968          51.000  
R18  22944133.873   122477338.7862       2286.465          41.000  
R16  23341814.028   124687742.478        3734.357          41.000  
> 2016  5 20 10 25 33.0000000  0 19                     
G 1  21579074.095   113398804.913       -2164.257          49.000  
G 3  21590932.983   113461115.350        1721.854          49.000  
G 8  24788746.565   130265759.4722      -1898.175          46.000  
G11  22401914.682   117722849.223       -2343.565          50.000  
G17  22368726.601   117548442.921        1863.570          47.000  
G22  22158691.593   116444705.679        -155.496          50.000  
R 2  22385846.644   119455172.774        3753.897          51.000  
G28  20747039.232   109026433.177        1732.031          48.000  
G19  23819540.025   125172517.248        2659.460          37.000  
R15  20196555.867   107924265.573         211.205          45.000  
G30  22910803.882   120397066.646       -2451.852          41.000  
J 1  37438757.030   196741990.505          44.390          46.000  
R14  20651443.327   110083899.488       -3001.059          38.000  
R24  21701446.523   116047389.177       -1548.654          45.000  
R17  20564655.255   110045669.929         583.605          49.000  
R 8  24312367.221   130191641.032       -1938.411          44.000  
R 1  22083606.251   118049559.069         832.094          51.000  
R18  22943703.307   122475051.1622       2289.988          40.000  
R16  23341114.536   124684008.612        3735.069          39.000  
> 2016  5 20 10 25 34.0000000  0 19                     
G 1  21579486.286   113400970.885       -2168.171          51.000  
G 3  21590605.809   113459396.196        1716.322          49.000  
G 8  24789109.390   130267661.5762      -1905.902          43.000  
G11  22402361.268   117725196.391       -2350.717          47.000  
G17  22368371.978   117546577.948        1866.085          47.000  
G22  22158722.096   116444863.884        -161.576          50.000  
R 2  22385143.557   119451421.137        3749.064          50.000  
G28  20746709.702   109024701.031        1732.257          48.000  
G19  23819033.655   125169865.8943       2665.845          41.000  
R15  20196516.447   107924053.634         213.594          46.000  
G30  22911270.379   120399517.147       -2448.919          39.000  
J 1  37438748.985   196741947.647          41.316          47.000  
R14  20652006.289   110086900.169       -2999.774          40.000  
R24  21701736.929   116048940.660       -1553.662          45.000  
R17  20564545.789   110045085.367         586.042          50.000  
R 8  24312729.592   130193581.050       -1941.754          41.000  
R 1  22083451.450   118048731.060         824.578          50.000  
R18  22943275.846   122472758.9773       2296.798          38.000  
R16  23340415.061   124680272.672        3738.070          39.000  
> 2016  5 20 10 25 35.0000000  0 19                     
G 1  21579899.246   113403140.709       -2171.796          51.000  
G 3  21590279.874   113457681.899        1712.235          49.000  
G 8  24789475.757                       -1906.348          40.000  
G11  22402808.604   117727548.927       -2354.961          50.000  
G17  22368016.482   117544708.917        1870.731          48.000  
G22  22158753.576   116445028.374        -167.586          50.000  
R 2  22384441.500   119447674.732        3742.898          47.000  
G28  20746379.806   109022967.985        1733.862          47.000  
G19  23818526.447   125167196.7562       2672.424          43.000  
R15  20196476.033   107923838.147         217.360          48.000  
G30  22911736.247   120401963.395       -2444.636          38.000  
J 1  37438741.447   196741907.587          38.544          46.000  
R14  20652568.447   110089898.299       -2997.825          40.000  
R24  21702027.754   116050496.785       -1558.329          45.000  
R17  20564436.638   110044498.588         587.832          52.000  
R 8  24313092.714   130195525.864       -1946.467          46.000  
R 1  22083298.115   118047910.120         817.743          49.000  
R18  22942845.332   122470459.0772       2302.094          45.000  
R16  23339714.924   124676534.342        3739.342          40.000  
> 2016  5 20 10 25 36.0000000  0 19                     
G 1  21580312.764   113405314.789       -2176.481          51.000  
G 3  21589954.463   113455972.663        1707.958          47.000  
G 8  24789838.704   130271480.8293      -1921.640          42.000  
G11  22403257.598   117729907.458       -2362.090          47.000  
G17  22367659.817   117542835.939        1873.686          49.000  
G22  22158785.824   116445199.674        -174.185          49.000  
R 2  22383740.490   119443933.504        3738.707          41.000  
G28  20746050.084   109021234.113        1734.125          49.000  
G19  23818016.447   125164520.9672       2679.218          42.000  
R15  20196435.042   107923618.965         221.127          49.000  
G30  22912200.964   120404404.997       -2438.018          40.000  
J 1  37438734.380   196741870.294          36.992          45.000  
R14  20653130.327   110092893.474       -2992.769          39.000  
R24  21702319.871   116052058.056       -1563.326          46.000  
R17  20564326.632   110043909.575         589.686          52.000  
R 8  24313457.092   130197476.036       -1952.053          45.000  
R 1  22083146.228   118047097.342         808.977          49.000  
R18  22942411.275   122468151.8462       2310.774          47.000  
R16  23339015.152   124672793.768        3740.767          41.000  
> 2016  5 20 10 25 37.0000000  0 19                     
G 1  21580727.712   113407494.321       -2182.410          50.000  
G 3  21589629.871   113454266.431        1705.901          47.000  
G 8  24790205.787   130273405.0642      -1926.425          41.000  
G11  22403707.657   117732272.677       -2368.075          44.000  
G17  22367302.664   117540961.346        1874.821          49.000  
G22  22158819.782   116445377.033        -180.109          48.000  
R 2  22383039.724   119440194.023        3740.504          44.000  
G28  20745720.205   109019500.437        1733.405          49.000  
G19  23817506.481   125161840.8142       2681.604          45.000  
R15  20196393.336   107923397.201         222.760          50.000  
G30  22912664.285   120406840.113       -2431.344          43.000  
J 1  37438727.452   196741833.794          36.830          44.000  
R14  20653691.299   110095883.886       -2986.996          40.000  
R24  21702612.825   116053625.965       -1571.493          47.000  
R17  20564216.382   110043320.915         587.873          55.000  
R 8  24313822.656   130199433.870       -1961.483          44.000  
R 1  22082995.685   118046292.146         801.741          48.000  
R18  22941977.654   122465839.0562       2315.732          47.000  
R16  23338315.189   124669054.405        3737.398          48.000  
> 2016  5 20 10 25 38.0000000  0 19                     
G 1  21581143.691   113409680.559       -2189.658          48.000  
G 3  21589305.489   113452561.688        1705.001          47.000  
G 8  24790572.154   130275334.3792      -1929.866          35.000  
G11  22404159.007   117734645.318       -2376.170          44.000  
G17  22366946.609   117539087.816        1872.226          51.000  
G22  22158854.456   116445559.983        -185.341          47.000  
R 2  22382339.097   119436453.917        3743.317          37.000  
G28  20745390.675   109017768.579        1730.701          50.000  
G19  23816995.923   125159158.9942       2681.512          48.000  
R15  20196351.839   107923174.527         222.598          52.000  
G30  22913126.052   120409267.866       -2423.825          44.000  
J 1  37438720.228   196741796.593          38.649          45.000  
R14  20654251.102   110098868.487       -2980.570          40.000  
R24  21702907.769   116055201.728       -1578.870          46.000  
R17  20564106.899   110042735.254         583.662          54.000  
R 8  24314189.931   130201401.334       -1971.602          43.000  
R 1  22082846.172   118045494.246         795.107          48.000  
R18  22941543.772   122463523.0512       2316.786          51.000  
R16  23337615.767   124665319.810        3731.365          47.000  
> 2016  5 20 10 25 39.0000000  0 18                     
G 1  21581561.170   113411873.165       -2195.039          47.000  
G 3  21588981.002   113450855.660        1708.237          45.000  
G11  22404611.875   117737024.007       -2380.483          42.000  
G17  22366591.166   117537219.230        1865.900          51.000  
G22  22158890.037   116445746.297        -186.546          44.000  
R 2  22381637.337   119432709.145        3748.500          42.000  
G28  20745061.878   109016040.102        1727.161          49.000  
G19  23816485.557   125156480.0462       2677.002          47.000  
R15  20196310.605   107922953.969         219.388          53.000  
G30  22913587.000   120411689.133       -2418.622          47.000  
J 1  37438712.619   196741756.572          42.791          44.000  
R14  20654810.033   110101847.743       -2976.826          40.000  
R24  21703203.829   116056784.921       -1585.925          44.000  
R17  20563998.795   110042155.682         576.685          53.000  
R 8  24314559.282   130203378.940       -1981.559          36.000  
R 1  22082698.211   118044701.197         792.237          44.000  
R18  22941110.204   122461208.2332       2313.355          51.000  
R16  23336918.579   124661594.126        3721.572          46.000  
> 2016  5 20 10 25 40.0000000  0 19                     
G 1  21581979.120   113414069.842       -2198.451          47.000  
G 3  21588655.957   113449146.930        1709.837          47.000  
G11  22405065.249   117739406.082       -2383.653          42.000  
G17  22366236.473   117535355.503        1861.751          50.000  
G 8  24791321.763                       -1924.119          30.000  
R 2  22380934.268   119428958.657        3752.369          47.000  
G28  20744733.308   109014314.476        1724.139          49.000  
G19  23815977.267   125153805.3092       2674.292          43.000  
R15  20196269.963   107922736.190         216.129          53.000  
G30  22914046.586   120414105.825       -2415.895          47.000  
J 1  37438704.243   196741712.852          44.086          44.000  
R14  20655368.073   110104822.853       -2974.291          42.000  
R24  21703500.832   116058372.695       -1589.924          41.000  
R17  20563891.616   110041581.626         571.646          51.000  
R 8  24314930.710                       -1985.333          29.000  
R 1  22082550.425   118043910.054         790.498          41.000  
R18  22940677.107   122458896.3132       2310.703          47.000  
R16  23336222.489   124657900.5603       3713.734          41.000  
R13  24668909.811                       -4074.445          24.000  
> 2016  5 20 10 25 41.0000000  0 19                     
G 1  21582397.558   113416269.571       -2200.468          47.000  
G 3  21588330.475   113447436.861        1709.973          46.000  
G11  22405518.902   117741790.395       -2384.419          40.000  
G17  22365882.931   117533496.872        1857.771          49.000  
G 8  24791679.580                       -1943.049          29.000  
R 2  22380230.762   119425204.713        3755.587          47.000  
G28  20744405.890   109012592.155        1721.222          49.000  
G19  23815468.156   125151135.3972       2667.633          39.000  
R15  20196230.072   107922522.417         212.258          52.000  
G22  22158960.501   116446122.7713       -187.880          45.000  
J 1  37438695.884   196741667.270          45.704          45.000  
R14  20655926.183   110107797.229       -2974.454          43.000  
R24  21703798.463   116059963.617       -1590.979          40.000  
R17  20563785.553   110041012.765         567.622          51.000  
R 8  24315303.098                       -1967.901          21.000  
R 1  22082402.744   118043120.314         789.959          42.000  
R18  22940244.167   122456588.8012       2306.122          44.000  
R16  23335528.372                        3718.950          32.000  
R13  24669672.176   131734656.3753      -4069.710          25.000  
> 2016  5 20 10 25 42.0000000  0 18                     
G 1  21582816.538   113418471.479       -2202.888          47.000  
G 3  21588004.994   113445726.884        1710.993          47.000  
R13  24670439.793                       -4075.893          25.000  
G17  22365529.791   117531640.444        1856.222          48.000  
G 8  24792040.642                       -1930.011          30.000  
R 2  22379527.309   119421449.700        3756.210          45.000  
G28  20744078.419   109010871.642        1720.624          48.000  
G19  23814960.442   125148467.3662       2671.100          35.000  
R15  20196190.687   107922310.702         212.056          52.000  
G22  22158994.092   116446312.0062       -189.643          46.000  
J 1  37438687.212   196741621.189          47.069          46.000  
R14  20656484.014   110110771.207       -2971.599          43.000  
R24  21704096.286   116061556.831       -1594.338          39.000  
R17  20563679.526   110040446.484         565.722          50.000  
R 8  24315679.150                       -2005.486          23.000  
R18  22939812.170   122454269.5263       2305.266          45.000  
R16  23334835.529   124650491.8062       3706.413          37.000  
G30  22914963.805   120418947.5183      -2413.625          49.000  
> 2016  5 20 10 25 43.0000000  0 20                     
G 1  21583235.972   113420675.289       -2204.612          47.000  
G 3  21587679.094   113444016.927        1709.506          45.000  
R13  24671207.010   131742852.2253      -4066.490          35.000  
G11  22406426.366                       -2387.988          43.000  
G17  22365175.988   117529784.195        1855.572          47.000  
G 8  24792405.544                       -1929.489          29.000  
R 2  22378823.507   119417693.545        3756.890          48.000  
G28  20743751.000   109009151.590        1719.397          46.000  
G19  23814452.903   125145793.8433       2669.800          44.000  
R15  20196150.813   107922098.990         210.475          52.000  
G22  22159033.530   116446502.7442       -191.533          46.000  
J 1  37438678.242   196741574.052          46.847          45.000  
R14  20657041.514   110113742.873       -2971.512          44.000  
R24  21704394.964   116063152.195       -1596.487          40.000  
R17  20563574.126   110039881.107         564.998          52.000  
R 8  24316051.346                       -1996.238          26.000  
R 1  22082111.902                         792.422          42.000  
R18  22939380.277   122451962.4662       2307.903          46.000  
R16  23334139.370                        3713.604          30.000  
G30  22915425.782   120421359.4352      -2411.352          49.000  
> 2016  5 20 10 25 44.0000000  0 20                     
G 1  21583655.684   113422880.676       -2206.404          47.000  
G 3  21587354.118   113442308.487        1707.502          47.000  
R13  24671968.171   131746916.8582      -4071.730          37.000  
G11  22406885.760   117748978.5723      -2390.816          42.000  
G17  22364823.337   117527928.904        1854.359          48.000  
G 8  24792779.572                       -1932.495          33.000  
R 2  22378120.001   119413938.524        3754.816          48.000  
G28  20743424.053   109007432.825        1717.432          48.000  
G19  23813945.416   125143126.8823       2666.345          44.000  
R15  20196111.149   107921888.824         208.443          52.000  
G22  22159069.704   116446695.3432       -193.590          46.000  
J 1  37438669.884   196741527.850          45.088          47.000  
R14  20657598.979   110116715.546       -2974.215          43.000  
R24  21704693.729   116064749.006       -1596.811          40.000  
R17  20563468.361   110039316.882         563.727          52.000  
R 8  24316425.932   130213377.1803      -1998.904          28.000  
R 1  22081960.660                         789.503          42.000  
R18  22938948.524   122449658.9783       2305.857          50.000  
R16  23333450.941   124643095.9412       3700.606          40.000  
G30  22915882.925   120423771.8702      -2413.718          50.000  
> 2016  5 20 10 25 45.0000000  0 21                     
G 1  21584075.467   113425086.644       -2205.713          47.000  
G 3  21587029.597   113440601.677        1706.038          47.000  
R13  24672733.398   131750986.9492      -4070.282          39.000  
G11  22407336.290   117751368.6522      -2389.609          42.000  
G17  22364470.232   117526074.498        1853.966          48.000  
G 8  24793147.073                       -1930.762          35.000  
R 2  22377416.618   119410185.297        3751.397          48.000  
G28  20743097.368   109005715.399        1716.937          48.000  
G19  23813438.330   125140460.2702       2668.616          45.000  
R15  20196072.322   107921680.736         207.256          52.000  
G22  22159106.053   116446889.0522       -193.943          46.000  
J 1  37438661.595   196741482.960          44.076          46.000  
R14  20658157.002   110119690.527       -2975.859          44.000  
R24  21704992.355   116066346.068       -1597.068          39.000  
R17  20563363.258   110038753.526         563.232          50.000  
R 8  24316798.966   130215376.9472      -1999.302          30.000  
R 1  22081815.475   118039980.1743        781.290          41.000  
R18  22938516.875   122447353.9962       2304.257          52.000  
R16  23332754.206   124639373.2753       3701.535          35.000  
G30  22916344.675   120426186.3832      -2415.857          48.000  
G 7  24162864.858   126976711.0012      -2966.645          42.000  
> 2016  5 20 10 25 46.0000000  0 21                     
G 1  21584495.144   113427292.357       -2205.468          47.000  
G 3  21586705.180   113438895.919        1706.020          48.000  
R13  24673494.105   131755057.5112      -4062.092          31.000  
G11  22407790.153   117753758.2692      -2389.643          42.000  
G17  22364117.318   117524220.287        1853.597          44.000  
G 8  24793513.039                       -1930.050          32.000  
R 2  22376713.444   119406433.057        3753.146          47.000  
G28  20742770.525   109003998.604        1716.852          47.000  
G19  23812931.628   125137794.1372       2665.216          39.000  
R15  20196033.513   107921474.236         206.092          52.000  
G22  22159142.925   116447083.1132       -194.163          46.000  
J 1  37438652.957   196741438.884          44.057          44.000  
R14  20658715.374   110122667.686       -2978.029          44.000  
R24  21705290.753   116067942.298       -1595.533          39.000  
R17  20563258.208   110038190.271         562.502          51.000  
R 8  24317168.230   130217352.2553      -1998.945          31.000  
R 1  22081671.022   118039198.1842        782.620          43.000  
R18  22938085.209   122445050.0722       2304.156          43.000  
R16  23332061.747   124635674.3962       3701.537          40.000  
G30  22916803.023   120428602.8712      -2417.768          49.000  
G 7  24163429.006   126979680.0942      -2970.345          44.000  
> 2016  5 20 10 25 47.0000000  0 21                     
G 1  21584914.805   113429497.330       -2204.865          47.000  
G 3  21586380.309   113437190.863        1704.772          46.000  
R13  24674254.079   131759124.0903      -4072.126          37.000  
G11  22408247.139   117756146.8762      -2387.984          44.000  
G17  22363763.951   117522365.886        1853.533          48.000  
G 8  24793881.623   130292727.2783      -1931.339          36.000  
R 2  22376010.532   119402681.654        3750.900          49.000  
G28  20742444.014   109002282.164        1715.674          48.000  
G19  23812424.455   125135128.4132       2664.819          39.000  
R15  20195995.593   107921269.112         203.836          52.000  
G22  22159180.705   116447277.0772       -194.116          45.000  
J 1  37438644.476   196741395.307          42.596          46.000  
R14  20659274.165   110125646.689       -2980.057          44.000  
R24  21705588.908   116069537.407       -1595.884          38.000  
R17  20563153.227   110037626.678         563.217          51.000  
R 8  24317539.849   130219350.7342      -1998.464          32.000  
R 1  22081524.318   118038416.1892        782.499          42.000  
R18  22937654.101   122442746.9842       2302.297          48.000  
R16  23331372.620   124631993.0473       3700.814          34.000  
G30  22917263.255   120431021.0782      -2419.466          49.000  
G 7  24163994.916   126982650.6282      -2971.355          45.000  
> 2016  5 20 10 25 48.0000000  0 21                     
G 1  21585334.151   113431701.636       -2203.685          46.000  
G 3  21586055.874   113435486.474        1704.438          47.000  
R13  24675018.992   131763207.7792      -4074.303          33.000  
G11  22408700.705   117758534.6502      -2387.193          42.000  
G17  22363411.300   117520511.514        1855.136          48.000  
G 8  24794246.106   130294641.7263      -1930.135          33.000  
R 2  22375307.689   119398930.850        3751.253          47.000  
G28  20742117.067   109000566.047        1715.948          48.000  
G19  23811916.775   125132463.1192       2665.350          46.000  
R15  20195957.290   107921065.268         203.444          52.000  
G22  22159217.507   116447470.9712       -193.407          46.000  
J 1  37438636.292   196741352.131          43.156          45.000  
R14  20659833.147   110128627.501       -2981.610          44.000  
R24  21705887.114   116071131.250       -1593.378          39.000  
R17  20563047.741   110037062.927         564.062          51.000  
R 8  24317915.553   130221354.5013      -1996.831          35.000  
R 1  22081375.764   118037634.0942        782.440          41.000  
R18  22937222.645   122440444.6312       2301.974          52.000  
R16  23330676.426                        3700.499          26.000  
G30  22917723.504   120433440.9372      -2420.477          49.000  
G 7  24164560.338   126985622.6822      -2972.313          45.000  
> 2016  5 20 10 25 49.0000000  0 21                     
G 1  21585753.549   113433905.662       -2204.277          47.000  
G 3  21585731.423   113433782.420        1703.632          47.000  
R13  24675780.328   131767282.3492      -4075.509          36.000  
G11  22409154.865   117760921.8582      -2387.121          42.000  
G17  22363059.015   117518656.906        1854.471          48.000  
G 8  24794618.197                       -1928.823          28.000  
R 2  22374604.864   119395180.211        3750.455          45.000  
G28  20741790.486   108998850.065        1715.814          48.000  
G19  23811409.498   125129797.7192       2665.533          46.000  
R15  20195919.371   107920862.213         202.609          52.000  
G22  22159254.484   116447665.0062       -194.295          47.000  
J 1  37438627.776   196741308.901          43.180          45.000  
R14  20660392.410   110131609.029       -2981.656          44.000  
R24  21706185.059   116072724.446       -1593.023          39.000  
R17  20562942.341   110036498.977         564.023          51.000  
R 8  24318287.172   130223352.0482      -1997.709          35.000  
R 1  22081229.653   118036852.2712        780.900          41.000  
R18  22936791.537   122438142.4202       2302.275          51.000  
R16  23329979.901   124624553.8122       3702.186          44.000  
G30  22918184.487   120435861.2232      -2420.207          49.000  
G 7  24165124.696   126988594.9212      -2971.910          42.000  
> 2016  5 20 10 25 50.0000000  0 22                     
G 1  21586173.210   113436111.065       -2206.836          46.000  
G 3  21585407.651   113432079.176        1702.635          47.000  
R13  24676543.810   131771355.8192      -4072.404          33.000  
G11  22409608.954   117763310.5282      -2390.319          42.000  
G17  22362705.526   117516802.599        1854.015          48.000  
G 8  24794981.405   130298506.5522      -1931.607          33.000  
R 2  22373901.970   119391429.822        3750.722          47.000  
G28  20741464.202   108997134.810        1714.734          48.000  
G19  23810901.679   125127132.2812       2665.564          45.000  
R15  20195881.434   107920659.844         202.543          52.000  
G22  22159291.688   116447860.5152       -197.072          47.000  
J 1  37438619.627   196741265.704          43.552          45.000  
R14  20660951.619   110134590.176       -2979.411          44.000  
R24  21706483.545   116074319.124       -1596.539          39.000  
R17  20562836.663   110035935.709         562.781          51.000  
R 8  24318660.118   130225351.9152      -2002.456          34.000  
R 1  22081085.305   118036072.3792        778.659          42.000  
R18  22936359.766   122435839.8402       2303.433          51.000  
R16  23329289.413   124620865.6492       3699.403          42.000  
G30  22918645.155   120438280.5892      -2417.870          49.000  
G 6  23645724.217   124259118.7632       3258.107          43.000  
G 7  24165690.432   126991565.8732      -2968.972          44.000  
> 2016  5 20 10 25 51.0000000  0 22                     
G 1  21586593.655   113438319.995       -2210.920          47.000  
G 3  21585083.915   113430377.035        1701.529          47.000  
R13  24677307.379   131775425.7502      -4068.119          36.000  
G11  22410064.178   117765702.9982      -2394.603          42.000  
G17  22362352.525   117514949.005        1853.010          49.000  
G 8  24795350.460   130300440.7342      -1935.349          31.000  
R 2  22373198.935   119387679.306        3750.139          46.000  
G28  20741137.952   108995420.732        1713.239          48.000  
G19  23810394.139   125124466.1362       2666.083          45.000  
R15  20195843.881   107920457.641         201.909          52.000  
G22  22159329.817   116448059.2122       -200.647          47.000  
J 1  37438611.164   196741222.318          42.900          45.000  
R14  20661510.462   110137568.898       -2978.077          44.000  
R24  21706782.503   116075917.812       -1601.190          40.000  
R17  20562731.804   110035374.192         560.268          51.000  
R 8  24319035.351   130227356.9202      -2007.523          34.000  
R 1  22080940.329   118035296.6292        773.945          41.000  
R18  22935928.222   122433535.9212       2304.418          53.000  
R16  23328595.383   124617167.2822       3696.648          43.000  
G30  22919104.724   120440696.5122      -2414.615          48.000  
G 6  23645103.740   124255858.7542       3261.992          41.000  
G 7  24166255.278   126994532.9842      -2966.168          43.000  
> 2016  5 20 10 25 52.0000000  0 22                     
G 1  21587014.642   113440532.280       -2213.927          47.000  
G 3  21584760.178   113428676.030        1700.155          47.000  
R13  24678065.626   131779492.5752      -4066.882          31.000  
G11  22410520.152   117768099.1232      -2397.683          42.000  
G17  22362000.799   117513096.096        1852.452          49.000  
G 8  24795718.764   130302380.8653      -1936.368          32.000  
R 2  22372496.215   119383928.723        3749.434          45.000  
G28  20740812.035   108993707.779        1712.366          48.000  
G19  23809887.106   125121799.3662       2667.413          46.000  
R15  20195805.874   107920255.552         201.914          52.000  
G22  22159368.207   116448260.9912       -203.380          46.000  
J 1  37438602.980   196741178.717          43.486          45.000  
R14  20662068.817   110140545.230       -2975.139          44.000  
R24  21707081.948   116077520.317       -1604.580          39.000  
R17  20562627.260   110034814.278         559.014          51.000  
R 8  24319408.454   130229366.9512      -2012.443          35.000  
R 1  22080795.998   118034524.905         769.677          40.000  
R18  22935496.591   122431230.677        2306.120          52.000  
R16  23327901.981   124613471.5452       3695.377          43.000  
G30  22919563.769   120443109.1792      -2410.831          49.000  
G 6  23644482.809   124252595.6852       3264.553          44.000  
G 7  24166819.531   126997496.3812      -2963.346          39.000  
> 2016  5 20 10 25 53.0000000  0 22                     
G 1  21587436.012   113442747.304       -2215.898          47.000  
G 3  21584436.721   113426975.899        1699.386          47.000  
R13  24678824.797   131783531.1293      -4058.013          26.000  
G11  22410977.191   117770498.1962      -2400.511          42.000  
G17  22361648.409   117511243.577        1852.260          48.000  
G 8  24796089.739   130304319.6632      -1938.005          32.000  
R 2  22371793.303   119380177.911        3750.462          47.000  
G28  20740486.309   108991995.655        1711.645          48.000  
G19  23809379.322   125119131.9052       2667.963          46.000  
R15  20195767.868   107920053.580         201.418          52.000  
G22  22159407.086   116448465.2912       -204.957          46.000  
J 1  37438594.551   196741134.843          43.429          45.000  
R14  20662626.770   110143519.579       -2974.239          44.000  
R24  21707381.987   116079125.902       -1606.590          39.000  
R17  20562522.576   110034255.621         558.098          51.000  
R 8  24319785.204   130231381.2632      -2015.496          35.000  
R 1  22080652.016   118033756.498         767.198          42.000  
R18  22935064.157   122428924.234        2307.343          52.000  
R16  23327209.347   124609778.0022       3692.296          43.000  
G30  22920022.309   120445519.0402      -2409.215          50.000  
G 6  23643861.214   124249329.8802       3265.652          46.000  
G 7  24167382.876   127000456.4782      -2959.945          43.000  
> 2016  5 20 10 25 54.0000000  0 22                     
G 1  21587857.662   113444962.984       -2215.621          47.000  
G 3  21584113.386   113425276.590        1698.694          47.000  
R13  24679583.882   131787584.3602      -4063.479          31.000  
G11  22411434.247   117772897.8292      -2399.526          42.000  
G17  22361295.531   117509391.241        1852.305          48.000  
G 8  24796454.308   130306258.8962      -1937.997          32.000  
R 2  22371090.373   119376427.570        3749.781          46.000  
G28  20740160.496   108990284.145        1711.176          48.000  
G19  23808871.852   125116464.6642       2666.107          42.000  
R15  20195730.472   107919852.536         200.121          52.000  
G22  22159446.158   116448670.5862       -205.563          46.000  
J 1  37438586.297   196741091.190          43.683          45.000  
R14  20663184.724   110146494.409       -2974.924          43.000  
R24  21707682.515   116080731.946       -1605.625          39.000  
R17  20562418.224   110033697.340         557.948          51.000  
R 8  24320161.710   130233396.6362      -2015.009          35.000  
R 1  22080508.593   118032989.297         766.384          43.000  
R18  22934631.846   122426617.955        2303.300          52.000  
R16  23326521.809   124606085.2112       3692.796          42.000  
G30  22920481.075   120447928.9722      -2410.348          51.000  
G 6  23643240.091   124246064.2112       3264.067          41.000  
G 7  24167946.012   127003416.4792      -2959.886          44.000  
> 2016  5 20 10 25 55.0000000  0 22                     
G 1  21588279.346   113447178.370       -2215.012          47.000  
G 3  21583790.016   113423577.304        1699.343          47.000  
R13  24680349.283   131791671.3723      -4062.876          28.000  
G11  22411890.622   117775296.9032      -2398.432          42.000  
G17  22360943.769   117507539.297        1852.173          48.000  
G 8  24796832.664                       -1930.518          35.000  
R 2  22370387.670   119372676.950        3751.670          48.000  
G28  20739834.857   108988573.095        1711.359          48.000  
G19  23808363.998   125113797.4591       2663.971          42.000  
R15  20195692.919   107919652.745         201.093          53.000  
G22  22159485.333   116448875.7222       -204.858          46.000  
J 1  37438577.851   196741047.287          44.427          46.000  
R14  20663743.061   110149470.216       -2975.896          44.000  
R24  21707982.798   116082337.344       -1604.671          39.000  
R17  20562314.151   110033139.358         557.766          52.000  
R 8  24320538.198   130235412.0082      -2015.386          34.000  
R 1  22080364.472   118032222.077         766.997          42.000  
R18  22934199.761   122424312.516        2304.751          48.000  
R16  23325829.384   124602393.1502       3691.395          40.000  
G30  22920940.190   120450339.6492      -2410.836          49.000  
G 6  23642618.707   124242799.4852       3263.410          46.000  
G 7  24168509.462   127006376.7802      -2960.004          45.000  
> 2016  5 20 10 25 56.0000000  0 22                     
G 1  21588700.996   113449394.371       -2217.260          47.000  
G 3  21583466.227   113421878.437        1698.496          47.000  
R13  24681111.195                       -4058.612          27.000  
G11  22412347.207   117777696.4062      -2400.946          42.000  
G17  22360590.786   117505687.872        1850.545          48.000  
G 8  24797196.763                       -1941.260          32.000  
R 2  22369684.583   119368926.244        3751.227          48.000  
G28  20739509.533   108986862.680        1709.436          48.000  
G19  23807856.703   125111131.3813       2663.879          44.000  
R15  20195655.698   107919454.168         197.753          52.000  
G22  22159523.933   116449081.5122       -207.420          46.000  
J 1  37438569.580   196741003.231          43.671          46.000  
R14  20664301.380   110152446.233       -2975.677          44.000  
R24  21708282.977   116083943.178       -1607.096          39.000  
R17  20562209.694   110032581.986         556.452          51.000  
R 8  24320914.879   130237428.717       -2018.561          33.000  
R 1  22080220.961   118031455.797         764.828          42.000  
R18  22933767.624   122422008.424        2300.992          38.000  
R16  23325139.559   124598697.2453       3688.132          39.000  
G30  22921398.607   120452750.2172      -2410.350          49.000  
G 6  23641998.020   124239534.7792       3264.828          46.000  
G 7  24169072.790   127009336.5042      -2958.689          43.000  
> 2016  5 20 10 25 57.0000000  0 21                     
G 1  21589122.907   113451612.411       -2218.709          47.000  
G 3  21583143.189   113420180.455        1697.162          47.000  
G11  22412804.595   117780097.9492      -2402.245          43.000  
G17  22360238.187   117503837.003        1850.727          48.000  
G 8  24797561.699   130312065.4193      -1942.465          33.000  
R 2  22368981.601   119365175.619        3750.233          48.000  
G28  20739184.278   108985153.295        1708.679          48.000  
G19  23807349.268   125108464.4492       2666.223          37.000  
R15  20195618.703   107919256.268         197.969          52.000  
G22  22159563.667   116449289.2572       -208.737          46.000  
J 1  37438561.239   196740959.193          43.940          45.000  
R14  20664859.578   110155421.426       -2975.211          44.000  
R24  21708583.731   116085551.198       -1609.496          39.000  
R17  20562105.673   110032025.856         555.576          51.000  
R 8  24321292.536                       -2011.230          31.000  
R 1  22080077.991   118030691.987         762.308          42.000  
R18  22933336.185   122419703.205        2303.942          50.000  
R16  23324448.758   124595008.0822       3688.847          40.000  
G30  22921856.833   120455159.3302      -2408.963          49.000  
G 6  23641375.937   124236268.8242       3266.433          47.000  
G 7  24169635.734   127012294.2612      -2958.340          42.000  
> 2016  5 20 10 25 58.0000000  0 22                     
G 1  21589545.290   113453831.740       -2219.502          47.000  
G 3  21582820.569   113418483.383        1697.125          47.000  
R13  24682632.313                       -4059.821          30.000  
G11  22413261.634   117782500.8882      -2403.601          43.000  
G17  22359886.670   117501986.406        1850.300          48.000  
G 8  24797931.382   130314008.6783      -1941.904          32.000  
R 2  22368278.794   119361425.442        3750.370          47.000  
G28  20738859.076   108983444.542        1708.765          48.000  
G19  23806842.217   125105800.0172       2667.401          45.000  
R15  20195581.883   107919058.987         197.310          51.000  
G22  22159603.349   116449498.5152       -209.379          47.000  
J 1  37438552.967   196740915.297          44.141          45.000  
R14  20665417.531   110158396.369       -2974.368          44.000  
R24  21708884.783   116087160.429       -1609.413          39.000  
R17  20562001.757   110031470.247         555.943          50.000  
R 8  24321669.845   130241459.0173      -2022.703          32.000  
R 1  22079935.458   118029930.177         761.680          43.000  
R18  22932905.914   122417403.4463       2306.045          52.000  
R16  23323757.589                        3700.391          26.000  
G30  22922315.128   120457567.6032      -2407.543          48.000  
G 6  23640754.290   124233002.0552       3268.048          46.000  
G 7  24170198.137   127015250.9562      -2956.217          44.000  
> 2016  5 20 10 25 59.0000000  0 22                     
G 1  21589968.021   113456052.176       -2220.571          47.000  
G 3  21582497.444   113416787.091        1696.083          47.000  
R13  24683393.299   131807921.6982      -4059.248          31.000  
G11  22413719.423   117784904.8902      -2403.799          43.000  
G17  22359534.176   117500135.796        1851.185          48.000  
G 8  24798301.903   130315950.4192      -1941.363          31.000  
R 2  22367576.248   119357675.427        3750.485          47.000  
G28  20738534.153   108981736.332        1707.935          48.000  
G19  23806334.660   125103133.1302       2667.371          44.000  
R15  20195544.889   107918862.269         196.082          52.000  
G22  22159643.432   116449709.0782       -210.614          47.000  
J 1  37438544.731   196740871.421          44.074          46.000  
R14  20665975.868   110161370.973       -2974.703          44.000  
R24  21709185.834   116088770.782       -1610.596          39.000  
R17  20561897.928   110030915.099         555.766          51.000  
R 8  24322045.565   130243482.4272      -2023.932          31.000  
R 1  22079793.186   118029170.059         759.887          43.000  
R18  22932472.259   122415097.2202       2306.880          49.000  
R16  23323067.503   124587629.4533       3687.629          42.000  
G30  22922773.126   120459974.9802      -2407.201          49.000  
G 6  23640132.626   124229734.4922       3267.694          47.000  
G 7  24170760.453   127018206.5682      -2954.987          43.000  
> 2016  5 20 10 26  0.0000000  0 21                     
G 1  21590390.578   113458272.301       -2220.013          47.000  
G 3  21582174.806   113415091.577        1694.625          47.000  
G11  22414176.444   117787308.4052      -2402.523          43.000  
G17  22359181.751   117498285.232        1850.513          48.000  
G 8  24798668.654   130317891.9502      -1941.016          31.000  
R 2  22366873.825   119353926.235        3748.333          46.000  
G28  20738209.282   108980028.497        1707.287          48.000  
G19  23805827.243   125100466.7302       2665.607          44.000  
R15  20195508.366   107918666.708         194.497          52.000  
G22  22159683.707   116449919.8992       -211.187          47.000  
J 1  37438536.267   196740827.987          42.356          46.000  
R14  20666534.083   110164347.133       -2977.789          44.000  
R24  21709486.780   116090380.417       -1609.489          39.000  
R17  20561794.187   110030359.946         555.395          51.000  
R 8  24322424.008                       -2020.521          31.000  
R 1  22079651.142   118028410.293         759.999          41.000  
R18  22932039.668   122412779.6823       2303.445          47.000  
R16  23322377.626                        3685.645          37.000  
G30  22923231.700   120462383.7082      -2409.579          48.000  
G 6  23639511.120   124226468.2362       3264.550          47.000  
G 7  24171323.083   127021163.3082      -2959.587          43.000  
> 2016  5 20 10 26  1.0000000  0 21                     
G 1  21590812.856   113460491.771       -2219.353          47.000  
G 3  21581852.222   113413396.801        1694.469          47.000  
G11  22414633.483   117789711.0352      -2402.125          42.000  
G17  22358829.344   117496434.720        1849.883          47.000  
G 8  24799039.785   130319832.8943      -1940.717          30.000  
R 2  22366171.453   119350177.829        3748.438          46.000  
G28  20737884.464   108978321.140        1707.355          48.000  
G19  23805320.802   125097804.3033       2665.649          43.000  
R15  20195472.017   107918472.705         193.345          52.000  
G22  22159723.965   116450130.1611       -210.884          47.000  
J 1  37438527.891   196740785.110          42.846          45.000  
R14  20667092.647   110167325.327       -2978.776          44.000  
R24  21709787.430   116091988.848       -1608.181          39.000  
R17  20561690.236   110029804.681         554.908          51.000  
R 8  24322804.598   130247534.7203      -2023.073          32.000  
R 1  22079509.044   118027650.483         759.536          41.000  
R18  22931607.967   122410474.5662       2304.744          49.000  
R16  23321686.598   124580252.2702       3687.522          39.000  
G30  22923690.589   120464794.354       -2411.317          48.000  
G 6  23638889.665   124223203.892        3263.659          46.000  
G 7  24171886.132   127024121.672       -2957.637          43.000  
> 2016  5 20 10 26  2.0000000  0 21                     
G 1  21591235.361   113462711.285       -2219.442          47.000  
G 3  21581529.916   113411702.857        1693.318          47.000  
R13  24685679.487   131820134.6023      -4059.511          34.000  
G11  22415091.010   117792113.5112      -2402.400          42.000  
G17  22358477.565   117494584.369        1850.791          48.000  
R 2  22365469.047   119346430.095        3747.027          46.000  
G28  20737559.715   108976614.394        1706.677          48.000  
G19  23804811.221   125095138.7502       2667.328          42.000  
R15  20195436.209   107918279.955         192.338          52.000  
G22  22159764.153   116450341.466        -212.091          46.000  
J 1  37438519.934   196740742.703          42.302          45.000  
R14  20667651.752   110170304.916       -2980.684          44.000  
R24  21710088.167   116093596.985       -1607.901          39.000  
R17  20561586.285   110029249.587         554.880          51.000  
R 8  24323180.126   130249546.2242      -2022.517          32.000  
R 1  22079366.878   118026891.272         758.140          40.000  
R18  22931178.901   122408184.7042       2302.152          49.000  
R16  23320997.087   124576565.4852       3686.181          40.000  
G30  22924149.425   120467206.050       -2412.319          49.000  
G 6  23638268.891   124219940.581        3262.853          45.000  
G 7  24172449.442   127027080.947       -2959.563          45.000  
> 2016  5 20 10 26  3.0000000  0 22                     
G 1  21591657.778   113464931.105       -2219.595          47.000  
G 3  21581208.047   113410009.697        1693.285          48.000  
R13  24686435.518                       -4061.266          28.000  
G11  22415548.310   117794516.1102      -2402.101          42.000  
G17  22358125.036   117492734.385        1850.067          47.000  
G 8  24799780.896   130323728.0972      -1941.748          32.000  
R 2  22364766.693   119342682.920        3746.677          47.000  
G28  20737235.106   108974908.295        1706.067          49.000  
G19  23804309.318   125092474.3812       2662.183          33.000  
R15  20195400.733   107918088.476         190.794          50.000  
G22  22159804.393   116450553.366        -212.089          47.000  
J 1  37438512.064   196740700.671          42.371          44.000  
R14  20668210.683   110173285.525       -2981.284          44.000  
R24  21710388.642   116095205.136       -1607.885          40.000  
R17  20561482.543   110028694.902         555.110          52.000  
R 8  24323556.876   130251569.3772      -2022.854          31.000  
R 1  22079224.711                         756.934          40.000  
R18  22930748.492                        2310.156          38.000  
R16  23320308.153                        3688.965          34.000  
G30  22924608.784   120469618.525       -2412.309          50.000  
G 6  23637648.187   124216678.078        3263.058          44.000  
G 7  24173012.316   127030040.656       -2960.304          44.000  
> 2016  5 20 10 26  4.0000000  0 22                     
G 1  21592080.143   113467151.029       -2219.938          47.000  
G 3  21580885.846   113408317.136        1692.024          47.000  
R13  24687201.548                       -4062.886          27.000  
G11  22416005.401   117796918.6812      -2402.684          42.000  
G17  22357772.925   117490884.356        1849.177          47.000  
G 8  24800145.902   130325669.2422      -1941.596          31.000  
R 2  22364064.549   119338936.199        3746.662          46.000  
G28  20736910.183   108973202.556        1705.517          48.000  
G19  23803801.412   125089819.8813       2664.392          39.000  
R15  20195364.960   107917897.896         190.339          52.000  
G22  22159844.947   116450765.766        -212.513          47.000  
J 1  37438504.037   196740658.743          42.059          46.000  
R14  20668770.067   110176266.832       -2981.499          44.000  
R24  21710689.275   116096813.103       -1607.725          40.000  
R17  20561379.360   110028140.225         554.762          51.000  
R 8  24323933.313                       -2034.619          30.000  
R 1  22079083.120   118025373.6193        757.860          41.000  
R18  22930315.395   122403575.1253       2303.156          47.000  
R16  23319617.473   124569200.0383       3684.683          37.000  
G30  22925067.359   120472031.404       -2412.800          48.000  
G 6  23637026.907   124213416.070        3262.275          45.000  
G 7  24173575.679   127033000.665       -2960.940          42.000  
> 2016  5 20 10 26  5.0000000  0 21                     
G 1  21592502.665   113469371.327       -2220.317          47.000  
G 3  21580563.890   113406625.384        1691.140          47.000  
G11  22416462.789   117799321.4632      -2402.631          42.000  
G17  22357421.652   117489034.562        1849.368          47.000  
G 8  24800520.035   130327612.4203      -1940.382          31.000  
R 2  22363362.614   119335189.956        3745.835          47.000  
G28  20736585.644   108971497.422        1704.974          48.000  
G19  23803290.033   125087154.9362       2666.553          43.000  
R15  20195329.571   107917708.405         189.128          52.000  
G22  22159885.763   116450978.920        -213.677          46.000  
J 1  37438495.870   196740617.148          41.149          45.000  
R14  20669329.643   110179248.998       -2982.880          43.000  
R24  21710989.925   116098421.229       -1608.952          40.000  
R17  20561275.863   110027585.871         553.913          51.000  
R 8  24324311.755                       -2024.365          31.000  
R 1  22078941.546   118024616.8522        756.499          41.000  
R18  22929884.165   122401272.4152       2300.368          48.000  
R16  23318928.346   124565514.7432       3684.078          40.000  
G30  22925526.631   120474444.700       -2412.739          49.000  
G 6  23636406.202   124210154.581        3261.515          46.000  
G 7  24174139.059   127035960.782       -2960.842          46.000  
> 2016  5 20 10 26  6.0000000  0 22                     
G 1  21592925.432   113471591.928       -2221.210          47.000  
G 3  21580242.247   113404934.160        1690.360          47.000  
R13  24688721.758                       -4058.102          26.000  
G11  22416920.177   117801724.4782      -2404.066          42.000  
G17  22357069.472   117487184.865        1849.318          48.000  
G 8  24800891.620                       -1941.113          31.000  
R 2  22362660.487   119331443.956        3745.793          49.000  
G28  20736261.297   108969792.786        1703.790          47.000  
G19  23802784.989   125084490.3122       2667.029          44.000  
R15  20195293.955   107917519.900         187.350          52.000  
G22  22159926.370   116451192.651        -214.642          47.000  
J 1  37438488.297   196740575.567          41.724          45.000  
R14  20669889.184   110182231.701       -2983.373          44.000  
R24  21711290.644   116100029.362       -1608.538          39.000  
R17  20561172.453   110027031.798         553.279          51.000  
R 8  24324690.059                       -2019.190          30.000  
R 1  22078800.339   118023860.9162        755.314          42.000  
R18  22929452.621   122398969.9322       2299.368          50.000  
R16  23318235.538   124561818.0983       3684.748          37.000  
G30  22925986.113   120476858.307       -2414.407          50.000  
G 6  23635785.568   124206893.381        3260.528          46.000  
G 7  24174702.335   127038920.821       -2960.447          46.000  
> 2016  5 20 10 26  7.0000000  0 21                     
G 1  21593347.919   113473812.729       -2220.917          47.000  
G 3  21579920.395   113403243.323        1691.050          47.000  
G11  22417377.442   117804127.460       -2402.856          42.000  
G17  22356717.484   117485335.340        1848.943          47.000  
G 8  24801258.650   130331493.1263      -1941.859          30.000  
R 2  22361958.500   119327697.885        3748.085          41.000  
G28  20735937.055   108968088.544        1704.059          47.000  
G19  23802277.781   125081826.0192       2664.075          47.000  
R15  20195258.601   107917332.335         186.611          52.000  
G22  22159967.064   116451406.810        -214.539          46.000  
J 1  37438480.339   196740533.921          40.688          45.000  
R14  20670448.761   110185214.894       -2983.821          44.000  
R24  21711591.346   116101637.517       -1608.293          39.000  
R17  20561068.711   110026478.010         553.427          51.000  
R 8  24325069.775   130259665.0513      -2016.400          29.000  
R 1  22078659.149   118023105.6592        754.432          42.000  
R18  22929021.095   122396667.4892       2302.003          49.000  
R16  23317548.313   124558134.1852       3682.649          40.000  
G30  22926445.437   120479272.014       -2414.114          49.000  
G 6  23635164.689   124203632.448        3260.403          45.000  
G 7  24175265.698   127041880.581       -2959.594          45.000  
> 2016  5 20 10 26  8.0000000  0 22                     
G 1  21593770.302   113476033.672       -2221.671          47.000  
G 3  21579598.788   113401552.888        1688.988          48.000  
R13  24690238.042                       -4058.367          26.000  
G11  22417834.550   117806530.412       -2403.436          42.000  
G17  22356365.705   117483485.847        1849.095          48.000  
G 8  24801633.132                       -1939.743          30.000  
R 2  22361256.530   119323951.991        3745.388          47.000  
G28  20735612.795   108966384.685        1703.296          48.000  
G19  23801768.462   125079161.6972       2663.867          45.000  
R15  20195223.648   107917145.623         186.094          52.000  
G22  22160007.740   116451621.291        -214.774          46.000  
J 1  37438472.400   196740492.111          41.563          45.000  
R14  20671008.459   110188198.460       -2984.200          44.000  
R24  21711892.031   116103245.496       -1608.130          39.000  
R17  20560965.389   110025924.377         553.042          51.000  
R 8  24325441.779                       -2027.168          28.000  
R 1  22078517.872   118022350.9282        753.713          41.000  
R18  22928589.516   122394365.2672       2303.157          43.000  
R16  23316859.745   124554450.7852       3682.242          38.000  
G30  22926904.832   120481685.785       -2414.306          49.000  
G 6  23634544.596   124200371.732        3259.481          47.000  
G 7  24175828.886   127044840.186       -2960.200          44.000  
> 2016  5 20 10 26  9.0000000  0 21                     
G 1  21594192.946   113478254.967       -2221.952          47.000  
G 3  21579277.076   113399862.914        1689.268          47.000  
G11  22418291.851   117808933.642       -2403.366          42.000  
G17  22356013.612   117481636.620        1848.166          46.000  
G 8  24801998.312                       -1943.123          31.000  
R 2  22360554.507   119320206.244        3745.718          46.000  
G28  20735288.570   108964681.361        1702.716          48.000  
G19  23801263.348   125076497.5802       2663.849          42.000  
R15  20195188.974   107916959.937         184.734          52.000  
G22  22160048.365   116451836.479        -215.803          47.000  
J 1  37438464.669   196740450.412          40.990          45.000  
R14  20671568.227   110191182.584       -2984.553          44.000  
R24  21712192.803   116104853.672       -1608.514          39.000  
R17  20560861.909   110025371.110         552.381          51.000  
R 8  24325822.281   130263694.7572      -2028.093          29.000  
R 1  22078376.962   118021597.0282        753.433          42.000  
R18  22928158.391   122392063.3662       2302.229          51.000  
R16  23316171.229   124550768.0282       3681.809          41.000  
G30  22927364.174   120484099.731       -2414.193          49.000  
G 6  23633924.188   124197111.235        3261.156          44.000  
G 7  24176391.970   127047799.593       -2959.471          42.000  
> 2016  5 20 10 26 10.0000000  0 21                     
G 1  21594616.061   113480476.838       -2222.272          47.000  
G 3  21578955.747   113398173.804        1688.530          47.000  
G11  22418749.291   117811337.295       -2403.387          43.000  
G17  22355662.025   117479787.542        1849.239          48.000  
G 8  24802368.449                       -1943.190          30.000  
R 2  22359852.572   119316460.937        3745.346          46.000  
G28  20734964.728   108962978.627        1702.319          48.000  
G19  23800757.204   125073833.6632       2664.008          45.000  
R15  20195154.562   107916775.265         184.166          52.000  
G22  22160089.582   116452052.553        -216.737          44.000  
J 1  37438456.799   196740408.912          41.018          45.000  
R14  20672128.344   110194167.300       -2984.898          44.000  
R24  21712493.889   116106462.219       -1608.632          39.000  
R17  20560758.377   110024818.231         552.416          51.000  
R 8  24326202.521   130265730.5762      -2027.959          30.000  
R 1  22078236.191   118020844.3772        751.584          40.000  
R18  22927727.213   122389761.7872       2305.520          42.000  
R16  23315483.447   124547085.9232       3681.026          35.000  
G30  22927823.516   120486513.933       -2414.737          49.000  
G 6  23633303.903   124193851.056        3259.087          45.000  
G 7  24176954.984   127050758.924       -2960.419          45.000  
> 2016  5 20 10 26 11.0000000  0 22                     
G 1  21595038.845   113482699.047       -2222.051          47.000  
G 3  21578634.314   113396485.276        1688.395          47.000  
R13  24692523.934   131856683.6132      -4062.706          26.000  
G11  22419206.277   117813741.234       -2403.639          42.000  
G17  22355310.106   117477938.559        1848.792          49.000  
G 8  24802736.945                       -1941.954          26.000  
R 2  22359150.672   119312716.029        3745.128          47.000  
G28  20734640.887   108961276.326        1702.167          48.000  
G19  23800250.956   125071162.5633       2664.331          39.000  
R15  20195119.976   107916591.445         183.490          52.000  
G22  22160130.782   116452269.231        -217.794          47.000  
J 1  37438449.086   196740367.526          41.248          46.000  
R14  20672688.147   110197152.516       -2985.655          44.000  
R24  21712794.958   116108070.937       -1608.871          40.000  
R17  20560655.229   110024265.574         552.137          51.000  
R 8  24326581.558   130267759.2232      -2030.466          31.000  
R 1  22078095.455   118020092.5122        751.037          39.000  
R18  22927296.123   122387457.7983       2300.662          50.000  
R16  23314793.029                        3681.898          32.000  
G30  22928282.963   120488928.232       -2414.456          48.000  
G 6  23632683.390   124190590.994        3259.915          45.000  
G 7  24177518.189   127053718.145       -2959.696          45.000  
> 2016  5 20 10 26 12.0000000  0 22                     
G 1  21595461.577   113484921.576       -2222.769          47.000  
G 3  21578313.126   113394797.308        1687.711          47.000  
R13  24693283.995                       -4060.103          25.000  
G11  22419663.944   117816145.367       -2403.804          43.000  
G17  22354958.118   117476089.523        1847.947          46.000  
G 8  24803107.274   130341208.3853      -1942.266          31.000  
R 2  22358449.016   119308971.361        3744.447          45.000  
G28  20734316.732   108959574.360        1701.977          48.000  
G19  23799742.805                        2661.619          34.000  
R15  20195085.582   107916408.364         182.935          52.000  
G22  22160172.261   116452486.533        -217.450          47.000  
J 1  37438441.041   196740326.126          41.398          46.000  
R14  20673248.404   110200138.032       -2985.270          44.000  
R24  21713095.642   116109679.699       -1608.853          40.000  
R17  20560551.836   110023712.972         552.863          52.000  
R 8  24326964.607   130269788.5382      -2029.122          30.000  
R 1  22077954.980   118019341.0631        752.604          42.000  
R18  22926863.794   122385149.5892       2301.503          40.000  
R16  23314098.981   124539721.2263       3681.059          35.000  
G30  22928742.462   120491342.474       -2413.895          49.000  
G 6  23632062.861   124187330.946        3260.144          44.000  
G 7  24178081.430   127056677.069       -2958.044          45.000  
> 2016  5 20 10 26 13.0000000  0 20                     
G 1  21595884.762   113487144.634       -2223.047          47.000  
G 3  21577991.693   113393110.080        1686.672          47.000  
G 6  23631442.540   124184070.877        3260.020          45.000  
G11  22420121.506   117818550.015       -2405.087          43.000  
G17  22354606.269   117474240.449        1849.152          49.000  
G 8  24803479.836                       -1942.627          34.000  
R 2  22357747.640   119305227.001        3743.832          47.000  
G28  20733993.048   108957872.859        1701.190          48.000  
G19  23799236.871   125065833.2562       2663.245          37.000  
R15  20195051.449   107916226.062         181.999          52.000  
G22  22160213.705   116452704.751        -218.315          47.000  
J 1  37438433.084   196740284.847          41.255          45.000  
R14  20673808.538   110203123.895       -2985.532          44.000  
R24  21713396.728   116111288.861       -1609.828          39.000  
R17  20560449.037   110023160.656         552.215          52.000  
G 7  24178644.391   127059635.632       -2957.510          45.000  
R 1  22077814.960   118018591.440         748.960          41.000  
R18  22926433.402   122382847.6012       2302.239          42.000  
R16  23313408.668   124536041.3022       3675.804          32.000  
G30  22929201.821   120493756.653       -2413.989          48.000  
> 2016  5 20 10 26 14.0000000  0 22                     
G 1  21596307.912   113489368.428       -2223.889          46.000  
G 3  21577671.045   113391423.645        1686.199          46.000  
G 6  23630822.010   124180810.820        3260.448          45.000  
G11  22420578.964   117820955.306       -2405.752          42.000  
G17  22354254.839   117472391.600        1849.289          47.000  
G 8  24803846.168                       -1943.309          30.000  
R 2  22357046.036   119301483.141        3743.655          47.000  
G28  20733669.346   108956171.965        1701.007          48.000  
G19  23798727.866   125063169.0322       2664.160          36.000  
R15  20195017.788   107916044.686         180.998          52.000  
G22  22160255.638   116452924.004        -219.708          47.000  
J 1  37438425.040   196740243.818          41.164          45.000  
R14  20674368.725   110206110.208       -2986.679          44.000  
R24  21713698.076   116112898.533       -1609.054          40.000  
R17  20560346.255   110022608.715         551.970          52.000  
G 7  24179207.702   127062593.991       -2957.816          48.000  
R 1  22077674.817   118017843.024         748.181          42.000  
R18  22926004.423                        2294.476          32.000  
R16  23312731.617   124532417.1143       3679.908          35.000  
G30  22929660.971   120496170.828       -2413.967          49.000  
R 8  24327721.214                       -2025.447          30.000  
R13  24694801.903   131868847.6803      -4061.810          31.000  
> 2016  5 20 10 26 15.0000000  0 21                     
G 1  21596731.063   113491592.715       -2224.851          47.000  
G 3  21577350.153   113389737.914        1684.983          47.000  
G 6  23630201.690   124177550.501        3260.376          45.000  
G11  22421037.137   117823361.004       -2405.655          43.000  
G17  22353902.554   117470542.706        1848.389          48.000  
G 8  24804216.183   130347034.8483      -1942.927          34.000  
R 2  22356344.381   119297739.538        3743.240          47.000  
G28  20733345.784   108954471.433        1700.067          48.000  
R 8  24328103.635   130275911.5733      -2032.881          31.000  
R15  20194983.864   107915863.927         180.083          52.000  
G22  22160297.362   116453144.069        -220.844          46.000  
J 1  37438417.152   196740202.852          40.952          46.000  
R14  20674928.807   110209096.665       -2986.993          43.000  
R24  21713999.302   116114508.568       -1610.310          40.000  
R17  20560243.229   110022056.876         551.604          51.000  
G 7  24179770.384   127065551.840       -2957.701          44.000  
R 1  22077535.233   118017095.793         744.948          42.000  
R18  22925572.199   122378255.9213       2303.110          27.000  
R16  23312042.630                        3677.440          28.000  
G30  22930120.331   120498584.737       -2414.453          49.000  
R13  24695563.291                       -4063.726          25.000  
> 2016  5 20 10 26 16.0000000  0 19                     
G 1  21597154.300   113493817.523       -2225.050          47.000  
G 3  21577029.662   113388052.695        1685.244          47.000  
G 6  23629581.440   124174289.916        3260.701          44.000  
G11  22421495.327   117825767.183       -2406.202          42.000  
G17  22353551.020   117468693.690        1849.323          48.000  
G 8  24804587.576   130348987.3672      -1945.476          30.000  
R 2  22355642.882   119293996.150        3743.385          46.000  
G28  20733022.292   108952771.250        1700.153          48.000  
R15  20194950.238   107915683.809         179.776          52.000  
G22  22160339.417   116453364.929        -221.051          47.000  
J 1  37438409.718   196740161.826          41.279          46.000  
R14  20675488.994   110212083.182       -2986.524          44.000  
R24  21714300.510   116116118.991       -1610.715          39.000  
R17  20560140.133   110021505.271         551.431          52.000  
G 7  24180333.258   127068509.071       -2956.647          46.000  
R 1  22077395.596   118016349.585         746.311          42.000  
R18  22925136.170   122375927.6702       2302.485          49.000  
R16  23311353.922   124525057.1733       3679.761          28.000  
G30  22930579.621   120500998.266       -2412.868          49.000  
> 2016  5 20 10 26 17.0000000  0 21                     
G 1  21597577.765   113496043.098       -2225.724          47.000  
G 3  21576709.206   113386368.247        1684.117          47.000  
G 6  23628960.735   124171029.298        3260.091          44.000  
G11  22421953.552   117828174.066       -2406.823          43.000  
G17  22353199.904   117466844.986        1848.741          49.000  
G 8  24804956.229   130350924.1982      -1942.555          32.000  
R 2  22354941.278   119290253.083        3742.359          46.000  
G28  20732698.730   108951071.677        1699.554          48.000  
G19  23797210.238                        2660.596          36.000  
R15  20194916.786   107915504.556         179.432          52.000  
G22  22160381.594   116453586.826        -222.283          46.000  
J 1  37438401.778   196740120.972          40.941          45.000  
R14  20676049.408   110215069.997       -2986.670          44.000  
R24  21714601.701   116117730.023       -1611.422          39.000  
R17  20560036.932   110020954.156         551.005          51.000  
G 7  24180895.609   127071465.803       -2956.045          45.000  
R 1  22077256.535   118015604.796         743.738          41.000  
R18  22924704.731                        2301.263          44.000  
R16  23310663.871                        3695.977          25.000  
G30  22931038.614   120503411.699       -2412.983          49.000  
R 8  24328863.837   130279980.0532      -2035.755          34.000  
> 2016  5 20 10 26 18.0000000  0 22                     
G 1  21598001.369   113498268.983       -2226.687          47.000  
G 3  21576388.227   113384683.982        1683.776          47.000  
G 6  23628340.171   124167768.483        3260.640          46.000  
G11  22422411.516   117830581.110       -2407.220          42.000  
G17  22352847.933   117464996.417        1847.963          48.000  
G 8  24805321.392   130352843.6123      -1944.882          35.000  
R 2  22354239.466   119286509.734        3743.191          47.000  
G28  20732375.378   108949372.480        1698.450          48.000  
G19  23796699.435   125052499.3343       2665.741          43.000  
R15  20194883.089   107915326.116         177.989          52.000  
G22  22160423.806   116453809.114        -222.959          46.000  
J 1  37438394.519   196740079.743          41.028          46.000  
R14  20676609.682   110218056.875       -2987.225          44.000  
R24  21714902.874   116119341.136       -1611.345          39.000  
R17  20559933.802   110020403.381         550.201          52.000  
G 7  24181458.361   127074422.023       -2956.661          45.000  
R 1  22077117.457   118014860.676         743.341          42.000  
R18  22924276.590   122371322.5302       2300.385          47.000  
R16  23309972.493                        3680.431          25.000  
G30  22931497.973   120505824.883       -2414.049          49.000  
R 8  24329242.960   130282015.9422      -2038.263          31.000  
R13  24697842.498                       -4056.087          30.000  
> 2016  5 20 10 26 19.0000000  0 22                     
G 1  21598425.304   113500495.461       -2227.010          47.000  
G 3  21576068.085   113383000.263        1683.312          47.000  
G 6  23627719.623   124164507.881        3260.917          45.000  
G11  22422869.357   117832988.561       -2407.231          42.000  
G17  22352496.555   117463148.203        1848.453          48.000  
G 8  24805692.820   130354795.5683      -1944.564          32.000  
R 2  22353538.246   119282766.506        3743.181          46.000  
G28  20732052.305   108947673.982        1697.968          48.000  
G19  23796193.344   125049835.6642       2665.912          40.000  
R15  20194849.969   107915148.835         176.618          52.000  
G22  22160466.367   116454032.145        -223.153          46.000  
J 1  37438386.248   196740038.534          40.896          45.000  
R14  20677170.044   110221044.180       -2987.696          44.000  
R24  21715204.152   116120952.685       -1611.247          39.000  
R17  20559831.055   110019853.202         549.624          52.000  
G 7  24182020.712   127077377.686       -2955.071          46.000  
R 1  22076978.449   118014117.580         742.505          42.000  
R18  22923846.861   122369021.0422       2302.994          47.000  
R16  23309281.063   124513984.2602       3675.048          41.000  
G30  22931957.525   120508238.018       -2412.915          49.000  
R 8  24329625.155   130284059.1993      -2038.452          31.000  
R13  24698605.160                       -4056.231          29.000  
> 2016  5 20 10 26 20.0000000  0 22                     
G 1  21598849.048   113502722.437       -2226.710          47.000  
G 3  21575747.926   113381317.089        1683.116          47.000  
G 6  23627099.094   124161247.202        3261.790          44.000  
G11  22423327.582   117835396.470       -2408.257          41.000  
G17  22352144.096   117461300.173        1848.269          48.000  
G 8  24806063.149                       -1941.195          31.000  
R 2  22352836.957   119279023.496        3742.529          47.000  
G28  20731729.039   108945975.892        1698.322          48.000  
G19  23795686.328   125047171.7232       2664.783          42.000  
R15  20194817.005   107914972.287         176.423          52.000  
G22  22160509.085   116454255.928        -224.090          47.000  
J 1  37438378.378   196739997.281          41.535          45.000  
R14  20677730.649   110224031.682       -2987.552          44.000  
R24  21715505.430   116122564.556       -1611.716          40.000  
R17  20559728.064   110019303.243         550.132          51.000  
G 7  24182583.010   127080332.956       -2955.516          45.000  
R 1  22076839.405   118013375.497         742.186          41.000  
R18  22923415.823   122366719.8902       2299.570          40.000  
R16  23308593.141   124510309.4633       3674.361          40.000  
G30  22932416.588   120510651.020       -2412.428          49.000  
R 8  24330005.186   130286096.9692      -2036.577          31.000  
R13  24699362.168   131893199.6212      -4057.634          26.000  
> 2016  5 20 10 26 21.0000000  0 22                     
G 1  21599272.879   113504949.799       -2227.401          47.000  
G 3  21575427.593   113379634.513        1682.449          47.000  
G 6  23626478.686   124157986.307        3260.837          46.000  
G11  22423785.703   117837804.633       -2408.319          42.000  
G17  22351793.050   117459451.880        1848.425          48.000  
G 8  24806433.530   130358687.0662      -1955.809          30.000  
R 2  22352135.563   119275280.711        3742.758          47.000  
G28  20731405.826   108944278.078        1697.913          48.000  
G19  23795179.242   125044507.4702       2663.013          41.000  
R15  20194784.112   107914796.290         175.706          52.000  
G22  22160551.978   116454480.446        -224.466          47.000  
J 1  37438370.403   196739956.048          41.103          45.000  
R14  20678291.046   110227019.306       -2987.708          44.000  
R24  21715806.987   116124176.645       -1612.376          40.000  
R17  20559625.369   110018753.317         549.952          51.000  
G 7  24183145.117   127083287.701       -2954.823          45.000  
R 1  22076700.641   118012634.524         740.331          41.000  
R18  22922982.098   122364417.9452       2301.442          45.000  
R16  23307905.916   124506634.4972       3673.679          41.000  
G30  22932875.755   120513063.765       -2412.473          49.000  
R 8  24330382.704   130288135.7202      -2039.036          32.000  
R13  24700118.932                       -4058.245          26.000  
> 2016  5 20 10 26 22.0000000  0 21                     
G 1  21599696.884   113507178.091       -2228.707          47.000  
G 3  21575107.817   113377953.080        1680.710          47.000  
G 6  23625858.348   124154725.565        3260.238          47.000  
G11  22424243.911   117840213.750       -2409.665          42.000  
G17  22351441.375   117457603.897        1848.103          48.000  
G 8  24806807.069                       -1948.096          31.000  
R 2  22351434.326   119271538.772        3741.466          47.000  
G28  20731082.788   108942581.033        1696.545          48.000  
R 8  24330763.275   130290175.8002      -2041.063          32.000  
R15  20194751.288   107914621.331         174.143          52.000  
G22  22160594.748   116454706.266        -226.366          47.000  
J 1  37438362.585   196739915.319          40.532          45.000  
R14  20678851.721   110230007.562       -2988.312          44.000  
R24  21716108.562   116125789.487       -1613.740          40.000  
R17  20559522.727   110018203.902         549.217          51.000  
G 7  24183707.502   127086242.462       -2955.742          43.000  
R 1  22076562.540   118011895.086         738.928          41.000  
R18  22922550.694   122362115.5842       2302.557          39.000  
R16  23307213.335   124502938.5023       3673.203          39.000  
G30  22933335.115   120515476.687       -2413.017          50.000  
R13  24700882.030   131901315.7712      -4055.726          27.000  
> 2016  5 20 10 26 23.0000000  0 21                     
G 1  21600121.256   113509407.038       -2229.464          47.000  
G 3  21574788.094   113376272.453        1679.609          47.000  
G 6  23625237.871   124151464.726        3259.583          44.000  
G11  22424702.607   117842623.442       -2410.387          42.000  
G17  22351088.759   117455755.991        1847.050          47.000  
G 8  24807178.253                       -1939.978          30.000  
R 2  22350733.071   119267797.234        3739.616          46.000  
G28  20730760.273   108940884.531        1695.837          48.000  
G19  23794158.875                        2667.969          37.000  
R15  20194718.394   107914447.159         173.379          52.000  
G22  22160637.746   116454933.091        -227.667          47.000  
J 1  37438355.099   196739874.814          39.392          45.000  
R14  20679412.414   110232996.140       -2989.176          44.000  
R24  21716410.433   116127402.814       -1613.921          40.000  
R17  20559420.102   110017654.818         548.538          51.000  
G 7  24184269.434   127089196.872       -2954.955          46.000  
R 1  22076424.509   118011156.942         737.311          42.000  
R18  22922120.319   122359829.2283       2302.594          51.000  
R16  23306528.623   124499281.5873       3672.754          35.000  
G30  22933794.212   120517889.478       -2413.145          50.000  
R13  24701640.556   131905366.3773      -4057.485          27.000  
> 2016  5 20 10 26 24.0000000  0 22                     
G 1  21600545.541   113511636.623       -2229.922          47.000  
G 3  21574468.476   113374592.571        1679.360          47.000  
G 6  23624616.940   124148204.062        3259.941          44.000  
G11  22425161.094   117845033.702       -2410.586          43.000  
G17  22350737.434   117453908.306        1847.647          48.000  
G 8  24807541.077   130364507.5382      -1946.837          30.000  
R 2  22350032.166   119264056.107        3740.493          48.000  
G28  20730437.706   108939188.581        1695.697          48.000  
G19  23793654.023   125036495.4103       2670.020          42.000  
R15  20194686.356   107914273.983         172.349          51.000  
G22  22160681.319   116455160.819        -228.071          47.000  
J 1  37438347.159   196739834.443          40.060          45.000  
R14  20679973.055   110235985.182       -2988.934          44.000  
R24  21716712.217   116129016.642       -1614.144          39.000  
R17  20559317.844   110017106.193         548.369          51.000  
G 7  24184831.698   127092151.100       -2953.931          44.000  
R 1  22076286.670   118010420.009         736.071          42.000  
R18  22921690.380                        2299.756          50.000  
R16  23305850.961                        3679.074          27.000  
G30  22934253.293   120520302.378       -2413.122          49.000  
R 8  24331522.657   130294259.3192      -2043.561          33.000  
R13  24702397.407   131909407.6892      -4060.011          26.000  
> 2016  5 20 10 26 25.0000000  0 22                     
G 1  21600969.843   113513867.107       -2230.417          47.000  
G 3  21574148.718   113372913.617        1678.530          47.000  
G 6  23623996.462   124144943.183        3261.933          45.000  
G11  22425619.581   117847444.800       -2410.987          41.000  
G17  22350385.829   117452060.857        1847.536          48.000  
G 8  24807906.974                       -1945.264          30.000  
R 2  22349331.086   119260315.475        3740.309          46.000  
G28  20730114.964   108937493.318        1695.410          48.000  
G19  23793150.445   125033831.2732       2669.055          46.000  
R15  20194654.178   107914101.695         172.628          52.000  
G22  22160724.735   116455389.744        -229.002          46.000  
J 1  37438339.691   196739794.380          40.367          45.000  
R14  20680533.905   110238974.538       -2989.238          44.000  
R24  21717014.368   116130631.202       -1614.409          39.000  
R17  20559215.167   110016558.069         548.243          51.000  
G 7  24185393.717   127095104.909       -2953.124          47.000  
R 1  22076148.673   118009684.561         735.324          42.000  
R18  22921258.906   122355230.4172       2302.210          49.000  
R16  23305160.055                        3671.809          37.000  
G30  22934712.460   120522715.102       -2412.844          49.000  
R 8  24331905.078   130296303.0772      -2043.971          33.000  
R13  24703153.978   131913447.7033      -4055.792          26.000  
> 2016  5 20 10 26 26.0000000  0 22                     
G 1  21601394.564   113516098.110       -2230.820          47.000  
G 3  21573829.868   113371235.379        1678.190          47.000  
G 6  23623376.596   124141682.435        3260.708          46.000  
G11  22426078.888   117849856.356       -2411.281          43.000  
G17  22350034.661   117450213.475        1848.482          48.000  
G 8  24808288.313                       -1943.213          29.000  
R 2  22348629.988   119256575.280        3739.947          46.000  
G28  20729792.449   108935798.580        1694.714          48.000  
G19  23792645.435   125031167.4152       2665.021          41.000  
R15  20194622.558   107913930.283         171.166          51.000  
G22  22160768.552   116455619.505        -229.792          47.000  
J 1  37438331.768   196739754.490          40.179          46.000  
R14  20681094.824   110241964.352       -2989.955          44.000  
R24  21717316.117   116132246.124       -1614.854          40.000  
R17  20559113.031   110016010.174         548.090          51.000  
G 7  24185956.033   127098058.537       -2953.039          44.000  
R 1  22076011.515   118008950.276         733.819          42.000  
R18  22920827.816   122352929.0642       2300.092          51.000  
R16  23304463.983   124488252.1642       3671.172          41.000  
G30  22935171.611   120525127.848       -2412.486          49.000  
R 8  24332287.465   130298347.2071      -2044.315          32.000  
R13  24703914.354                       -4053.630          26.000  
> 2016  5 20 10 26 27.0000000  0 22                     
G 1  21601819.092   113518329.413       -2231.608          47.000  
G 3  21573510.512   113369557.740        1677.395          47.000  
G 6  23622756.049   124138421.761        3260.201          46.000  
G11  22426537.690   117852268.134       -2412.412          43.000  
G17  22349682.952   117448366.051        1847.178          49.000  
G 8  24808651.470                       -1948.438          32.000  
R 2  22347928.821   119252835.363        3739.583          45.000  
G28  20729469.760   108934104.165        1694.257          48.000  
G19  23792137.180   125028503.6492       2665.961          46.000  
R15  20194590.571   107913759.601         169.505          53.000  
G22  22160812.544   116455849.901        -230.456          47.000  
J 1  37438324.683   196739714.643          39.769          46.000  
R14  20681655.552   110244954.545       -2990.332          44.000  
R24  21717618.111   116133861.124       -1615.455          40.000  
R17  20559010.371   110015462.384         547.470          51.000  
G 7  24186517.965   127101011.760       -2952.527          44.000  
R 1  22075874.269   118008216.860         732.701          42.000  
R18  22920399.169   122350641.7943       2299.536          44.000  
R16  23303776.497   124484581.3042       3672.664          39.000  
G30  22935631.040   120527540.614       -2412.929          49.000  
R 8  24332670.968   130300392.607       -2046.293          32.000  
R13  24704677.295                       -4056.217          30.000  
> 2016  5 20 10 26 28.0000000  0 22                     
G 1  21602243.534   113520560.912       -2232.118          47.000  
G 3  21573191.295   113367880.491        1676.799          47.000  
G 6  23622135.868   124135161.232        3259.987          45.000  
G11  22426996.787   117854679.887       -2411.788          43.000  
G17  22349331.417   117446518.710        1846.129          49.000  
G 8  24809025.393                       -1941.162          31.000  
R 2  22347227.933   119249095.508        3739.790          46.000  
G28  20729147.663   108932410.157        1693.408          48.000  
G19  23791634.108   125025839.1452       2663.770          37.000  
R15  20194558.690   107913589.774         169.087          52.000  
G22  22160856.240   116456080.748        -231.304          46.000  
J 1  37438316.936   196739674.700          39.557          45.000  
R14  20682216.612   110247945.134       -2990.974          44.000  
R24  21717919.842   116135476.018       -1615.127          40.000  
R17  20558908.340   110014914.785         547.073          51.000  
G 7  24187080.019   127103964.869       -2953.260          44.000  
R 1  22075737.058   118007484.091         732.251          42.000  
R18  22919969.353   122348346.8182       2300.673          48.000  
R16  23303093.129   124480911.2352       3669.647          40.000  
G30  22936089.998   120529953.465       -2413.474          49.000  
R 8  24333052.465   130302438.552       -2045.334          31.000  
R13  24705435.542                       -4055.034          24.000  
> 2016  5 20 10 26 29.0000000  0 22                     
G 1  21602668.203   113522792.696       -2231.495          47.000  
G 3  21572872.200   113366203.851        1676.650          47.000  
G 6  23621515.687   124131900.992        3261.507          47.000  
G11  22427455.658   117857091.864       -2411.568          41.000  
G17  22348979.621   117444671.464        1846.312          49.000  
G 8  24809400.102   130374276.7843      -1948.216          32.000  
R 2  22346527.289   119245355.930        3739.445          46.000  
G28  20728825.271   108930716.613        1693.848          48.000  
G19  23791122.293   125023175.2152       2663.000          45.000  
R15  20194527.000   107913420.928         168.542          51.000  
G22  22160900.494   116456312.223        -231.730          46.000  
J 1  37438308.786   196739634.853          39.771          45.000  
R14  20682777.706   110250936.319       -2991.258          43.000  
R24  21718221.940   116137091.045       -1614.855          39.000  
R17  20558806.483   110014367.484         547.518          51.000  
G 7  24187642.055   127106918.006       -2953.661          46.000  
R 1  22075600.248   118006752.212         731.510          42.000  
R18  22919535.750   122346045.8262       2301.191          51.000  
R16  23302409.482   124477277.2343       3668.926          38.000  
G30  22936549.410   120532366.514       -2413.252          50.000  
R 8  24333438.115   130304485.257       -2046.409          31.000  
R13  24706199.565                       -4051.723          24.000  
> 2016  5 20 10 26 30.0000000  0 22                     
G 1  21603092.993   113525024.774       -2231.871          47.000  
G 3  21572553.332   113364527.867        1675.990          47.000  
G 6  23620895.314   124128641.032        3261.046          45.000  
G11  22427914.477   117859504.065       -2412.451          41.000  
G17  22348628.243   117442824.230        1847.166          49.000  
G 8  24809766.870   130376224.4242      -1946.757          32.000  
R 2  22345826.855   119241616.729        3739.161          47.000  
G28  20728503.262   108929023.502        1693.353          48.000  
G19  23790617.162   125020536.8143       2662.988          43.000  
R15  20194495.485   107913252.950         167.587          52.000  
G22  22160944.329   116456544.335        -232.331          46.000  
J 1  37438301.213   196739595.173          39.681          45.000  
R14  20683338.992   110253928.095       -2992.023          43.000  
R24  21718523.899   116138706.118       -1615.026          40.000  
R17  20558703.893   110013820.338         547.306          51.000  
G 7  24188203.708   127109871.006       -2952.434          45.000  
R 1  22075463.543   118006021.174         730.763          42.000  
R18  22919104.310   122343729.3093       2302.932          51.000  
R16  23301719.849   124473593.7262       3665.330          31.000  
G30  22937008.595   120534779.805       -2412.291          48.000  
R 8  24333819.384   130306532.511       -2047.660          32.000  
R13  24706958.318                       -4053.565          25.000  
> 2016  5 20 10 26 31.0000000  0 20                     
G 1  21603517.749   113527256.964       -2232.657          47.000  
G 3  21572234.272   113362852.336        1674.934          47.000  
G 6  23620274.732   124125381.236        3259.848          47.000  
G11  22428373.644   117861916.180       -2412.347          41.000  
G17  22348276.866   117440976.824        1847.023          47.000  
R 8  24334202.835   130308571.7703      -2048.589          32.000  
R 2  22345126.142   119237877.682        3738.516          47.000  
G28  20728181.078   108927330.643        1692.346          48.000  
G19  23790108.279   125017872.8172       2663.715          45.000  
R15  20194464.145   107913085.648         166.779          52.000  
G22  22160988.949   116456776.901        -233.266          46.000  
J 1  37438293.709   196739555.415          39.227          46.000  
R14  20683900.383   110256920.227       -2992.924          43.000  
R24  21718825.927   116140321.069       -1615.366          40.000  
R17  20558601.530   110013273.168         546.979          52.000  
G 7  24188765.692   127112823.860       -2952.938          47.000  
R 1  22075327.204   118005290.831         729.633          42.000  
R18  22918673.447   122341429.8662       2301.823          49.000  
R16  23301035.801   124469939.5593       3669.485          34.000  
G30  22937467.850   120537193.212       -2414.100          48.000  
> 2016  5 20 10 26 32.0000000  0 21                     
G 1  21603942.714   113529489.525       -2232.612          47.000  
G 3  21571915.649   113361177.499        1674.916          47.000  
G 6  23619653.784   124122121.716        3259.304          45.000  
G11  22428832.986   117864328.544       -2412.321          42.000  
G17  22347925.296   117439129.631        1845.897          49.000  
G 8  24810507.527                       -1946.799          33.000  
R 2  22344425.638   119234139.042        3738.835          47.000  
G28  20727859.087   108925638.299        1692.255          48.000  
G19  23789603.723   125015210.4143       2664.514          43.000  
R15  20194432.926   107912919.330         166.068          52.000  
G22  22161033.464   116457010.163        -233.582          46.000  
J 1  37438286.066   196739515.844          39.275          45.000  
R14  20684461.966   110259912.987       -2992.927          44.000  
R24  21719127.781   116141936.143       -1615.384          40.000  
R17  20558499.045   110012726.237         546.523          51.000  
G 7  24189327.624   127115776.597       -2952.848          47.000  
R 1  22075190.622   118004561.403         728.810          42.000  
R18  22918242.252   122339127.6002       2301.470          50.000  
R16  23300346.534                        3680.801          37.000  
G30  22937926.948   120539606.802       -2413.404          49.000  
R 8  24334580.004   130310592.2382      -2050.002          31.000  
> 2016  5 20 10 26 33.0000000  0 21                     
G 1  21604367.435   113531722.137       -2232.828          47.000  
G 3  21571596.938   113359502.966        1674.078          47.000  
G 6  23619033.621   124118862.162        3259.820          47.000  
G11  22429292.032   117866740.872       -2412.535          42.000  
G17  22347573.936   117437282.201        1847.681          48.000  
G 8  24810879.496   130382051.6563      -1947.774          35.000  
R 2  22343724.872   119230400.464        3736.680          47.000  
G28  20727537.061   108923946.154        1691.601          48.000  
G19  23789096.707   125012546.3912       2663.666          46.000  
R15  20194402.092   107912753.644         164.851          52.000  
G22  22161077.631   116457243.767        -234.227          46.000  
J 1  37438278.877   196739476.095          38.332          47.000  
R14  20685023.514   110262906.035       -2993.552          44.000  
R24  21719429.670   116143551.055       -1615.300          40.000  
R17  20558396.996   110012179.284         546.806          51.000  
G 7  24189889.696   127118729.040       -2952.749          46.000  
R 1  22075054.335   118003832.545         728.239          42.000  
R18  22917810.830   122336826.6142       2302.819          46.000  
R16  23299658.664   124462583.0783       3666.577          36.000  
G30  22938386.237   120542020.359       -2413.938          49.000  
R 8  24334964.852                       -2049.355          31.000  
> 2016  5 20 10 26 34.0000000  0 21                     
G 1  21604792.452   113533955.280       -2233.311          47.000  
G 3  21571278.611   113357829.324        1672.379          47.000  
G 6  23618413.353   124115603.128        3257.348          45.000  
G11  22429751.775   117869153.646       -2413.064          42.000  
G17  22347222.558   117435435.113        1846.875          48.000  
G 8  24811245.270                       -1948.796          28.000  
R 2  22343024.350   119226662.468        3738.126          47.000  
G28  20727215.226   108922254.656        1691.144          48.000  
G19  23788588.644   125009876.1433       2664.038          45.000  
R15  20194371.187   107912589.063         163.964          51.000  
G22  22161122.164   116457478.243        -234.688          46.000  
J 1  37438271.181   196739436.610          39.284          45.000  
R14  20685585.341   110265899.822       -2994.391          44.000  
R24  21719731.890   116145166.270       -1615.433          40.000  
R17  20558294.895   110011632.768         546.269          51.000  
G 7  24190451.628   127121681.614       -2952.841          47.000  
R 1  22074918.294   118003104.827         727.474          42.000  
R18  22917379.897   122334523.9293       2298.105          48.000  
R16  23298974.703                        3669.296          39.000  
G30  22938845.230   120544434.254       -2413.811          49.000  
R 8  24335346.942   130314699.0572      -2049.464          34.000  
> 2016  5 20 10 26 35.0000000  0 20                     
G 1  21605217.191   113536188.414       -2233.561          47.000  
G 3  21570960.180   113356155.963        1672.798          47.000  
G 6  23617793.137   124112344.033        3258.332          43.000  
G11  22430210.768   117871566.254       -2413.008          43.000  
G17  22346871.129   117433587.763        1847.234          48.000  
R 2  22342323.794   119222924.597        3737.556          47.000  
G28  20726893.252   108920563.271        1690.912          48.000  
G19  23788081.348   125007212.2702       2661.572          41.000  
R15  20194340.789   107912425.054         163.508          52.000  
G22  22161166.801   116457713.038        -234.294          46.000  
J 1  37438264.061   196739396.975          39.362          45.000  
R14  20686146.976   110268893.909       -2994.830          43.000  
R24  21720033.831   116146781.231       -1614.991          40.000  
R17  20558192.985   110011086.140         546.192          51.000  
G 7  24191013.525   127124633.888       -2951.882          47.000  
R 1  22074782.426   118002377.746         726.545          43.000  
R18  22916948.720   122332222.9883       2298.965          44.000  
R16  23298287.758                        3668.399          36.000  
G30  22939304.695   120546848.185       -2414.158          49.000  
R 8  24335730.881   130316749.4392      -2050.406          33.000  
> 2016  5 20 10 26 36.0000000  0 21                     
G 1  21605642.278   113538421.819       -2233.486          46.000  
G 3  21570642.097   113354483.315        1672.296          47.000  
G 6  23617172.886   124109085.299        3257.687          45.000  
G11  22430669.552   117873978.999       -2411.945          42.000  
G17  22346519.262   117431740.445        1847.313          47.000  
G 8  24811988.457   130387878.8302      -1948.009          32.000  
R 2  22341623.429   119219187.065        3737.340          48.000  
G28  20726571.243   108918872.329        1690.790          48.000  
G19  23787575.798   125004548.2702       2663.611          46.000  
R15  20194310.216   107912261.953         162.807          52.000  
G22  22161211.788   116457948.539        -235.439          44.000  
J 1  37438256.261   196739357.527          39.259          45.000  
R14  20686708.839   110271888.619       -2995.068          43.000  
R24  21720335.999   116148396.238       -1615.183          40.000  
R17  20558090.640   110010539.695         546.320          51.000  
G 7  24191575.299   127127586.251       -2952.123          46.000  
R 1  22074646.367   118001651.332         727.405          41.000  
R18  22916517.630   122329921.2252       2299.933          49.000  
R16  23297602.924   124451602.2443       3665.366          42.000  
G30  22939764.316   120549262.351       -2414.423          49.000  
R 8  24336115.118   130318800.3872      -2051.829          28.000  
> 2016  5 20 10 26 37.0000000  0 20                     
G 1  21606067.470   113540655.302       -2233.626          47.000  
G 3  21570323.683   113352811.208        1672.083          47.000  
G 6  23616552.828   124105827.262        3258.033          44.000  
G11  22431128.423   117876391.795       -2412.507          41.000  
G17  22346168.007   117429893.056        1847.821          48.000  
R 2  22340922.838   119215449.911        3737.192          47.000  
G28  20726249.688   108917181.695        1690.668          48.000  
G19  23787069.288   125001884.3922       2663.123          43.000  
R15  20194279.539   107912099.712         161.802          52.000  
G22  22161256.687   116458184.495        -235.450          47.000  
J 1  37438248.827   196739318.152          39.493          45.000  
R14  20687270.613   110274883.985       -2995.819          44.000  
R24  21720637.958   116150011.051       -1614.610          39.000  
R17  20557988.312   110009993.273         546.483          50.000  
G 7  24192136.795   127130538.689       -2952.529          48.000  
R 1  22074510.377   118000925.906         724.865          43.000  
R18  22916086.051   122327621.2532       2297.780          47.000  
R16  23296908.458   124447936.1422       3666.167          42.000  
G30  22940223.920   120551676.847       -2414.596          49.000  
R 8  24336497.748   130320851.6552      -2051.371          28.000  
> 2016  5 20 10 26 38.0000000  0 21                     
G 1  21606492.610   113542888.849       -2233.518          47.000  
G 3  21570005.531   113351139.693        1671.428          47.000  
G 6  23615933.275   124102569.118        3257.098          48.000  
G11  22431587.608   117878804.516       -2412.405          43.000  
G17  22345815.879   117428045.629        1847.631          48.000  
G 8  24812730.842   130391779.8312      -1947.445          32.000  
R 2  22340222.526   119211713.119        3736.797          48.000  
G28  20725928.028   108915491.442        1690.332          48.000  
G19  23786561.138   124999220.6272       2666.064          41.000  
R15  20194249.542   107911938.369         160.387          52.000  
G22  22161301.465   116458420.884        -236.501          46.000  
J 1  37438241.533   196739278.905          39.108          45.000  
R14  20687832.458   110277880.094       -2996.765          44.000  
R24  21720939.829   116151625.705       -1614.962          40.000  
R17  20557886.368   110009446.895         546.163          51.000  
G 7  24192698.500   127133491.348       -2952.466          48.000  
R 1  22074374.545   118000200.966         724.530          42.000  
R18  22915654.786   122325321.0762       2300.252          44.000  
R16  23296230.534   124444270.8003       3665.493          41.000  
G30  22940683.279   120554091.797       -2414.916          49.000  
R 8  24336880.467   130322903.2342      -2051.131          29.000  
> 2016  5 20 10 26 39.0000000  0 21                     
G 1  21606917.365   113545122.326       -2233.730          47.000  
G 3  21569687.448   113349468.585        1670.698          47.000  
G 6  23615312.937   124099311.713        3257.051          42.000  
G11  22432047.020   117881216.979       -2412.943          43.000  
G17  22345464.152   117426198.170        1847.374          47.000  
G 8  24813102.357   130393732.0633      -1948.561          32.000  
R 2  22339522.353   119207976.514        3736.171          48.000  
G28  20725606.491   108913801.433        1689.795          48.000  
G19  23786054.698   124996557.0172       2663.391          45.000  
R15  20194219.527   107911777.928         159.755          52.000  
G22  22161346.556   116458657.544        -236.794          47.000  
J 1  37438233.855   196739239.602          39.033          45.000  
R14  20688394.390   110280876.827       -2997.351          44.000  
R24  21721242.032   116153239.920       -1613.882          40.000  
R17  20557783.987   110008900.436         546.346          51.000  
G 7  24193260.450   127136444.097       -2953.326          48.000  
R 1  22074238.887   117999476.465         724.042          41.000  
R18  22915224.045   122323021.2432       2300.875          43.000  
R16  23295539.069   124440605.3092       3664.947          39.000  
G30  22941142.517   120556507.145       -2415.522          49.000  
R 8  24337264.214   130324955.1802      -2051.919          29.000  
> 2016  5 20 10 26 40.0000000  0 21                     
G 1  21607342.488   113547355.696       -2233.082          47.000  
G 3  21569369.470   113347797.999        1670.355          47.000  
G 6  23614693.385   124096054.603        3256.792          46.000  
G11  22432506.048   117883629.223       -2411.968          42.000  
G17  22345112.600   117424350.477        1848.463          48.000  
G 8  24813471.464   130395679.6302      -1946.550          31.000  
R 2  22338822.652   119204240.307        3735.633          47.000  
G28  20725285.040   108912111.665        1689.868          48.000  
G19  23785547.734   124993896.6793       2663.123          43.000  
R15  20194189.635   107911618.272         158.795          51.000  
G22  22161391.717   116458894.582        -237.079          47.000  
J 1  37438226.317   196739200.360          39.081          46.000  
R14  20688956.514   110283874.248       -2997.839          44.000  
R24  21721543.764   116154853.844       -1613.718          40.000  
R17  20557681.973   110008353.906         546.711          52.000  
G 7  24193822.277   127139397.026       -2953.099          47.000  
R 1  22074103.368   117998752.533         723.646          41.000  
R18  22914792.903   122320720.8482       2302.666          42.000  
R16  23294854.881   124436939.8272       3667.193          34.000  
G30  22941602.365   120558922.787       -2415.591          49.000  
R 8  24337645.414   130327007.4652      -2053.317          28.000  
> 2016  5 20 10 26 41.0000000  0 21                     
G 1  21607767.313   113549588.858       -2233.131          47.000  
G 3  21569051.597   113346127.880        1669.449          47.000  
G 6  23614073.728   124092797.994        3255.827          45.000  
G11  22432964.622   117886041.107       -2411.308          42.000  
G17  22344761.048   117422502.570        1848.052          48.000  
G 8  24813843.904   130397627.1112      -1947.448          31.000  
R 2  22338122.410   119200504.407        3736.065          48.000  
G28  20724963.520   108910421.999        1689.252          48.000  
G19  23785041.259   124991232.5722       2664.178          45.000  
R15  20194159.987   107911459.292         158.385          52.000  
G22  22161436.931   116459131.871        -237.991          47.000  
J 1  37438218.708   196739161.153          38.802          45.000  
R14  20689518.882   110286872.368       -2998.932          43.000  
R24  21721845.461   116156467.250       -1614.039          40.000  
R17  20557580.221   110007807.131         546.627          51.000  
G 7  24194384.488   127142350.183       -2953.489          49.000  
R 1  22073968.094   117998029.057         723.243          42.000  
R18  22914362.702   122318421.2762       2297.118          47.000  
R16  23294171.286   124433274.5302       3664.769          40.000  
G30  22942062.440   120561338.925       -2417.174          48.000  
R 8  24338025.271   130329059.5192      -2052.180          28.000  
> 2016  5 20 10 26 42.0000000  0 21                     
G 1  21608192.243   113551822.165       -2234.045          47.000  
G 3  21568734.195   113344458.664        1668.281          47.000  
G 6  23613454.036   124089542.159        3255.419          45.000  
G11  22433423.650   117888453.042       -2412.111          42.000  
G17  22344409.287   117420654.772        1846.155          42.000  
G 8  24814205.926                       -1938.574          31.000  
R 2  22337422.289   119196769.262        3734.644          46.000  
G28  20724641.947   108908732.879        1688.354          48.000  
G19  23784533.405   124988569.0012       2662.042          45.000  
R15  20194130.374   107911301.435         157.141          52.000  
G22  22161482.546   116459369.760        -238.420          46.000  
J 1  37438211.344   196739122.390          38.243          45.000  
R14  20690081.686   110289871.603       -3000.097          43.000  
R24  21722147.227   116158080.438       -1613.175          39.000  
R17  20557477.771   110007260.456         546.493          51.000  
G 7  24194946.559   127145304.000       -2954.330          48.000  
R 1  22073832.925   117997306.338         722.172          42.000  
R18  22913931.996   122316118.8463       2298.517          45.000  
R16  23293478.216   124429609.3852       3664.740          40.000  
G30  22942522.253   120563755.812       -2417.427          49.000  
R 8  24338409.891   130331111.4661      -2052.295          28.000  
> 2016  5 20 10 26 43.0000000  0 20                     
G 1  21608617.331   113554055.596       -2233.319          47.000  
G 3  21568416.950   113342790.154        1667.943          47.000  
G 6  23612834.396   124086286.768        3254.563          44.000  
G11  22433882.608   117890865.026       -2412.024          42.000  
G17  22344057.473   117418806.636        1847.989          48.000  
R 2  22336722.483   119193034.605        3734.107          46.000  
G28  20724320.514   108907044.109        1688.574          48.000  
G19  23784026.930   124985905.1072       2662.653          43.000  
R15  20194101.215   107911144.457         156.532          53.000  
G22  22161528.003   116459608.256        -239.058          46.000  
J 1  37438204.312   196739083.894          37.942          45.000  
R14  20690644.578   110292871.615       -3000.555          43.000  
R24  21722449.011   116159693.546       -1613.340          39.000  
R17  20557375.896   110006713.865         546.543          51.000  
G 7  24195508.631   127148257.979       -2953.779          49.000  
R 1  22073697.825   117996584.425         721.160          43.000  
R18  22913501.395   122313819.5522       2299.115          45.000  
R16  23292795.075   124425944.4392       3664.461          41.000  
G30  22942982.311   120566173.160       -2418.024          48.000  
R 8  24338795.209   130333164.355       -2052.917          28.000  
> 2016  5 20 10 26 44.0000000  0 21                     
G 1  21609042.139   113556288.870       -2233.139          47.000  
G 3  21568099.496   113341122.116        1667.755          47.000  
G 6  23612215.070   124083031.644        3255.727          43.000  
G11  22434341.654   117893276.690       -2411.833          42.000  
G17  22343705.642   117416958.348        1848.333          49.000  
G 8  24814952.900   130403457.1293      -1946.755          33.000  
R 2  22336022.712   119189300.325        3733.850          47.000  
G28  20723999.256   108905355.466        1688.452          48.000  
G19  23783519.338   124983241.2552       2662.122          43.000  
R15  20194071.794   107910988.145         155.942          52.000  
G22  22161573.252   116459847.038        -238.927          46.000  
J 1  37438196.704   196739045.379          38.706          45.000  
R14  20691207.417   110295872.241       -3000.726          43.000  
R24  21722750.324   116161306.200       -1612.159          39.000  
R17  20557273.481   110006167.012         546.786          51.000  
G 7  24196070.685   127151212.214       -2954.662          48.000  
R 1  22073562.796   117995862.945         721.484          42.000  
R18  22913070.741   122311520.0482       2300.613          48.000  
R16  23292114.132   124422282.2183       3665.218          37.000  
G30  22943442.298   120568590.867       -2418.104          49.000  
R 8  24339176.950   130335217.320       -2053.611          28.000  
> 2016  5 20 10 26 45.0000000  0 20                     
G 1  21609467.104   113558522.346       -2233.088          47.000  
G 3  21567781.832   113339454.904        1667.209          47.000  
G 6  23611595.622   124079777.142        3254.147          45.000  
G11  22434800.245   117895688.467       -2411.382          42.000  
G17  22343353.915   117415110.080        1848.385          48.000  
R 2  22335322.714   119185566.634        3734.089          46.000  
G28  20723678.137   108903667.370        1688.263          48.000  
G19  23783012.584   124980574.1583       2663.068          44.000  
R15  20194042.582   107910832.868         155.200          52.000  
G22  22161618.587   116460086.482        -239.516          47.000  
J 1  37438189.392   196739007.259          38.329          45.000  
R14  20691770.379   110298873.812       -3001.605          43.000  
R24  21723051.899   116162918.806       -1612.044          39.000  
R17  20557171.170   110005620.338         547.118          51.000  
G 7  24196632.722   127154166.746       -2954.414          49.000  
R 1  22073427.626   117995142.329         720.753          42.000  
R18  22912639.982   122309221.1032       2298.154          50.000  
R16  23291423.418   124418617.6292       3664.870          41.000  
G30  22943902.356   120571009.101       -2418.816          48.000  
R 8  24339561.187   130337270.559       -2053.562          28.000  
> 2016  5 20 10 26 46.0000000  0 20                     
G 1  21609892.366   113560755.889       -2233.506          47.000  
G 3  21567464.360   113337788.395        1666.169          47.000  
G 6  23610976.611   124076522.894        3253.222          45.000  
G11  22435259.064   117898100.159       -2411.576          42.000  
G17  22343002.258   117413261.588        1848.105          49.000  
R 8  24339948.232   130339338.6113      -2053.151          27.000  
R 2  22334622.995   119181833.478        3733.298          46.000  
G28  20723356.704   108901979.532        1687.311          48.000  
G19  23782506.981   124977910.0402       2662.537          44.000  
R15  20194013.597   107910678.334         154.003          52.000  
G22  22161664.377   116460326.479        -240.394          47.000  
J 1  37438181.801   196738969.336          37.930          45.000  
R14  20692333.497   110301876.050       -3002.563          43.000  
R24  21723353.666   116164531.173       -1612.611          39.000  
R17  20557068.860   110005073.522         546.416          51.000  
G 7  24197195.107   127157121.430       -2955.305          49.000  
R 1  22073292.910   117994422.383         719.605          42.000  
R18  22912209.468   122306922.0342       2300.071          49.000  
R16  23290737.764   124414953.1802       3664.217          41.000  
G30  22944362.762   120573427.677       -2419.093          50.000  
> 2016  5 20 10 26 47.0000000  0 20                     
G 1  21610317.593   113562989.457       -2233.216          47.000  
G 3  21567147.569   113336122.279        1666.445          48.000  
G 6  23610357.215   124073269.022        3254.890          47.000  
G11  22435718.214   117900511.771       -2411.270          42.000  
G17  22342650.636   117411413.099        1848.646          48.000  
R 8  24340331.526                       -2052.919          27.000  
R 2  22333923.189   119178100.472        3733.187          46.000  
G28  20723035.725   108900292.050        1687.457          48.000  
G19  23781999.860   124975245.9262       2663.849          45.000  
R15  20193984.927   107910524.705         153.227          52.000  
G22  22161710.271   116460566.801        -240.434          46.000  
J 1  37438174.926   196738931.371          38.170          45.000  
R14  20692896.895   110304878.906       -3003.076          43.000  
R24  21723655.136   116166143.277       -1611.576          39.000  
R17  20556966.584   110004526.760         546.974          52.000  
G 7  24197757.615   127160076.123       -2954.678          49.000  
R 1  22073158.334   117993703.005         719.310          42.000  
R18  22911778.849   122304622.9372       2297.609          51.000  
R16  23290053.035   124411289.1652       3663.829          42.000  
G30  22944823.274   120575846.514       -2418.760          49.000  
> 2016  5 20 10 26 48.0000000  0 21                     
G 1  21610742.453   113565223.020       -2233.583          47.000  
G 3  21566830.638   113334456.477        1665.649          48.000  
G 6  23609738.518   124070015.664        3252.984          45.000  
G11  22436177.137   117902923.159       -2411.635          42.000  
G17  22342298.927   117409564.765        1848.091          49.000  
G 8  24816445.226                       -1952.588          33.000  
R 2  22333223.784   119174367.416        3732.627          46.000  
G28  20722714.745   108898604.935        1686.725          48.000  
G19  23781492.879   124972582.1432       2663.470          45.000  
R15  20193956.273   107910372.053         151.899          52.000  
G22  22161756.078   116460807.352        -240.751          46.000  
J 1  37438167.736   196738893.255          37.930          45.000  
R14  20693460.433   110307882.333       -3003.772          43.000  
R24  21723956.658   116167755.112       -1611.726          39.000  
R17  20556864.814   110003980.173         546.411          51.000  
G 7  24198319.931   127163030.682       -2954.570          46.000  
R 1  22073023.689   117992984.010         718.206          42.000  
R18  22911348.142   122302324.2682       2298.118          51.000  
R16  23289365.758   124407625.7042       3662.985          40.000  
G30  22945283.628   120578265.652       -2419.043          49.000  
R 8  24340712.255                       -2047.954          28.000  
> 2016  5 20 10 26 49.0000000  0 21                     
G 1  21611167.366   113567456.578       -2234.118          47.000  
G 3  21566514.178   113332791.048        1664.673          48.000  
G 6  23609119.314   124066762.703        3252.857          46.000  
G11  22436636.218   117905334.383       -2412.012          42.000  
G17  22341947.218   117407716.444        1847.906          48.000  
G 8  24816814.106   130413237.8553      -1947.651          31.000  
R 2  22332524.153   119170634.524        3732.035          46.000  
G28  20722393.626   108896918.153        1685.846          48.000  
G19  23780985.950   124969924.5753       2662.646          45.000  
R15  20193928.109   107910220.338         150.629          52.000  
G22  22161801.728   116461048.206        -241.766          47.000  
J 1  37438160.355   196738855.068          37.503          45.000  
R14  20694024.075   110310886.404       -3004.932          43.000  
R24  21724257.884   116169366.647       -1611.894          39.000  
R17  20556762.992   110003433.708         545.913          52.000  
G 7  24198882.247   127165985.316       -2955.231          44.000  
R 1  22072889.304   117992265.455         718.107          42.000  
R18  22910917.523   122300025.9672       2298.803          50.000  
R16  23288681.779   124403962.6152       3664.613          37.000  
G30  22945744.069   120580685.188       -2420.428          49.000  
R 8  24341095.724   130345483.6392      -2055.027          32.000  
> 2016  5 20 10 26 50.0000000  0 21                     
G 1  21611592.401   113569690.410       -2233.926          47.000  
G 3  21566197.073   113331126.262        1664.417          47.000  
G 6  23608500.338   124063510.512        3249.510          44.000  
G11  22437094.932   117907745.667       -2411.247          42.000  
G17  22341595.544   117405868.495        1847.845          48.000  
G 8  24817181.695                       -1940.771          30.000  
R 2  22331824.521   119166901.942        3731.947          47.000  
G28  20722072.630   108895232.043        1685.693          48.000  
G19  23780479.056   124967261.4012       2662.683          46.000  
R15  20193899.543   107910069.851         149.760          52.000  
G22  22161847.691   116461289.592        -241.502          46.000  
J 1  37438153.322   196738817.091          38.056          45.000  
R14  20694587.856   110313891.368       -3005.511          43.000  
R24  21724559.336   116170978.196       -1611.636          39.000  
R17  20556661.223   110002887.672         545.580          51.000  
G 7  24199444.283   127168940.286       -2955.134          46.000  
R 1  22072755.060   117991547.703         717.592          42.000  
R18  22910486.800   122297728.319        2297.543          51.000  
R16  23287995.288   124400300.2552       3662.178          42.000  
G30  22946204.947   120583105.267       -2420.921          49.000  
R 8  24341483.503   130347559.8503      -2054.821          31.000  
> 2016  5 20 10 26 51.0000000  0 21                     
G 1  21612017.715   113571924.304       -2233.627          47.000  
G 3  21565880.666   113329461.921        1664.241          47.000  
G 6  23607881.658   124060258.677        3251.341          44.000  
G11  22437553.593   117910156.859       -2410.986          42.000  
G17  22341244.079   117404020.623        1848.572          48.000  
G 8  24817551.273   130417111.8122      -1947.356          31.000  
R 2  22331124.750   119163169.514        3733.196          46.000  
G28  20721752.139   108893546.314        1686.163          48.000  
G19  23779972.110   124964598.5132       2660.791          44.000  
R15  20193871.692   107909920.349         149.833          51.000  
G22  22161893.795   116461531.367        -241.658          46.000  
J 1  37438146.028   196738779.130          38.076          46.000  
R14  20695151.987   110316897.017       -3005.420          44.000  
R24  21724860.666   116172589.533       -1610.878          40.000  
R17  20556559.366   110002341.798         546.085          51.000  
G 7  24200006.651   127171895.157       -2954.623          46.000  
R 1  22072620.868   117990830.514         717.285          42.000  
R18  22910056.495   122295430.864        2301.053          48.000  
R16  23287309.250   124396638.4752       3661.498          39.000  
G30  22946665.580   120585525.727       -2420.010          49.000  
R 8  24341864.179   130349615.5352      -2055.326          30.000  
> 2016  5 20 10 26 52.0000000  0 21                     
G 1  21612442.419   113574157.948       -2233.928          47.000  
G 3  21565563.927   113327797.780        1663.689          47.000  
G 6  23607262.838   124057007.144        3250.449          35.000  
G11  22438012.551   117912567.647       -2411.035          42.000  
G17  22340892.370   117402172.541        1848.234          48.000  
G 8  24817921.723   130419058.1892      -1946.437          31.000  
R 2  22330425.310   119159437.115        3731.764          46.000  
G28  20721431.369   108891860.733        1685.016          48.000  
G19  23779465.530   124961935.3042       2662.640          45.000  
R15  20193844.191   107909771.529         148.162          52.000  
G22  22161939.846   116461773.218        -242.106          46.000  
J 1  37438139.083   196738740.906          37.906          46.000  
R14  20695715.856   110319903.096       -3006.873          44.000  
R24  21725161.910   116174200.320       -1610.616          40.000  
R17  20556457.247   110001795.760         545.319          52.000  
G 7  24200568.618   127174849.902       -2955.566          46.000  
R 1  22072486.745   117990113.562         716.804          42.000  
R18  22909625.928   122293133.5563       2297.202          49.000  
R16  23286626.405   124392976.816        3659.846          40.000  
G30  22947125.969   120587946.283       -2420.618          49.000  
R 8  24342248.258   130351671.2512      -2055.708          29.000  
